,ride_id,rideable_type,started_at,ended_at,start_station_name,start_station_id,end_station_name,end_station_id,start_lat,start_lng,end_lat,end_lng,member_casual
435,DCFDF8189149B0AE,classic_bike,2021-08-10 17:32:29,2021-08-10 17:35:32,Devoe St & Lorimer St,5259,Leonard St & Maujer St,5148,40.71335226222875,-73.9491033554077,40.7103685423523,-73.94705951213837,member
6952,358AB8C2AA1F9AE6,classic_bike,2021-08-11 19:22:57,2021-08-11 19:28:54,Division Ave & Hooper St,5045,Leonard St & Maujer St,5148,40.70684203101325,-73.9544353965357,40.7103685423523,-73.94705951213837,member
6957,1EB56ECFFA36C6D6,classic_bike,2021-08-25 17:44:06,2021-08-25 17:56:47,Graham Ave & Withers St,5403,Leonard St & Maujer St,5148,40.7169811,-73.94485918,40.7103685423523,-73.94705951213837,member
6958,46900DB8278AAD3B,electric_bike,2021-08-07 10:52:09,2021-08-07 11:00:02,Graham Ave & Withers St,5403,Leonard St & Maujer St,5148,40.7169811,-73.94485918,40.7103685423523,-73.94705951213837,casual
6980,CE2773FCE5B651DD,electric_bike,2021-08-17 23:49:22,2021-08-18 00:04:53,Sterling Pl & Bedford Ave,3993,Leonard St & Maujer St,5148,40.672695,-73.954131,40.7103685423523,-73.94705951213837,member
7001,C05416610FEF08F4,classic_bike,2021-08-27 19:33:27,2021-08-27 19:41:04,S 4 St & Wythe Ave,5204,Leonard St & Maujer St,5148,40.71285887,-73.96590294,40.7103685423523,-73.94705951213837,casual
7002,4BCA5BC4E41D4A6C,classic_bike,2021-08-07 12:11:52,2021-08-07 12:21:27,S 4 St & Wythe Ave,5204,Leonard St & Maujer St,5148,40.71285887,-73.96590294,40.7103685423523,-73.94705951213837,casual
7027,E0333EA59D48A2E5,classic_bike,2021-08-05 21:44:28,2021-08-05 22:04:50,Canal St & Rutgers St,5303,Leonard St & Maujer St,5148,40.71427487,-73.98990025,40.7103685423523,-73.94705951213837,member
7061,D977EF1CDD298076,classic_bike,2021-08-05 12:34:56,2021-08-05 12:41:54,Union Ave & Jackson St,5300,Leonard St & Maujer St,5148,40.7160751,-73.952029,40.7103685423523,-73.94705951213837,member
7062,C097179C525B2F09,electric_bike,2021-08-21 17:17:30,2021-08-21 17:30:44,Grove St & Broadway,4526,Leonard St & Maujer St,5148,40.69047,-73.923511,40.7103685423523,-73.94705951213837,member
7088,1744C1807DC932A7,electric_bike,2021-08-18 18:41:51,2021-08-18 18:50:10,Milton St & Franklin St,5752,Leonard St & Maujer St,5148,40.72906,-73.95779,40.7103685423523,-73.94705951213837,casual
7089,2241E6A2BA9B299B,electric_bike,2021-08-21 00:52:54,2021-08-21 01:40:42,E 13 St & Avenue A,5779,Leonard St & Maujer St,5148,40.72966729392978,-73.98067966103554,40.7103685423523,-73.94705951213837,casual
7094,C06DECBB2FFDF237,classic_bike,2021-08-08 11:12:54,2021-08-08 11:34:25,Carlton Ave & Dean St,4199,Leonard St & Maujer St,5148,40.6809741,-73.9710097,40.7103685423523,-73.94705951213837,member
7096,B9367DAE5C2C0844,classic_bike,2021-08-10 11:59:47,2021-08-10 12:11:03,Engert Ave & McGuinness Blvd,5473,Leonard St & Maujer St,5148,40.72158,-73.94546,40.7103685423523,-73.94705951213837,member
7102,E1B490FBDC6E1176,classic_bike,2021-08-28 00:56:15,2021-08-28 01:25:44,Carlton Ave & Dean St,4199,Leonard St & Maujer St,5148,40.6809741,-73.9710097,40.7103685423523,-73.94705951213837,casual
7103,1C527439B9D64D6F,classic_bike,2021-08-28 00:35:00,2021-08-28 00:45:25,Bedford Ave & Nassau Ave,5550,Leonard St & Maujer St,5148,40.72311651,-73.95212324,40.7103685423523,-73.94705951213837,member
7110,4959F7408FA72F80,classic_bike,2021-08-30 15:27:50,2021-08-30 15:35:33,Suydam St & Broadway,4689,Leonard St & Maujer St,5148,40.69544,-73.93223,40.7103685423523,-73.94705951213837,member
7112,8264712A7560FEBE,electric_bike,2021-08-17 09:09:12,2021-08-17 09:59:18,S 3 St & Bedford Ave,5235,Leonard St & Maujer St,5148,40.71260486,-73.96264403,40.7103685423523,-73.94705951213837,member
7120,5D9A1FAE0F31E1D0,classic_bike,2021-08-17 22:08:25,2021-08-17 22:35:04,Brooklyn Bridge Park - Pier 2,4756,Leonard St & Maujer St,5148,40.698458,-73.997178,40.7103685423523,-73.94705951213837,casual
7148,F75BC4E99D7D98D7,classic_bike,2021-08-08 16:02:08,2021-08-08 16:25:05,Cleveland Pl & Spring St,5492,Leonard St & Maujer St,5148,40.722103786686034,-73.99724900722504,40.7103685423523,-73.94705951213837,casual
7151,3D296F623CD7A0BB,classic_bike,2021-08-19 14:30:40,2021-08-19 14:38:35,Stagg St & Union Ave,5117,Leonard St & Maujer St,5148,40.70877084,-73.95095259,40.7103685423523,-73.94705951213837,member
7164,3F31823AB4D0D69B,classic_bike,2021-08-10 20:43:30,2021-08-10 20:51:21,Bayard St & Leonard St,5442,Leonard St & Maujer St,5148,40.71915571696044,-73.94885390996933,40.7103685423523,-73.94705951213837,member
7165,2F4C24D3C830D1BE,classic_bike,2021-08-12 07:22:50,2021-08-12 07:29:30,Bayard St & Leonard St,5442,Leonard St & Maujer St,5148,40.71915571696044,-73.94885390996933,40.7103685423523,-73.94705951213837,member
7166,1F16FD0BC0065D7F,classic_bike,2021-08-12 20:33:14,2021-08-12 20:39:31,Bayard St & Leonard St,5442,Leonard St & Maujer St,5148,40.71915571696044,-73.94885390996933,40.7103685423523,-73.94705951213837,casual
7167,A954E4435E91BD8E,classic_bike,2021-08-25 17:58:13,2021-08-25 18:04:25,Bayard St & Leonard St,5442,Leonard St & Maujer St,5148,40.71915571696044,-73.94885390996933,40.7103685423523,-73.94705951213837,casual
7170,9377FEC7572E5EB8,classic_bike,2021-08-29 14:30:40,2021-08-29 14:41:11,Division Ave & Hooper St,5045,Leonard St & Maujer St,5148,40.70684203101325,-73.9544353965357,40.7103685423523,-73.94705951213837,casual
7203,5E4B067AEB6D6DD7,electric_bike,2021-08-18 18:01:51,2021-08-18 18:05:28,Graham Ave & Conselyea St,5291,Leonard St & Maujer St,5148,40.715143,-73.944507,40.7103685423523,-73.94705951213837,member
7211,335E62A5DC8C5608,electric_bike,2021-08-21 14:22:41,2021-08-21 14:39:41,E 3 St & 1 Ave,5553,Leonard St & Maujer St,5148,40.72467721,-73.98783413,40.7103685423523,-73.94705951213837,casual
7213,09C540A6E2339522,electric_bike,2021-08-15 03:30:51,2021-08-15 03:48:07,Evergreen Ave & Noll St,4873,Leonard St & Maujer St,5148,40.70106,-73.93318,40.7103685423523,-73.94705951213837,casual
7222,DDF5655224C331E5,electric_bike,2021-08-19 18:57:35,2021-08-19 19:21:11,MacDougal St & Washington Sq,5797,Leonard St & Maujer St,5148,40.73226398,-73.99852205,40.7103685423523,-73.94705951213837,member
7224,060550D88DE27624,classic_bike,2021-08-03 10:46:09,2021-08-03 10:52:53,S 4 St & Rodney St,5156,Leonard St & Maujer St,5148,40.70934,-73.95608,40.7103685423523,-73.94705951213837,member
13619,3ABA5FE021FE9B4D,classic_bike,2021-08-16 10:18:28,2021-08-16 10:23:08,Leonard St & Maujer St,5148,Union Ave & Jackson St,5300,40.7103685423523,-73.94705951213837,40.7160751,-73.952029,member
33952,278DF4F29C1267A1,classic_bike,2021-08-28 21:02:54,2021-08-28 21:13:51,India St & Manhattan Ave,5826,Leonard St & Maujer St,5148,40.73232194,-73.9550858,40.7103685423523,-73.94705951213837,casual
33955,53D59A4F86031CE7,classic_bike,2021-08-18 14:35:50,2021-08-18 16:04:00,LaGuardia Pl & W 3 St,5721,Leonard St & Maujer St,5148,40.72917025,-73.99810231,40.7103685423523,-73.94705951213837,member
33975,B5512FE62B22CF68,classic_bike,2021-08-18 15:32:34,2021-08-18 15:40:22,Division Ave & Marcy Ave,5084,Leonard St & Maujer St,5148,40.70708701,-73.95796783,40.7103685423523,-73.94705951213837,member
33977,2A0C8B169C50825C,classic_bike,2021-08-18 20:35:25,2021-08-18 21:05:09,Front St & Washington St,4936,Leonard St & Maujer St,5148,40.70255088,-73.98940236,40.7103685423523,-73.94705951213837,member
34007,BE89313FA9E70C41,classic_bike,2021-08-06 14:29:02,2021-08-06 15:12:52,Dock St & Front St,4903,Leonard St & Maujer St,5148,40.702709,-73.99253,40.7103685423523,-73.94705951213837,casual
34011,A8D1314B914513BA,electric_bike,2021-08-13 20:46:08,2021-08-13 21:34:33,Stagg St & Union Ave,5117,Leonard St & Maujer St,5148,40.70877084,-73.95095259,40.7103685423523,-73.94705951213837,member
34654,4477B296557A2066,classic_bike,2021-08-30 15:08:40,2021-08-30 15:33:32,Driggs Ave & N 9 St,5411,Leonard St & Maujer St,5148,40.71816969454208,-73.95520135760307,40.7103685423523,-73.94705951213837,member
40115,E3C6ACFF5CD1447D,classic_bike,2021-08-17 21:13:24,2021-08-17 21:41:40,Leonard St & Maujer St,5148,Park Pl & Franklin Ave,4033,40.7103685423523,-73.94705951213837,40.6741806,-73.9564947,member
42962,E1DAEF3AF3B9C28D,classic_bike,2021-08-03 17:28:33,2021-08-03 17:37:03,Leonard St & Maujer St,5148,Union Ave & N 12 St,5411,40.7103685423523,-73.94705951213837,40.71924,-73.95242,casual
47067,F57585E771C7610E,classic_bike,2021-08-28 19:19:42,2021-08-28 19:28:24,Leonard St & Maujer St,5148,Metropolitan Ave & Bedford Ave,5308,40.7103685423523,-73.94705951213837,40.71534825,-73.96024116,member
58325,AA60CF3C9CB20700,classic_bike,2021-08-21 10:08:15,2021-08-21 10:15:54,S 4 St & Wythe Ave,5204,Leonard St & Maujer St,5148,40.71285887,-73.96590294,40.7103685423523,-73.94705951213837,member
58328,77F307F41CB34506,classic_bike,2021-08-01 00:34:01,2021-08-01 00:45:20,S 4 St & Wythe Ave,5204,Leonard St & Maujer St,5148,40.71285887,-73.96590294,40.7103685423523,-73.94705951213837,casual
58329,25ABA896AEFB2557,classic_bike,2021-08-01 10:11:49,2021-08-01 10:20:54,Union Ave & Jackson St,5300,Leonard St & Maujer St,5148,40.7160751,-73.952029,40.7103685423523,-73.94705951213837,casual
58342,4D362D3A7C9AF5B0,classic_bike,2021-08-03 12:17:00,2021-08-03 12:26:17,N 6 St & Bedford Ave,5379,Leonard St & Maujer St,5148,40.71745169,-73.95850939,40.7103685423523,-73.94705951213837,casual
58346,DED03C3CB974574B,classic_bike,2021-08-24 19:48:23,2021-08-24 19:53:42,Montrose Ave & Bushwick Ave,5068,Leonard St & Maujer St,5148,40.70767788,-73.94016171,40.7103685423523,-73.94705951213837,casual
58354,9989FED6B492C3A2,classic_bike,2021-08-02 09:12:26,2021-08-02 09:21:20,S 3 St & Bedford Ave,5235,Leonard St & Maujer St,5148,40.71260486,-73.96264403,40.7103685423523,-73.94705951213837,member
58357,209321863A64685F,classic_bike,2021-08-11 02:49:59,2021-08-11 02:56:17,S 3 St & Bedford Ave,5235,Leonard St & Maujer St,5148,40.71260486,-73.96264403,40.7103685423523,-73.94705951213837,casual
58359,8A733180B6F6FCDD,classic_bike,2021-08-05 22:22:22,2021-08-05 22:27:40,S 3 St & Bedford Ave,5235,Leonard St & Maujer St,5148,40.71260486,-73.96264403,40.7103685423523,-73.94705951213837,casual
58372,DB665B8F462C73F5,classic_bike,2021-08-06 21:49:44,2021-08-06 22:17:40,Grand Army Plaza & Plaza St West,4010,Leonard St & Maujer St,5148,40.6729679,-73.97087984,40.7103685423523,-73.94705951213837,member
58374,F6D28DC466CA4D02,classic_bike,2021-08-15 20:43:35,2021-08-15 21:01:29,India St Pier,5794,Leonard St & Maujer St,5148,40.731734785883454,-73.9612390102593,40.7103685423523,-73.94705951213837,member
58378,920770D4B051193A,classic_bike,2021-08-25 16:38:45,2021-08-25 16:46:45,Union Ave & N 12 St,5411,Leonard St & Maujer St,5148,40.71924,-73.95242,40.7103685423523,-73.94705951213837,member
58400,BD1102F22AB671AB,classic_bike,2021-08-18 13:34:44,2021-08-18 13:57:50,Grand Army Plaza & Plaza St West,4010,Leonard St & Maujer St,5148,40.6729679,-73.97087984,40.7103685423523,-73.94705951213837,member
58401,73C419E8F92AFE98,classic_bike,2021-08-24 17:08:12,2021-08-24 17:34:13,Grand Army Plaza & Plaza St West,4010,Leonard St & Maujer St,5148,40.6729679,-73.97087984,40.7103685423523,-73.94705951213837,member
58404,E71519A9C8BB2E7D,classic_bike,2021-08-30 09:46:06,2021-08-30 10:01:25,India St Pier,5794,Leonard St & Maujer St,5148,40.731734785883454,-73.9612390102593,40.7103685423523,-73.94705951213837,casual
58410,55776F360C4424C7,classic_bike,2021-08-14 10:39:55,2021-08-14 10:50:32,Kent Ave & N 7 St,5489,Leonard St & Maujer St,5148,40.72036775298455,-73.96165072917938,40.7103685423523,-73.94705951213837,member
58412,7F3F112128352902,electric_bike,2021-08-30 19:01:35,2021-08-30 19:10:49,Kent Ave & N 7 St,5489,Leonard St & Maujer St,5148,40.72036775298455,-73.96165072917938,40.7103685423523,-73.94705951213837,member
58417,989A07A745047FF0,electric_bike,2021-08-03 00:22:13,2021-08-03 00:32:25,Kent Ave & N 7 St,5489,Leonard St & Maujer St,5148,40.72036775298455,-73.96165072917938,40.7103685423523,-73.94705951213837,casual
58418,236DE878CEC82A97,classic_bike,2021-08-31 22:22:34,2021-08-31 22:33:18,Banker St & Meserole Ave,5633,Leonard St & Maujer St,5148,40.72606,-73.95621,40.7103685423523,-73.94705951213837,member
58419,D9046AE01448D210,classic_bike,2021-08-17 14:58:26,2021-08-17 15:06:49,Leonard St & Maujer St,5148,Leonard St & Maujer St,5148,40.7103685423523,-73.94705951213837,40.7103685423523,-73.94705951213837,member
58442,3AAB1436E8BD41FC,classic_bike,2021-08-28 19:33:34,2021-08-28 19:38:19,Powers St & Olive St,5210,Leonard St & Maujer St,5148,40.71323,-73.93894,40.7103685423523,-73.94705951213837,casual
58445,D323E693F840BAA6,docked_bike,2021-08-02 13:28:01,2021-08-02 13:48:15,Bedford Ave & Nassau Ave,5550,Leonard St & Maujer St,5148,40.723117,-73.952123,40.710369,-73.94706,casual
58456,AC6CFFEF46EF6A96,classic_bike,2021-08-29 17:12:55,2021-08-29 17:22:52,Bedford Ave & Nassau Ave,5550,Leonard St & Maujer St,5148,40.72311651,-73.95212324,40.7103685423523,-73.94705951213837,member
58457,DF25C880294C1F18,classic_bike,2021-08-14 12:22:33,2021-08-14 12:50:59,Broadway & 12 St,6901,Leonard St & Maujer St,5148,40.7668,-73.9347774,40.7103685423523,-73.94705951213837,member
58460,44FA60A83275DE69,classic_bike,2021-08-15 03:23:38,2021-08-15 03:33:51,Harrison Pl & Porter Ave,5090,Leonard St & Maujer St,5148,40.70686,-73.92851,40.7103685423523,-73.94705951213837,member
58475,EAA155386C372BBB,electric_bike,2021-08-26 13:17:56,2021-08-26 13:28:43,Norfolk St & Broome St,5374,Leonard St & Maujer St,5148,40.7172274,-73.98802084,40.7103685423523,-73.94705951213837,member
58476,10BDA296CC25F49B,electric_bike,2021-08-21 17:31:46,2021-08-21 17:45:45,Norfolk St & Broome St,5374,Leonard St & Maujer St,5148,40.7172274,-73.98802084,40.7103685423523,-73.94705951213837,member
58479,466F0E85815714A7,electric_bike,2021-08-07 18:36:08,2021-08-07 18:57:32,Adams St & Prospect St,4821,Leonard St & Maujer St,5148,40.70076308326151,-73.98869812488556,40.7103685423523,-73.94705951213837,member
58492,4E35ADAFC1D0BE28,electric_bike,2021-08-23 20:11:37,2021-08-23 20:17:58,Meserole Ave & Manhattan Ave,5666,Leonard St & Maujer St,5148,40.72708584,-73.95299117,40.7103685423523,-73.94705951213837,member
58511,25A258503FB63431,classic_bike,2021-08-05 14:48:54,2021-08-05 15:26:38,Montague St & Clinton St,4677,Leonard St & Maujer St,5148,40.6942715,-73.9923272,40.7103685423523,-73.94705951213837,casual
58518,F2D9E53B75795D99,electric_bike,2021-08-26 15:01:17,2021-08-26 15:08:17,Humboldt St & Varet St,4956,Leonard St & Maujer St,5148,40.7031724,-73.940636,40.7103685423523,-73.94705951213837,casual
58520,651AC4B1D367FB49,classic_bike,2021-08-07 18:18:02,2021-08-07 18:25:35,Union Ave & N 12 St,5411,Leonard St & Maujer St,5148,40.71924,-73.95242,40.7103685423523,-73.94705951213837,member
58521,1AB16DF379FBAA93,classic_bike,2021-08-05 21:02:58,2021-08-05 21:26:08,Cooper Square & Astor Pl,5712,Leonard St & Maujer St,5148,40.72951496224949,-73.99075269699097,40.7103685423523,-73.94705951213837,member
58564,2E5FA00454DCF310,classic_bike,2021-08-14 01:59:22,2021-08-14 02:09:06,Wythe Ave & Metropolitan Ave,5348,Leonard St & Maujer St,5148,40.716887,-73.963198,40.7103685423523,-73.94705951213837,member
58568,FCE760135DA09F86,electric_bike,2021-08-19 14:13:27,2021-08-19 14:21:00,Wythe Ave & Metropolitan Ave,5348,Leonard St & Maujer St,5148,40.716887,-73.963198,40.7103685423523,-73.94705951213837,casual
58577,3D02A76B2F88240C,classic_bike,2021-08-01 05:05:51,2021-08-01 05:20:15,Wythe Ave & Metropolitan Ave,5348,Leonard St & Maujer St,5148,40.716887,-73.963198,40.7103685423523,-73.94705951213837,casual
58580,3CE546CED00B939A,classic_bike,2021-08-01 05:06:45,2021-08-01 05:20:34,Wythe Ave & Metropolitan Ave,5348,Leonard St & Maujer St,5148,40.716887,-73.963198,40.7103685423523,-73.94705951213837,casual
58581,13848A6D5CF8A95D,classic_bike,2021-08-20 19:36:42,2021-08-20 19:47:20,Wythe Ave & Metropolitan Ave,5348,Leonard St & Maujer St,5148,40.716887,-73.963198,40.7103685423523,-73.94705951213837,casual
58591,CDE1B081F3936A88,classic_bike,2021-08-09 08:37:58,2021-08-09 08:48:00,Driggs Ave & N 9 St,5411,Leonard St & Maujer St,5148,40.71816969454208,-73.95520135760307,40.7103685423523,-73.94705951213837,casual
58594,2969D66F7939AB30,electric_bike,2021-08-03 00:13:20,2021-08-03 00:14:44,Devoe St & Lorimer St,5259,Leonard St & Maujer St,5148,40.71335226222875,-73.9491033554077,40.7103685423523,-73.94705951213837,member
58601,F20F162976D9E671,classic_bike,2021-08-01 02:13:40,2021-08-01 02:22:01,Metropolitan Ave & Stewart Ave,5273,Leonard St & Maujer St,5148,40.71401,-73.92793,40.7103685423523,-73.94705951213837,casual
58608,DBAB40A74CC71D6F,classic_bike,2021-08-28 00:54:35,2021-08-28 01:25:51,Carlton Ave & Dean St,4199,Leonard St & Maujer St,5148,40.6809741,-73.9710097,40.7103685423523,-73.94705951213837,casual
58614,B9A35B6AE38E81B2,classic_bike,2021-08-12 20:52:27,2021-08-12 20:58:11,Bayard St & Leonard St,5442,Leonard St & Maujer St,5148,40.71915571696044,-73.94885390996933,40.7103685423523,-73.94705951213837,member
58618,692634E203EEEF0E,classic_bike,2021-08-09 20:32:51,2021-08-09 20:39:58,Grand St & Havemeyer St,5267,Leonard St & Maujer St,5148,40.71286844,-73.95698119,40.7103685423523,-73.94705951213837,casual
58622,C1B15402F1EFB2A3,classic_bike,2021-08-04 12:48:46,2021-08-04 12:53:10,Broadway & Whipple St,4883,Leonard St & Maujer St,5148,40.7016657,-73.9437303,40.7103685423523,-73.94705951213837,member
58629,A8252723A65693E0,classic_bike,2021-08-21 10:49:34,2021-08-21 10:52:21,Hope St & Union Ave,5187,Leonard St & Maujer St,5148,40.71167351,-73.95141312,40.7103685423523,-73.94705951213837,member
58656,043831A6DD5271B1,classic_bike,2021-08-16 12:21:22,2021-08-16 12:26:57,S 4 St & Rodney St,5156,Leonard St & Maujer St,5148,40.70934,-73.95608,40.7103685423523,-73.94705951213837,member
58658,BEC13C52A4563B93,classic_bike,2021-08-30 19:36:45,2021-08-30 19:46:48,Harrison Pl & Porter Ave,5090,Leonard St & Maujer St,5148,40.70686,-73.92851,40.7103685423523,-73.94705951213837,casual
58662,6F123E5D242784B6,classic_bike,2021-08-02 09:06:59,2021-08-02 09:28:29,Rockaway Ave & Bainbridge St,4285,Leonard St & Maujer St,5148,40.68319988172761,-73.91166642308235,40.7103685423523,-73.94705951213837,member
58672,0261339939517C78,electric_bike,2021-08-15 13:23:27,2021-08-15 13:46:14,Willoughby Ave & Hall St,4611,Leonard St & Maujer St,5148,40.69196035,-73.96536851,40.7103685423523,-73.94705951213837,casual
58677,11CD4822CFB9217A,classic_bike,2021-08-10 08:30:17,2021-08-10 09:04:04,Boerum St & Broadway,5004,Leonard St & Maujer St,5148,40.70538077,-73.94976519,40.7103685423523,-73.94705951213837,member
58687,EE9D43177EDFC5DE,electric_bike,2021-08-30 17:54:28,2021-08-30 18:59:16,Leonard St & Maujer St,5148,Leonard St & Maujer St,5148,40.7103685423523,-73.94705951213837,40.7103685423523,-73.94705951213837,member
58699,0B252BF408D93F2B,electric_bike,2021-08-09 20:24:24,2021-08-09 21:04:45,5 Ave & 41 St,3306,Leonard St & Maujer St,5148,40.649983,-74.005144,40.7103685423523,-73.94705951213837,member
58701,C380253494F81FCE,electric_bike,2021-08-24 00:01:06,2021-08-24 01:08:26,Graham Ave & Grand St,5178,Leonard St & Maujer St,5148,40.711863,-73.944024,40.7103685423523,-73.94705951213837,member
58702,7E941577B28666ED,classic_bike,2021-08-01 20:48:42,2021-08-01 21:10:20,Graham Ave & Grand St,5178,Leonard St & Maujer St,5148,40.711863,-73.944024,40.7103685423523,-73.94705951213837,member
58703,5FD1C05EB7F4D05D,classic_bike,2021-08-08 15:33:15,2021-08-08 15:41:42,S 4 St & Wythe Ave,5204,Leonard St & Maujer St,5148,40.71285887,-73.96590294,40.7103685423523,-73.94705951213837,member
58721,7B21E0F3CCB31D2E,electric_bike,2021-08-20 12:37:07,2021-08-20 12:51:00,Stanton St & Norfolk St,5445,Leonard St & Maujer St,5148,40.720747,-73.986274,40.7103685423523,-73.94705951213837,member
58728,F7948D25DFD5FEDB,classic_bike,2021-08-12 02:25:28,2021-08-12 02:32:52,S 3 St & Bedford Ave,5235,Leonard St & Maujer St,5148,40.71260486,-73.96264403,40.7103685423523,-73.94705951213837,member
58739,EEF34E452FF13563,electric_bike,2021-08-05 23:26:22,2021-08-05 23:40:18,S 3 St & Bedford Ave,5235,Leonard St & Maujer St,5148,40.71260486,-73.96264403,40.7103685423523,-73.94705951213837,member
58740,F8C82DAABB751780,classic_bike,2021-08-10 13:15:49,2021-08-10 13:23:45,S 3 St & Bedford Ave,5235,Leonard St & Maujer St,5148,40.71260486,-73.96264403,40.7103685423523,-73.94705951213837,member
58777,40406A1EFCB87075,classic_bike,2021-08-20 20:45:38,2021-08-20 20:58:20,S 3 St & Bedford Ave,5235,Leonard St & Maujer St,5148,40.71260486,-73.96264403,40.7103685423523,-73.94705951213837,member
58781,B9E0F3C2B77CE700,electric_bike,2021-08-12 16:54:34,2021-08-12 17:09:16,Stanton St & Norfolk St,5445,Leonard St & Maujer St,5148,40.720747,-73.986274,40.7103685423523,-73.94705951213837,casual
58784,12A5A53B95AE976C,electric_bike,2021-08-13 10:29:51,2021-08-13 10:45:40,Franklin Ave & St Marks Ave,4107,Leonard St & Maujer St,5148,40.6758324,-73.9561677,40.7103685423523,-73.94705951213837,member
58797,1D1211DB3CBD0D16,electric_bike,2021-08-27 22:31:13,2021-08-27 22:36:38,Roebling St & N 4 St,5267,Leonard St & Maujer St,5148,40.71469,-73.95739,40.7103685423523,-73.94705951213837,casual
58809,5BD7B011FDAA778C,electric_bike,2021-08-01 14:30:46,2021-08-01 14:42:23,Banker St & Meserole Ave,5633,Leonard St & Maujer St,5148,40.72606,-73.95621,40.7103685423523,-73.94705951213837,member
58852,205D47E480736B6B,classic_bike,2021-08-02 21:51:01,2021-08-02 21:58:40,S 5 Pl & S 5 St,5125,Leonard St & Maujer St,5148,40.710451,-73.960876,40.7103685423523,-73.94705951213837,member
58854,462EA40014BD2E09,classic_bike,2021-08-05 11:40:59,2021-08-05 11:46:25,S 5 Pl & S 5 St,5125,Leonard St & Maujer St,5148,40.710451,-73.960876,40.7103685423523,-73.94705951213837,member
58864,B2CA677E5246DB05,classic_bike,2021-08-31 23:14:38,2021-08-31 23:22:22,S 5 Pl & S 5 St,5125,Leonard St & Maujer St,5148,40.710451,-73.960876,40.7103685423523,-73.94705951213837,member
58869,777323BAF4D2FB5C,classic_bike,2021-08-24 08:54:24,2021-08-24 09:05:32,N 15 St & Wythe Ave,5520,Leonard St & Maujer St,5148,40.724055,-73.955736,40.7103685423523,-73.94705951213837,member
58875,B4D9876017638CB2,classic_bike,2021-08-09 19:10:51,2021-08-09 19:41:08,Greenwich Ave & Charles St,5914,Leonard St & Maujer St,5148,40.735238,-74.000271,40.7103685423523,-73.94705951213837,casual
58891,015F7406F130F0F6,electric_bike,2021-08-02 21:38:25,2021-08-02 21:51:17,Greenpoint Ave & Manhattan Ave,5785,Leonard St & Maujer St,5148,40.73026,-73.95394,40.7103685423523,-73.94705951213837,casual
58893,0A8B56AAAF4D4EAC,classic_bike,2021-08-14 19:51:20,2021-08-14 20:00:43,Greenpoint Ave & Manhattan Ave,5785,Leonard St & Maujer St,5148,40.73026,-73.95394,40.7103685423523,-73.94705951213837,casual
58896,5018B46344E21DD5,classic_bike,2021-08-16 17:03:07,2021-08-16 17:09:48,Broadway & Berry St,5164,Leonard St & Maujer St,5148,40.71044554,-73.96525063,40.7103685423523,-73.94705951213837,member
58899,1156406FDEDD34B2,classic_bike,2021-08-09 19:23:13,2021-08-09 19:28:59,Bayard St & Leonard St,5442,Leonard St & Maujer St,5148,40.71915571696044,-73.94885390996933,40.7103685423523,-73.94705951213837,member
58905,E8D6D5AD7BB27397,classic_bike,2021-08-18 18:52:48,2021-08-18 19:00:46,S 4 St & Wythe Ave,5204,Leonard St & Maujer St,5148,40.71285887,-73.96590294,40.7103685423523,-73.94705951213837,member
58928,0DD0DF6A9979CDC8,classic_bike,2021-08-04 20:54:57,2021-08-04 21:08:22,Suydam St & Knickerbocker Ave,4939,Leonard St & Maujer St,5148,40.702013,-73.923769,40.7103685423523,-73.94705951213837,casual
58929,343E1D42E2487F8E,electric_bike,2021-08-25 16:09:16,2021-08-25 16:19:50,Suydam St & Knickerbocker Ave,4939,Leonard St & Maujer St,5148,40.702013,-73.923769,40.7103685423523,-73.94705951213837,casual
58935,76C8A69B2921D7BB,classic_bike,2021-08-02 13:42:31,2021-08-02 14:05:05,Sands St & Jay St,4821,Leonard St & Maujer St,5148,40.700119,-73.9862,40.7103685423523,-73.94705951213837,member
58940,EF5449D9CED84EFD,classic_bike,2021-08-15 15:58:18,2021-08-15 16:04:24,Leonard St & Boerum St,5036,Leonard St & Maujer St,5148,40.70583339,-73.94644578,40.7103685423523,-73.94705951213837,casual
58943,D9810FFA805FE6E7,classic_bike,2021-08-29 06:35:39,2021-08-29 06:41:55,Metropolitan Ave & Vandervoort Ave,5241,Leonard St & Maujer St,5148,40.71429,-73.93323,40.7103685423523,-73.94705951213837,member
58946,4A8BAEC7DC906C64,classic_bike,2021-08-06 12:05:40,2021-08-06 12:29:21,Sullivan Pl & Franklin Ave,3704,Leonard St & Maujer St,5148,40.66407983678161,-73.96025128666679,40.7103685423523,-73.94705951213837,casual
58962,6A05C930BC36A9FC,electric_bike,2021-08-17 18:07:31,2021-08-17 18:13:46,S 4 St & Wythe Ave,5204,Leonard St & Maujer St,5148,40.71285887,-73.96590294,40.7103685423523,-73.94705951213837,casual
58963,ED8D214A120C8330,classic_bike,2021-08-14 22:29:21,2021-08-14 22:42:33,Union Ave & Jackson St,5300,Leonard St & Maujer St,5148,40.7160751,-73.952029,40.7103685423523,-73.94705951213837,casual
58965,F4F39493A35E2EBE,classic_bike,2021-08-31 23:08:18,2021-08-31 23:23:47,Wyckoff Av & Jefferson St,5051,Leonard St & Maujer St,5148,40.707165,-73.923711,40.7103685423523,-73.94705951213837,casual
58974,401FB64B0E22DF1E,electric_bike,2021-08-11 23:04:24,2021-08-11 23:17:00,Kingston Ave & Herkimer St,4205,Leonard St & Maujer St,5148,40.67890679,-73.94142771,40.7103685423523,-73.94705951213837,member
58988,70596E021C2185CF,classic_bike,2021-08-21 21:05:00,2021-08-21 21:30:02,Vernon Blvd & 47 Rd,6212,Leonard St & Maujer St,5148,40.7449067,-73.9534573,40.7103685423523,-73.94705951213837,casual
59013,D7D7E1EDDD004962,classic_bike,2021-08-02 01:03:05,2021-08-02 01:04:44,Scholes St & Manhattan Ave,5108,Leonard St & Maujer St,5148,40.70870368,-73.9448625,40.7103685423523,-73.94705951213837,member
59015,ED8E56C6C10AB8D9,classic_bike,2021-08-21 13:49:58,2021-08-21 13:56:18,Scholes St & Manhattan Ave,5108,Leonard St & Maujer St,5148,40.70870368,-73.9448625,40.7103685423523,-73.94705951213837,member
59087,182878BC96E59C7A,classic_bike,2021-08-18 13:15:04,2021-08-18 13:36:00,Verona Pl & Fulton St,4124,Leonard St & Maujer St,5148,40.6803560840434,-73.9476791024208,40.7103685423523,-73.94705951213837,casual
59088,44189A189C1ECC93,classic_bike,2021-08-05 19:57:18,2021-08-05 20:05:32,Graham Ave & Conselyea St,5291,Leonard St & Maujer St,5148,40.715143,-73.944507,40.7103685423523,-73.94705951213837,casual
61073,625428530402F47B,classic_bike,2021-08-31 07:28:20,2021-08-31 07:31:55,Leonard St & Maujer St,5148,Frost St & Meeker Ave,5371,40.7103685423523,-73.94705951213837,40.71766197083994,-73.94880026578903,member
61298,4811B903C54BD0F1,classic_bike,2021-08-12 17:16:59,2021-08-12 17:29:55,Dock 72 Way & Market St,4804,Leonard St & Maujer St,5148,40.69985,-73.97141,40.7103685423523,-73.94705951213837,member
61299,E6C63255A3B04BDF,classic_bike,2021-08-09 17:28:43,2021-08-09 17:42:21,Dock 72 Way & Market St,4804,Leonard St & Maujer St,5148,40.69985,-73.97141,40.7103685423523,-73.94705951213837,member
61347,A9FF4FA11BC9CE61,electric_bike,2021-08-26 16:19:11,2021-08-26 16:46:35,Plaza St West & Flatbush Ave,4010,Leonard St & Maujer St,5148,40.6750207,-73.97111473,40.7103685423523,-73.94705951213837,member
61348,C905E471F68499F4,classic_bike,2021-08-04 17:21:09,2021-08-04 17:23:39,Hope St & Union Ave,5187,Leonard St & Maujer St,5148,40.71167351,-73.95141312,40.7103685423523,-73.94705951213837,member
70981,3B6E89AC4C5D2B45,electric_bike,2021-08-14 18:27:13,2021-08-14 18:42:34,Leonard St & Maujer St,5148,E 6 St & Avenue D,5506,40.7103685423523,-73.94705951213837,40.72228087,-73.97668709,casual
76651,68BC7896688C6DD7,classic_bike,2021-08-20 09:09:02,2021-08-20 09:14:10,Leonard St & Maujer St,5148,Jackson St & Leonard St,5332,40.7103685423523,-73.94705951213837,40.71638031973561,-73.94821286201477,member
86308,EE8812C3FCCCED24,electric_bike,2021-08-05 16:12:17,2021-08-05 16:22:44,Leonard St & Maujer St,5148,India St & Manhattan Ave,5826,40.7103685423523,-73.94705951213837,40.73232194,-73.9550858,member
86309,3B8519DE7DE413BC,classic_bike,2021-08-05 17:38:25,2021-08-05 17:52:42,Leonard St & Maujer St,5148,India St & Manhattan Ave,5826,40.7103685423523,-73.94705951213837,40.73232194,-73.9550858,member
94308,5CD595C79A0637DD,electric_bike,2021-08-04 07:31:33,2021-08-04 07:37:58,Leonard St & Maujer St,5148,Kingsland Ave & Nassau Ave,5613,40.7103685423523,-73.94705951213837,40.72577,-73.94173,member
108237,776369FD06A0D4B8,classic_bike,2021-08-06 18:15:28,2021-08-06 18:20:44,Leonard St & Maujer St,5148,S 4 St & Rodney St,5156,40.7103685423523,-73.94705951213837,40.70934,-73.95608,casual
112349,0479508A415140E3,electric_bike,2021-08-17 18:09:50,2021-08-17 18:27:45,Leonard St & Maujer St,5148,E 1 St & 1 Ave,5593,40.7103685423523,-73.94705951213837,40.72335597960796,-73.98864984512329,member
139140,173D237985F0A0F8,classic_bike,2021-08-11 07:32:43,2021-08-11 07:54:29,Leonard St & Maujer St,5148,Sands St & Jay St,4821,40.7103685423523,-73.94705951213837,40.700119,-73.9862,member
149325,053129D4D3F2F329,classic_bike,2021-08-21 03:04:19,2021-08-21 03:12:31,Leonard St & Maujer St,5148,S 4 St & Wythe Ave,5204,40.7103685423523,-73.94705951213837,40.71285887,-73.96590294,member
149340,B757980179CBB7BA,classic_bike,2021-08-07 20:01:56,2021-08-07 20:20:18,Leonard St & Maujer St,5148,Monroe St & Tompkins Ave,4434,40.7103685423523,-73.94705951213837,40.686203,-73.944694,member
152718,9D0DCA5C9030A613,classic_bike,2021-08-02 15:03:06,2021-08-02 15:14:18,Leonard St & Maujer St,5148,S 4 St & Wythe Ave,5204,40.7103685423523,-73.94705951213837,40.71285887,-73.96590294,casual
154935,0EF3FCF5CF42982C,classic_bike,2021-08-12 16:00:21,2021-08-12 16:06:44,Leonard St & Maujer St,5148,Grand St & Havemeyer St,5267,40.7103685423523,-73.94705951213837,40.71286844,-73.95698119,member
154938,B6D6C3F6E8A23F35,classic_bike,2021-08-27 15:06:07,2021-08-27 15:12:56,Leonard St & Maujer St,5148,Grand St & Havemeyer St,5267,40.7103685423523,-73.94705951213837,40.71286844,-73.95698119,casual
154941,52A34D11C6918D29,classic_bike,2021-08-29 20:38:51,2021-08-29 20:42:29,Leonard St & Maujer St,5148,Frost St & Meeker Ave,5371,40.7103685423523,-73.94705951213837,40.71766197083994,-73.94880026578903,member
155589,0244E724E42D55F9,classic_bike,2021-08-17 10:03:00,2021-08-17 10:09:15,Leonard St & Maujer St,5148,Frost St & Meeker Ave,5371,40.7103685423523,-73.94705951213837,40.71766197083994,-73.94880026578903,member
161264,9EEF053DC2521C55,classic_bike,2021-08-21 23:08:46,2021-08-21 23:17:41,Leonard St & Maujer St,5148,Nassau Ave & Newell St,5623,40.7103685423523,-73.94705951213837,40.724812564400175,-73.94752621650696,member
163066,94F7D51E33D9A018,classic_bike,2021-08-07 11:09:29,2021-08-07 11:15:09,Leonard St & Maujer St,5148,Roebling St & N 4 St,5267,40.7103685423523,-73.94705951213837,40.71469,-73.95739,member
163240,8275B0104730A37D,classic_bike,2021-08-16 16:15:21,2021-08-16 16:29:40,Leonard St & Maujer St,5148,Roebling St & N 4 St,5267,40.7103685423523,-73.94705951213837,40.71469,-73.95739,casual
164079,03C15024AF29DA79,classic_bike,2021-08-13 20:29:40,2021-08-13 20:33:29,Leonard St & Maujer St,5148,McKibbin St & Manhattan Ave,4996,40.7103685423523,-73.94705951213837,40.70510918,-73.94407279,member
164083,5F2C68DB4E989237,classic_bike,2021-08-25 20:37:22,2021-08-25 20:45:52,Leonard St & Maujer St,5148,Metropolitan Ave & Bedford Ave,5308,40.7103685423523,-73.94705951213837,40.71534825,-73.96024116,member
164087,A8CEFB554BCB888E,classic_bike,2021-08-06 13:53:59,2021-08-06 14:00:15,Leonard St & Maujer St,5148,Metropolitan Ave & Bedford Ave,5308,40.7103685423523,-73.94705951213837,40.71534825,-73.96024116,casual
165721,36CE1809C5EA38C4,classic_bike,2021-08-26 13:34:58,2021-08-26 13:38:24,Leonard St & Maujer St,5148,McKibbin St & Manhattan Ave,4996,40.7103685423523,-73.94705951213837,40.70510918,-73.94407279,casual
165722,CBF4DBCBB1A2ADC2,classic_bike,2021-08-11 12:21:29,2021-08-11 12:24:43,Leonard St & Maujer St,5148,McKibbin St & Manhattan Ave,4996,40.7103685423523,-73.94705951213837,40.70510918,-73.94407279,casual
167634,5AD5369F4729C99E,classic_bike,2021-08-01 21:31:49,2021-08-01 21:38:58,Leonard St & Maujer St,5148,Engert Ave & McGuinness Blvd,5473,40.7103685423523,-73.94705951213837,40.72158,-73.94546,member
171274,489E283807438558,classic_bike,2021-08-10 13:26:13,2021-08-10 13:42:51,Leonard St & Maujer St,5148,Monroe St & Classon Ave,4336,40.7103685423523,-73.94705951213837,40.6845683,-73.95881081,member
188931,C97C4352440FCE43,classic_bike,2021-08-26 06:01:18,2021-08-26 06:12:53,Leonard St & Maujer St,5148,Bedford Ave & Nassau Ave,5550,40.7103685423523,-73.94705951213837,40.72311651,-73.95212324,member
192543,DFEB1C04499EE70E,electric_bike,2021-08-07 11:01:12,2021-08-07 11:20:13,Leonard St & Maujer St,5148,Putnam Ave & Throop Ave,4392,40.7103685423523,-73.94705951213837,40.6851532,-73.94111,casual
198428,3C788629A9960CDF,classic_bike,2021-08-01 11:26:05,2021-08-01 11:29:27,Leonard St & Maujer St,5148,Bushwick Ave & Powers St,5250,40.7103685423523,-73.94705951213837,40.71247661,-73.94100005,member
201289,58DC3C41A27ED933,classic_bike,2021-08-04 12:41:31,2021-08-04 13:00:16,Leonard St & Maujer St,5148,Metropolitan Ave & Stewart Ave,5273,40.7103685423523,-73.94705951213837,40.71401,-73.92793,member
201292,D2527C8A914CA7EC,classic_bike,2021-08-26 20:22:23,2021-08-26 20:32:04,Leonard St & Maujer St,5148,Metropolitan Ave & Stewart Ave,5273,40.7103685423523,-73.94705951213837,40.71401,-73.92793,casual
202950,7B3846EEF9348A16,electric_bike,2021-08-26 19:35:28,2021-08-26 19:44:01,Leonard St & Maujer St,5148,Metropolitan Ave & Stewart Ave,5273,40.7103685423523,-73.94705951213837,40.71401,-73.92793,casual
202954,960248E7CBC8E915,classic_bike,2021-08-21 12:42:43,2021-08-21 13:06:33,Leonard St & Maujer St,5148,Thompson St & Bleecker St,5721,40.7103685423523,-73.94705951213837,40.72840059450829,-73.99968780577183,casual
203250,1CAB45855B76A549,electric_bike,2021-08-15 12:33:59,2021-08-15 12:53:50,Leonard St & Maujer St,5148,John St & William St,5065,40.7103685423523,-73.94705951213837,40.70862144,-74.00722156,member
213872,C756B04707A78072,classic_bike,2021-08-02 12:06:25,2021-08-02 12:46:45,Leonard St & Maujer St,5148,Bushwick Ave & Forrest St,4914,40.7103685423523,-73.94705951213837,40.70076,-73.93641,member
215312,F8020152068AC9A8,classic_bike,2021-08-19 19:30:13,2021-08-19 19:33:29,Graham Ave & Conselyea St,5291,Leonard St & Maujer St,5148,40.715143,-73.944507,40.7103685423523,-73.94705951213837,member
215313,60F4C0BD189208B6,electric_bike,2021-08-28 23:06:35,2021-08-28 23:11:04,Graham Ave & Conselyea St,5291,Leonard St & Maujer St,5148,40.715143,-73.944507,40.7103685423523,-73.94705951213837,member
215316,5ED0E9BE0F75AB6E,electric_bike,2021-08-11 23:19:27,2021-08-11 23:54:50,Graham Ave & Conselyea St,5291,Leonard St & Maujer St,5148,40.715143,-73.944507,40.7103685423523,-73.94705951213837,member
215317,813F0ED7A5DD8AF3,classic_bike,2021-08-16 17:41:04,2021-08-16 18:03:37,Madison St & Forest Ave,5025,Leonard St & Maujer St,5148,40.70555,-73.90245,40.7103685423523,-73.94705951213837,member
215318,2AE7A3AFA2619289,classic_bike,2021-08-13 08:21:34,2021-08-13 08:39:42,46 Ave & 5 St,6286,Leonard St & Maujer St,5148,40.74731,-73.95451,40.7103685423523,-73.94705951213837,casual
215343,67515D386BACA18A,classic_bike,2021-08-19 03:25:48,2021-08-19 03:39:54,Grand St & Havemeyer St,5267,Leonard St & Maujer St,5148,40.71286844,-73.95698119,40.7103685423523,-73.94705951213837,member
215344,098AAA07CF0521A0,classic_bike,2021-08-12 22:17:08,2021-08-12 22:25:07,Grand St & Havemeyer St,5267,Leonard St & Maujer St,5148,40.71286844,-73.95698119,40.7103685423523,-73.94705951213837,casual
215352,3F82B2CEE053B55C,classic_bike,2021-08-27 01:41:17,2021-08-27 01:54:40,Stewart Ave & Johnson Ave,5123,Leonard St & Maujer St,5148,40.70869,-73.92587,40.7103685423523,-73.94705951213837,member
215372,256269141564B88E,classic_bike,2021-08-23 16:30:41,2021-08-23 16:37:54,Bedford Ave & S 9 St,5093,Leonard St & Maujer St,5148,40.70853074,-73.96408963,40.7103685423523,-73.94705951213837,member
215408,84159F3519215B38,classic_bike,2021-08-05 15:38:24,2021-08-05 15:40:06,Scholes St & Manhattan Ave,5108,Leonard St & Maujer St,5148,40.70870368,-73.9448625,40.7103685423523,-73.94705951213837,member
215410,9F296078134EBD08,classic_bike,2021-08-21 13:25:02,2021-08-21 13:27:29,Scholes St & Manhattan Ave,5108,Leonard St & Maujer St,5148,40.70870368,-73.9448625,40.7103685423523,-73.94705951213837,casual
215434,FC5A951541497103,classic_bike,2021-08-26 14:55:58,2021-08-26 14:57:22,Scholes St & Manhattan Ave,5108,Leonard St & Maujer St,5148,40.70870368,-73.9448625,40.7103685423523,-73.94705951213837,member
215436,C979719F6BE349D6,classic_bike,2021-08-05 22:49:14,2021-08-05 22:51:11,Scholes St & Manhattan Ave,5108,Leonard St & Maujer St,5148,40.70870368,-73.9448625,40.7103685423523,-73.94705951213837,member
215459,1F471957D35548FC,classic_bike,2021-08-03 00:09:43,2021-08-03 00:16:08,Humboldt St & Varet St,4956,Leonard St & Maujer St,5148,40.7031724,-73.940636,40.7103685423523,-73.94705951213837,casual
215460,C513D8595D0B7A0C,electric_bike,2021-08-28 20:03:23,2021-08-28 20:28:11,Carmine St & 6 Ave,5763,Leonard St & Maujer St,5148,40.73038599,-74.00214988,40.7103685423523,-73.94705951213837,casual
215461,A5CB64AA20C6561B,classic_bike,2021-08-28 18:47:38,2021-08-28 18:51:36,Waterbury St & Stagg St,5099,Leonard St & Maujer St,5148,40.71019,-73.93734,40.7103685423523,-73.94705951213837,member
215465,6CEEF7D1A99E61F8,classic_bike,2021-08-29 11:47:46,2021-08-29 12:12:54,Nassau St & Navy St,4812,Leonard St & Maujer St,5148,40.69839895,-73.98068914,40.7103685423523,-73.94705951213837,casual
215490,5EBDC9B6C376EC44,classic_bike,2021-08-04 19:04:10,2021-08-04 19:12:17,Humboldt St & Varet St,4956,Leonard St & Maujer St,5148,40.7031724,-73.940636,40.7103685423523,-73.94705951213837,casual
215491,6A150DAB382EB188,classic_bike,2021-08-23 23:45:43,2021-08-23 23:52:08,Humboldt St & Varet St,4956,Leonard St & Maujer St,5148,40.7031724,-73.940636,40.7103685423523,-73.94705951213837,casual
215493,C5686C366F71D438,classic_bike,2021-08-24 20:08:29,2021-08-24 20:17:14,Humboldt St & Varet St,4956,Leonard St & Maujer St,5148,40.7031724,-73.940636,40.7103685423523,-73.94705951213837,casual
215524,DB9554374C6B4398,classic_bike,2021-08-30 10:26:29,2021-08-30 10:39:22,Engert Ave & McGuinness Blvd,5473,Leonard St & Maujer St,5148,40.72158,-73.94546,40.7103685423523,-73.94705951213837,member
215527,1FB9EF7FAE00A699,classic_bike,2021-08-24 12:16:57,2021-08-24 12:27:12,Engert Ave & McGuinness Blvd,5473,Leonard St & Maujer St,5148,40.72158,-73.94546,40.7103685423523,-73.94705951213837,member
215530,FE997D7B9BD768C7,classic_bike,2021-08-06 19:43:07,2021-08-06 19:45:55,Devoe St & Lorimer St,5259,Leonard St & Maujer St,5148,40.71335226222875,-73.9491033554077,40.7103685423523,-73.94705951213837,member
215531,79FF63A5EC6DF11F,classic_bike,2021-08-05 20:10:16,2021-08-05 20:14:26,Devoe St & Lorimer St,5259,Leonard St & Maujer St,5148,40.71335226222875,-73.9491033554077,40.7103685423523,-73.94705951213837,member
215533,E9FC46D84412F8CF,classic_bike,2021-08-01 12:52:59,2021-08-01 12:55:56,Powers St & Olive St,5210,Leonard St & Maujer St,5148,40.71323,-73.93894,40.7103685423523,-73.94705951213837,member
215542,3D4E3BCABA65BA5D,electric_bike,2021-08-12 09:27:51,2021-08-12 09:34:36,Humboldt St & Varet St,4956,Leonard St & Maujer St,5148,40.7031724,-73.940636,40.7103685423523,-73.94705951213837,casual
215546,5E0F06DEE1C4C562,classic_bike,2021-08-11 16:58:36,2021-08-11 17:04:45,Humboldt St & Varet St,4956,Leonard St & Maujer St,5148,40.7031724,-73.940636,40.7103685423523,-73.94705951213837,casual
215552,B4C1024192E74996,classic_bike,2021-08-06 09:54:47,2021-08-06 10:00:57,Graham Ave & Herbert St,5403,Leonard St & Maujer St,5148,40.71929301,-73.94500379,40.7103685423523,-73.94705951213837,member
215553,2B4E492422BE8FA0,electric_bike,2021-08-28 17:49:18,2021-08-28 18:28:08,W 64 St & Thelonious Monk Circle,7123,Leonard St & Maujer St,5148,40.77515953434235,-73.98918695747852,40.7103685423523,-73.94705951213837,member
215554,1B4BA7B60831679F,electric_bike,2021-08-31 19:40:18,2021-08-31 19:51:09,McGuinness Blvd & Eagle St,5977,Leonard St & Maujer St,5148,40.73555,-73.95284,40.7103685423523,-73.94705951213837,member
215563,5600A2720B3E72B5,electric_bike,2021-08-27 18:19:45,2021-08-27 18:28:10,Roebling St & N 4 St,5267,Leonard St & Maujer St,5148,40.71469,-73.95739,40.7103685423523,-73.94705951213837,member
215570,931B6D6A69F1E9F5,classic_bike,2021-08-19 09:03:13,2021-08-19 09:07:55,Division Ave & Marcy Ave,5084,Leonard St & Maujer St,5148,40.70708701,-73.95796783,40.7103685423523,-73.94705951213837,member
215575,6A1801DB0287783A,classic_bike,2021-08-07 02:41:42,2021-08-07 02:50:00,Bedford Ave & Nassau Ave,5550,Leonard St & Maujer St,5148,40.72311651,-73.95212324,40.7103685423523,-73.94705951213837,casual
215576,394982C7460D9611,electric_bike,2021-08-05 17:18:27,2021-08-05 17:24:58,Powers St & Olive St,5210,Leonard St & Maujer St,5148,40.71323,-73.93894,40.7103685423523,-73.94705951213837,casual
215583,FE821C38486EC370,classic_bike,2021-08-12 13:56:42,2021-08-12 14:01:34,Powers St & Olive St,5210,Leonard St & Maujer St,5148,40.71323,-73.93894,40.7103685423523,-73.94705951213837,casual
215590,DB2BD4301256EF32,classic_bike,2021-08-11 15:20:36,2021-08-11 15:24:57,Powers St & Olive St,5210,Leonard St & Maujer St,5148,40.71323,-73.93894,40.7103685423523,-73.94705951213837,member
215595,3467C107B7763CF6,classic_bike,2021-08-02 11:26:03,2021-08-02 11:36:06,India St & Manhattan Ave,5826,Leonard St & Maujer St,5148,40.73232194,-73.9550858,40.7103685423523,-73.94705951213837,member
215596,C1F2B7725494D1C0,classic_bike,2021-08-09 13:59:36,2021-08-09 14:12:12,India St & Manhattan Ave,5826,Leonard St & Maujer St,5148,40.73232194,-73.9550858,40.7103685423523,-73.94705951213837,casual
215597,8A810B10588B4B67,classic_bike,2021-08-01 13:54:53,2021-08-01 14:08:25,Suydam St & Knickerbocker Ave,4939,Leonard St & Maujer St,5148,40.702013,-73.923769,40.7103685423523,-73.94705951213837,casual
215616,1A2912D667AC3718,classic_bike,2021-08-29 15:41:40,2021-08-29 15:48:40,Metropolitan Ave & Meeker Ave,5300,Leonard St & Maujer St,5148,40.71413311,-73.95234386,40.7103685423523,-73.94705951213837,casual
215620,D4D79F93D855FC6E,electric_bike,2021-08-24 21:31:01,2021-08-24 21:54:59,Union St & 4 Ave,4175,Leonard St & Maujer St,5148,40.6772744,-73.98282002,40.7103685423523,-73.94705951213837,member
215624,E4D8CA132096EECE,electric_bike,2021-08-24 18:54:43,2021-08-24 19:14:22,45 Rd & 11 St,6319,Leonard St & Maujer St,5148,40.74708586,-73.94977234,40.7103685423523,-73.94705951213837,member
215629,F0734E8F94D024C1,classic_bike,2021-08-09 18:30:00,2021-08-09 19:26:46,W 55 St & 6 Ave,6809,Leonard St & Maujer St,5148,40.763189,-73.978434,40.7103685423523,-73.94705951213837,member
215630,74F849F7EBFFCD17,classic_bike,2021-08-06 19:10:33,2021-08-06 19:14:15,Lorimer St & Broadway,4965,Leonard St & Maujer St,5148,40.70411791,-73.94818595,40.7103685423523,-73.94705951213837,member
215658,8E96060470EBCDC6,classic_bike,2021-08-05 00:16:22,2021-08-05 00:34:33,Broadway & Berry St,5164,Leonard St & Maujer St,5148,40.71044554,-73.96525063,40.7103685423523,-73.94705951213837,casual
215659,4D04A7475C59B8EC,classic_bike,2021-08-06 22:32:24,2021-08-06 22:55:27,Bayard St & Leonard St,5442,Leonard St & Maujer St,5148,40.71915571696044,-73.94885390996933,40.7103685423523,-73.94705951213837,casual
215663,78D2B2408F1D4EDA,classic_bike,2021-08-19 13:03:31,2021-08-19 13:09:26,Waterbury St & Stagg St,5099,Leonard St & Maujer St,5148,40.71019,-73.93734,40.7103685423523,-73.94705951213837,member
215670,57649E9F84F855EA,electric_bike,2021-08-20 01:33:29,2021-08-20 01:50:05,E 13 St & 2 Ave,5820,Leonard St & Maujer St,5148,40.73153937464073,-73.9853024482727,40.7103685423523,-73.94705951213837,member
215673,0AEDAA043DFF409B,electric_bike,2021-08-07 02:29:18,2021-08-07 02:42:00,Willoughby Ave & Myrtle Ave,4759,Leonard St & Maujer St,5148,40.69757,-73.93098,40.7103685423523,-73.94705951213837,casual
215685,D38A6BF82EB60FB6,electric_bike,2021-08-07 02:28:01,2021-08-07 02:41:54,Willoughby Ave & Myrtle Ave,4759,Leonard St & Maujer St,5148,40.69757,-73.93098,40.7103685423523,-73.94705951213837,casual
215710,B8C114C94173A011,classic_bike,2021-08-03 18:30:23,2021-08-03 19:00:01,E 51 St & 2 Ave,6575,Leonard St & Maujer St,5148,40.755293,-73.967641,40.7103685423523,-73.94705951213837,casual
215717,4780D0E02DCB8BF5,classic_bike,2021-08-15 23:45:26,2021-08-15 23:53:51,Driggs Ave & Lorimer St,5481,Leonard St & Maujer St,5148,40.72179134,-73.9504154,40.7103685423523,-73.94705951213837,casual
215719,065455B7B7E01BEE,classic_bike,2021-08-15 03:34:06,2021-08-15 03:50:23,Driggs Ave & Lorimer St,5481,Leonard St & Maujer St,5148,40.72179134,-73.9504154,40.7103685423523,-73.94705951213837,casual
215723,309382CA2097EDEC,classic_bike,2021-08-19 19:34:18,2021-08-19 19:51:08,Central Ave & Starr Street,4792,Leonard St & Maujer St,5148,40.700003,-73.92834,40.7103685423523,-73.94705951213837,member
215724,DC26F1978D9A6399,electric_bike,2021-08-18 12:55:30,2021-08-18 13:06:54,Flushing Ave & Vanderbilt Ave,4762,Leonard St & Maujer St,5148,40.69795031569544,-73.97077560424805,40.7103685423523,-73.94705951213837,member
215739,D54664B3E04540F7,classic_bike,2021-08-05 21:38:48,2021-08-05 21:55:29,Jefferson St & Cypress Ave,5082,Leonard St & Maujer St,5148,40.70907,-73.92157,40.7103685423523,-73.94705951213837,member
215745,1FE87E423FDBE196,classic_bike,2021-08-10 23:13:51,2021-08-10 23:25:04,Central Ave & Flushing Ave,4947,Leonard St & Maujer St,5148,40.702831,-73.9333,40.7103685423523,-73.94705951213837,casual
215760,3FDF4E1AA826D457,classic_bike,2021-08-02 15:31:10,2021-08-02 15:51:57,Sands St & Jay St,4821,Leonard St & Maujer St,5148,40.700119,-73.9862,40.7103685423523,-73.94705951213837,member
215766,39C76F9B296BF01B,electric_bike,2021-08-07 07:18:25,2021-08-07 07:55:26,Leonard St & Boerum St,5036,Leonard St & Maujer St,5148,40.70583339,-73.94644578,40.7103685423523,-73.94705951213837,member
215777,D94BB9E019C5C6B9,classic_bike,2021-08-13 16:53:15,2021-08-13 16:55:27,Hope St & Union Ave,5187,Leonard St & Maujer St,5148,40.71167351,-73.95141312,40.7103685423523,-73.94705951213837,member
215784,F22435AB5153BC36,electric_bike,2021-08-19 18:58:31,2021-08-19 19:39:14,University Pl & E 14 St,5905,Leonard St & Maujer St,5148,40.734814,-73.992085,40.7103685423523,-73.94705951213837,casual
215787,FAFF144A9E94EC27,classic_bike,2021-08-30 20:29:09,2021-08-30 20:34:09,Union Ave & Jackson St,5300,Leonard St & Maujer St,5148,40.7160751,-73.952029,40.7103685423523,-73.94705951213837,member
215789,3F6C16BF2B8CB5A7,electric_bike,2021-08-20 19:04:29,2021-08-20 19:13:37,S 4 St & Wythe Ave,5204,Leonard St & Maujer St,5148,40.71285887,-73.96590294,40.7103685423523,-73.94705951213837,member
215804,53B2D27301A67D2A,classic_bike,2021-08-17 01:37:01,2021-08-17 01:49:12,Kent Ave & N 7 St,5489,Leonard St & Maujer St,5148,40.72036775298455,-73.96165072917938,40.7103685423523,-73.94705951213837,member
215806,122B4F374EAFC591,electric_bike,2021-08-12 21:16:29,2021-08-13 01:59:34,W 42 St & Dyer Ave,6644,Leonard St & Maujer St,5148,40.75898481399634,-73.99379968643188,40.7103685423523,-73.94705951213837,member
215809,46A38411DA07CE5C,electric_bike,2021-08-20 18:52:50,2021-08-20 19:05:26,Norfolk St & Broome St,5374,Leonard St & Maujer St,5148,40.7172274,-73.98802084,40.7103685423523,-73.94705951213837,member
215811,97BAF6C56861DEE3,classic_bike,2021-08-28 21:16:03,2021-08-28 21:23:49,S 3 St & Bedford Ave,5235,Leonard St & Maujer St,5148,40.71260486,-73.96264403,40.7103685423523,-73.94705951213837,member
215815,81DED8DA1F3FCA86,classic_bike,2021-08-08 14:37:36,2021-08-08 14:45:19,S 3 St & Bedford Ave,5235,Leonard St & Maujer St,5148,40.71260486,-73.96264403,40.7103685423523,-73.94705951213837,member
215840,DD943C30298B5E17,classic_bike,2021-08-25 19:10:49,2021-08-25 19:33:53,Norfolk St & Broome St,5374,Leonard St & Maujer St,5148,40.7172274,-73.98802084,40.7103685423523,-73.94705951213837,member
215842,8ED715FF52C35CAA,classic_bike,2021-08-06 12:01:32,2021-08-06 12:08:38,S 3 St & Bedford Ave,5235,Leonard St & Maujer St,5148,40.71260486,-73.96264403,40.7103685423523,-73.94705951213837,member
215865,DF06ACD75E3B4451,classic_bike,2021-08-09 17:13:05,2021-08-09 17:22:58,N 6 St & Bedford Ave,5379,Leonard St & Maujer St,5148,40.71745169,-73.95850939,40.7103685423523,-73.94705951213837,casual
215882,FA89D1A7BD2C27BE,electric_bike,2021-08-14 10:15:10,2021-08-14 10:39:14,Gansevoort St & Hudson St,6072,Leonard St & Maujer St,5148,40.73944820130404,-74.00507032871246,40.7103685423523,-73.94705951213837,member
215883,3E53FA9E3605C7ED,classic_bike,2021-08-09 17:44:04,2021-08-09 17:54:36,Kent Ave & N 7 St,5489,Leonard St & Maujer St,5148,40.72036775298455,-73.96165072917938,40.7103685423523,-73.94705951213837,member
215885,46D2A4A00DB0ECFB,electric_bike,2021-08-02 07:47:08,2021-08-02 07:56:00,Kent Ave & N 7 St,5489,Leonard St & Maujer St,5148,40.72036775298455,-73.96165072917938,40.7103685423523,-73.94705951213837,member
215904,A303947BFE60CB1D,classic_bike,2021-08-15 13:40:10,2021-08-15 14:15:26,Lawrence St & Willoughby St,4596,Leonard St & Maujer St,5148,40.69236178,-73.98631746,40.7103685423523,-73.94705951213837,casual
215910,E6804A7A3B675D6D,classic_bike,2021-08-12 09:46:54,2021-08-12 09:55:34,Devoe St & Morgan Ave,5282,Leonard St & Maujer St,5148,40.713811,-73.93515,40.7103685423523,-73.94705951213837,casual
215911,A74147804D8BF348,electric_bike,2021-08-17 16:54:35,2021-08-17 16:58:14,Grand St & Havemeyer St,5267,Leonard St & Maujer St,5148,40.71286844,-73.95698119,40.7103685423523,-73.94705951213837,member
215913,8EB8B2E68F48B837,classic_bike,2021-08-01 18:31:38,2021-08-01 18:40:47,Bedford Ave & Nassau Ave,5550,Leonard St & Maujer St,5148,40.72311651,-73.95212324,40.7103685423523,-73.94705951213837,casual
215915,4D302795AE623B5E,electric_bike,2021-08-24 07:08:31,2021-08-24 07:28:35,Bond St & Fulton St,4479,Leonard St & Maujer St,5148,40.68962188790333,-73.98304268717766,40.7103685423523,-73.94705951213837,casual
215917,AC867C0C231EFCA1,classic_bike,2021-08-09 19:09:05,2021-08-09 19:17:07,Bedford Ave & Nassau Ave,5550,Leonard St & Maujer St,5148,40.72311651,-73.95212324,40.7103685423523,-73.94705951213837,member
215918,CA1F2AD3B992B6FB,classic_bike,2021-08-30 19:57:40,2021-08-30 20:29:06,Bond St & Fulton St,4479,Leonard St & Maujer St,5148,40.68962188790333,-73.98304268717766,40.7103685423523,-73.94705951213837,member
215921,FEBB2E8E6FEA3B3C,classic_bike,2021-08-28 23:58:39,2021-08-29 00:18:49,Bedford Ave & Nassau Ave,5550,Leonard St & Maujer St,5148,40.72311651,-73.95212324,40.7103685423523,-73.94705951213837,casual
215953,014893A21E0D5D9F,electric_bike,2021-08-21 19:04:43,2021-08-21 19:29:33,Willoughby St & Fleet St,4628,Leonard St & Maujer St,5148,40.69196566,-73.9813018,40.7103685423523,-73.94705951213837,member
215966,00D2C6D13A8F3B0A,classic_bike,2021-08-26 21:18:13,2021-08-26 21:26:59,Bayard St & Leonard St,5442,Leonard St & Maujer St,5148,40.71915571696044,-73.94885390996933,40.7103685423523,-73.94705951213837,member
215968,0D8F20127945610E,electric_bike,2021-08-20 22:44:30,2021-08-20 22:53:55,Broadway & Berry St,5164,Leonard St & Maujer St,5148,40.71044554,-73.96525063,40.7103685423523,-73.94705951213837,casual
216000,66686AB223918DD6,classic_bike,2021-08-06 14:28:34,2021-08-06 15:12:44,Dock St & Front St,4903,Leonard St & Maujer St,5148,40.702709,-73.99253,40.7103685423523,-73.94705951213837,casual
216007,49B74638130B7A7E,classic_bike,2021-08-26 08:58:36,2021-08-26 09:05:17,Driggs Ave & N 9 St,5411,Leonard St & Maujer St,5148,40.71816969454208,-73.95520135760307,40.7103685423523,-73.94705951213837,member
216009,63332D109D5FDAA1,classic_bike,2021-08-11 11:26:22,2021-08-11 11:28:43,Devoe St & Lorimer St,5259,Leonard St & Maujer St,5148,40.71335226222875,-73.9491033554077,40.7103685423523,-73.94705951213837,casual
216014,D219BCCE536188C1,classic_bike,2021-08-10 09:49:55,2021-08-10 10:17:52,Scholes St & Manhattan Ave,5108,Leonard St & Maujer St,5148,40.70870368,-73.9448625,40.7103685423523,-73.94705951213837,member
216017,27A8B059E0F6B7A8,classic_bike,2021-08-20 19:30:04,2021-08-20 19:33:21,Devoe St & Lorimer St,5259,Leonard St & Maujer St,5148,40.71335226222875,-73.9491033554077,40.7103685423523,-73.94705951213837,member
216019,26F635AA53943F59,electric_bike,2021-08-28 23:13:08,2021-08-28 23:26:12,Fulton St & Waverly Ave,4345,Leonard St & Maujer St,5148,40.68323865460341,-73.96599590778351,40.7103685423523,-73.94705951213837,member
216021,40434A837D99BDBC,classic_bike,2021-08-29 03:25:56,2021-08-29 03:27:48,Devoe St & Lorimer St,5259,Leonard St & Maujer St,5148,40.71335226222875,-73.9491033554077,40.7103685423523,-73.94705951213837,member
216025,24294E78240AFF27,classic_bike,2021-08-12 23:43:02,2021-08-12 23:46:53,Devoe St & Lorimer St,5259,Leonard St & Maujer St,5148,40.71335226222875,-73.9491033554077,40.7103685423523,-73.94705951213837,casual
216030,E562CC8C2C27703F,electric_bike,2021-08-05 14:32:25,2021-08-05 15:03:58,Devoe St & Lorimer St,5259,Leonard St & Maujer St,5148,40.71335226222875,-73.9491033554077,40.7103685423523,-73.94705951213837,member
216032,9D30875487AAED3D,classic_bike,2021-08-18 20:57:50,2021-08-18 21:03:39,Driggs Ave & N 9 St,5411,Leonard St & Maujer St,5148,40.71816969454208,-73.95520135760307,40.7103685423523,-73.94705951213837,casual
216036,690A707CB21B335E,classic_bike,2021-08-17 08:40:09,2021-08-17 08:48:01,Driggs Ave & N 9 St,5411,Leonard St & Maujer St,5148,40.71816969454208,-73.95520135760307,40.7103685423523,-73.94705951213837,casual
216064,79AAA33F4A95D351,electric_bike,2021-08-31 22:03:53,2021-08-31 22:27:39,Milton St & Franklin St,5752,Leonard St & Maujer St,5148,40.72906,-73.95779,40.7103685423523,-73.94705951213837,casual
216104,FA7EB2002366B3CC,electric_bike,2021-08-24 12:59:15,2021-08-24 13:38:22,Congress St & Clinton St,4455,Leonard St & Maujer St,5148,40.68825516598005,-73.99545192718506,40.7103685423523,-73.94705951213837,member
216116,D3A09844EF292801,electric_bike,2021-08-08 19:50:26,2021-08-08 20:03:19,Madison St & Woodward Ave,4954,Leonard St & Maujer St,5148,40.70408,-73.90408,40.7103685423523,-73.94705951213837,member
216131,A3911F2B4BF0BEB6,electric_bike,2021-08-24 23:46:48,2021-08-24 23:57:13,Wyckoff Av & Stanhope St,4931,Leonard St & Maujer St,5148,40.703545,-73.917775,40.7103685423523,-73.94705951213837,casual
216139,64BB16B94653CD0B,classic_bike,2021-08-18 15:24:11,2021-08-18 15:57:00,Brooklyn Bridge Park - Pier 2,4756,Leonard St & Maujer St,5148,40.698458,-73.997178,40.7103685423523,-73.94705951213837,casual
216173,6A804AFFB9537276,classic_bike,2021-08-01 18:12:45,2021-08-01 18:37:49,Nassau Ave & Russell St,5581,Leonard St & Maujer St,5148,40.72557,-73.94434,40.7103685423523,-73.94705951213837,casual
216174,F082096C2A56D90B,electric_bike,2021-08-29 07:02:08,2021-08-29 07:09:19,Broadway & Whipple St,4883,Leonard St & Maujer St,5148,40.7016657,-73.9437303,40.7103685423523,-73.94705951213837,casual
216203,9783F192694D6305,classic_bike,2021-08-07 19:35:43,2021-08-07 19:52:49,McGuinness Blvd & Eagle St,5977,Leonard St & Maujer St,5148,40.73555,-73.95284,40.7103685423523,-73.94705951213837,casual
216209,A971602CD016DEFD,electric_bike,2021-08-08 01:39:18,2021-08-08 02:13:33,Eastern Pkwy & Franklin Ave,3919,Leonard St & Maujer St,5148,40.6707767,-73.9576801,40.7103685423523,-73.94705951213837,casual
216215,9CD0D5ECAA31D3F0,electric_bike,2021-08-12 09:09:54,2021-08-12 09:41:46,1 Ave & E 62 St,6753,Leonard St & Maujer St,5148,40.7612274,-73.96094022,40.7103685423523,-73.94705951213837,member
216222,BF6F76A577C59486,electric_bike,2021-08-14 20:32:41,2021-08-14 21:03:29,Cleveland Pl & Spring St,5492,Leonard St & Maujer St,5148,40.722103786686034,-73.99724900722504,40.7103685423523,-73.94705951213837,member
216223,76ECFE8DEEB87702,classic_bike,2021-08-13 11:33:51,2021-08-13 11:42:25,Meserole Ave & Manhattan Ave,5666,Leonard St & Maujer St,5148,40.72708584,-73.95299117,40.7103685423523,-73.94705951213837,member
216240,F78E44DF3CBD7B83,classic_bike,2021-08-24 00:52:18,2021-08-24 01:04:02,Greenpoint Ave & Manhattan Ave,5785,Leonard St & Maujer St,5148,40.73026,-73.95394,40.7103685423523,-73.94705951213837,casual
216242,79CFF6413FC3D430,classic_bike,2021-08-15 10:20:13,2021-08-15 10:30:27,Greenpoint Ave & Manhattan Ave,5785,Leonard St & Maujer St,5148,40.73026,-73.95394,40.7103685423523,-73.94705951213837,casual
216250,C98A247820F5AF05,electric_bike,2021-08-06 22:09:43,2021-08-06 22:20:48,Graham Ave & Herbert St,5403,Leonard St & Maujer St,5148,40.71929301,-73.94500379,40.7103685423523,-73.94705951213837,member
216261,1B347AEBD885C271,electric_bike,2021-08-24 22:52:44,2021-08-24 23:10:29,27 St & Hunter St,6310,Leonard St & Maujer St,5148,40.7485,-73.941275,40.7103685423523,-73.94705951213837,member
216265,14DCF395B971A306,electric_bike,2021-08-05 08:25:43,2021-08-05 08:37:19,Park Ave & Marcus Garvey Blvd,4768,Leonard St & Maujer St,5148,40.698617,-73.941342,40.7103685423523,-73.94705951213837,casual
216266,D0FE3BE029270375,classic_bike,2021-08-06 11:48:43,2021-08-06 11:53:54,Powers St & Olive St,5210,Leonard St & Maujer St,5148,40.71323,-73.93894,40.7103685423523,-73.94705951213837,member
216268,A09B6E0D4803D38F,classic_bike,2021-08-11 18:07:29,2021-08-11 18:19:26,Powers St & Olive St,5210,Leonard St & Maujer St,5148,40.71323,-73.93894,40.7103685423523,-73.94705951213837,member
216276,A8E04C9685883C0F,electric_bike,2021-08-19 21:52:11,2021-08-19 22:01:48,Meserole Ave & Manhattan Ave,5666,Leonard St & Maujer St,5148,40.72708584,-73.95299117,40.7103685423523,-73.94705951213837,casual
216280,BE1DBC10E6E3A440,classic_bike,2021-08-07 15:29:25,2021-08-07 16:16:51,Halsey St & Broadway,4366,Leonard St & Maujer St,5148,40.68565,-73.91564,40.7103685423523,-73.94705951213837,member
216285,D84F5224319E803C,electric_bike,2021-08-14 05:25:35,2021-08-14 05:38:56,Kingsland Ave & Nassau Ave,5613,Leonard St & Maujer St,5148,40.72577,-73.94173,40.7103685423523,-73.94705951213837,member
216286,16840E60A1235E35,docked_bike,2021-08-06 20:31:29,2021-08-06 21:35:58,Wythe Ave & Metropolitan Ave,5348,Leonard St & Maujer St,5148,40.716887,-73.963198,40.710369,-73.94706,casual
216299,8CF35B60F6AE7EBE,classic_bike,2021-08-17 16:04:17,2021-08-17 16:17:00,Wythe Ave & Metropolitan Ave,5348,Leonard St & Maujer St,5148,40.716887,-73.963198,40.7103685423523,-73.94705951213837,casual
216319,053E085C2397A7EB,classic_bike,2021-08-06 21:36:16,2021-08-06 21:43:05,Waterbury St & Stagg St,5099,Leonard St & Maujer St,5148,40.71019,-73.93734,40.7103685423523,-73.94705951213837,member
216325,973A78D0F36CE0AA,classic_bike,2021-08-12 21:20:52,2021-08-12 21:29:17,Broadway & Roebling St,5125,Leonard St & Maujer St,5148,40.70924826276157,-73.96063148975372,40.7103685423523,-73.94705951213837,casual
216327,16D8D7FAB271D874,electric_bike,2021-08-19 09:04:04,2021-08-19 09:07:41,Waterbury St & Stagg St,5099,Leonard St & Maujer St,5148,40.71019,-73.93734,40.7103685423523,-73.94705951213837,member
216344,8E45BC34A28A6E6A,classic_bike,2021-08-06 17:54:17,2021-08-06 18:13:23,Kent St & McGuinness Blvd,5785,Leonard St & Maujer St,5148,40.73124,-73.95161,40.7103685423523,-73.94705951213837,casual
216349,06C6A231F23B9789,classic_bike,2021-08-26 21:10:48,2021-08-26 21:27:21,Washington Ave & Park Ave,4724,Leonard St & Maujer St,5148,40.69610226,-73.96751037,40.7103685423523,-73.94705951213837,member
216367,97E68DDE155482A8,electric_bike,2021-08-10 00:13:27,2021-08-10 00:22:35,Driggs Ave & Lorimer St,5481,Leonard St & Maujer St,5148,40.72179134,-73.9504154,40.7103685423523,-73.94705951213837,casual
216372,28B4301A679F658D,classic_bike,2021-08-15 23:45:39,2021-08-15 23:53:57,Driggs Ave & Lorimer St,5481,Leonard St & Maujer St,5148,40.72179134,-73.9504154,40.7103685423523,-73.94705951213837,casual
216374,5C9841F635F84509,classic_bike,2021-08-14 12:56:02,2021-08-14 13:03:26,Driggs Ave & Lorimer St,5481,Leonard St & Maujer St,5148,40.72179134,-73.9504154,40.7103685423523,-73.94705951213837,casual
216380,C3062E19A5F8CE60,classic_bike,2021-08-28 00:56:04,2021-08-28 01:03:46,S 5 Pl & S 5 St,5125,Leonard St & Maujer St,5148,40.710451,-73.960876,40.7103685423523,-73.94705951213837,casual
216381,A35FEDB6B3C08468,classic_bike,2021-08-06 00:57:20,2021-08-06 01:03:42,S 5 Pl & S 5 St,5125,Leonard St & Maujer St,5148,40.710451,-73.960876,40.7103685423523,-73.94705951213837,casual
216392,28FD4881F4043E91,classic_bike,2021-08-09 22:16:21,2021-08-09 22:25:03,Driggs Ave & Lorimer St,5481,Leonard St & Maujer St,5148,40.72179134,-73.9504154,40.7103685423523,-73.94705951213837,casual
216394,36C084AC5D45921D,electric_bike,2021-08-19 20:12:14,2021-08-19 20:21:02,Driggs Ave & Lorimer St,5481,Leonard St & Maujer St,5148,40.72179134,-73.9504154,40.7103685423523,-73.94705951213837,casual
216396,6F3D14635E60BE60,classic_bike,2021-08-02 21:01:38,2021-08-02 21:32:10,Bedford Ave & Montgomery St,3736,Leonard St & Maujer St,5148,40.665816,-73.956934,40.7103685423523,-73.94705951213837,casual
216400,E30CC622309B1295,electric_bike,2021-08-21 18:06:40,2021-08-21 18:21:26,Central Ave & Starr Street,4792,Leonard St & Maujer St,5148,40.700003,-73.92834,40.7103685423523,-73.94705951213837,casual
216403,00D3A0CA6C7D01BB,classic_bike,2021-08-21 16:13:14,2021-08-21 16:49:54,Driggs Ave & Lorimer St,5481,Leonard St & Maujer St,5148,40.72179134,-73.9504154,40.7103685423523,-73.94705951213837,casual
216416,494BB561D5D970E4,electric_bike,2021-08-29 13:10:24,2021-08-29 13:37:58,Sullivan Pl & Bedford Ave,3736,Leonard St & Maujer St,5148,40.6642406,-73.9574686,40.7103685423523,-73.94705951213837,casual
216448,110777F987DC0A67,classic_bike,2021-08-26 22:52:53,2021-08-26 23:03:34,N 11 St & Kent Ave,5489,Leonard St & Maujer St,5148,40.72248188638219,-73.95921930670738,40.7103685423523,-73.94705951213837,member
216463,042C12E68F07C145,classic_bike,2021-08-21 12:17:05,2021-08-21 12:33:37,Marcy Ave & Lafayette Ave,4476,Leonard St & Maujer St,5148,40.6900815,-73.947915,40.7103685423523,-73.94705951213837,casual
216470,93ED497412FDA4A3,electric_bike,2021-08-03 00:01:11,2021-08-03 00:20:00,Madison St & Cypress Ave,4807,Leonard St & Maujer St,5148,40.70068,-73.90742,40.7103685423523,-73.94705951213837,casual
216478,3E8F217EC757AF0D,classic_bike,2021-08-04 10:36:01,2021-08-04 10:40:19,Metropolitan Ave & Meeker Ave,5300,Leonard St & Maujer St,5148,40.71413311,-73.95234386,40.7103685423523,-73.94705951213837,member
216480,E0273B0E80F62BCE,classic_bike,2021-08-15 21:16:34,2021-08-15 21:35:09,Bergen St & Vanderbilt Ave,4157,Leonard St & Maujer St,5148,40.6794388,-73.9680438,40.7103685423523,-73.94705951213837,member
216486,E045B6B2B6DFC96A,classic_bike,2021-08-20 12:46:03,2021-08-20 12:54:48,Metropolitan Ave & Meeker Ave,5300,Leonard St & Maujer St,5148,40.71413311,-73.95234386,40.7103685423523,-73.94705951213837,casual
216487,449A254469E1C6A8,classic_bike,2021-08-17 19:56:31,2021-08-17 20:00:50,Metropolitan Ave & Meeker Ave,5300,Leonard St & Maujer St,5148,40.71413311,-73.95234386,40.7103685423523,-73.94705951213837,casual
216494,62F83B4F73140A46,classic_bike,2021-08-24 12:42:10,2021-08-24 12:47:25,Metropolitan Ave & Meeker Ave,5300,Leonard St & Maujer St,5148,40.71413311,-73.95234386,40.7103685423523,-73.94705951213837,member
216496,55B9317BC98A9596,classic_bike,2021-08-08 17:06:45,2021-08-08 17:34:55,Park Pl & Franklin Ave,4033,Leonard St & Maujer St,5148,40.6741806,-73.9564947,40.7103685423523,-73.94705951213837,casual
216501,54A39EC5888B1356,classic_bike,2021-08-27 08:16:11,2021-08-27 08:22:40,Metropolitan Ave & Meeker Ave,5300,Leonard St & Maujer St,5148,40.71413311,-73.95234386,40.7103685423523,-73.94705951213837,member
216503,E71C72740243BA08,classic_bike,2021-08-19 16:03:54,2021-08-19 16:06:46,Devoe St & Lorimer St,5259,Leonard St & Maujer St,5148,40.71335226222875,-73.9491033554077,40.7103685423523,-73.94705951213837,member
216504,7F41002E501DA9CF,classic_bike,2021-08-29 21:13:16,2021-08-29 21:15:32,Devoe St & Lorimer St,5259,Leonard St & Maujer St,5148,40.71335226222875,-73.9491033554077,40.7103685423523,-73.94705951213837,member
216517,67598B21338D34B7,classic_bike,2021-08-28 09:20:59,2021-08-28 09:35:49,Kingston Ave & Herkimer St,4205,Leonard St & Maujer St,5148,40.67890679,-73.94142771,40.7103685423523,-73.94705951213837,member
216530,C1E18407010DACF9,classic_bike,2021-08-30 20:29:38,2021-08-30 20:34:09,Boerum St & Broadway,5004,Leonard St & Maujer St,5148,40.70538077,-73.94976519,40.7103685423523,-73.94705951213837,member
216543,E3963BFE4E6E883E,electric_bike,2021-08-06 17:22:54,2021-08-06 17:37:53,Front St & Jay St,4895,Leonard St & Maujer St,5148,40.702461,-73.986842,40.7103685423523,-73.94705951213837,member
216545,990CC11DF489A471,classic_bike,2021-08-09 21:02:12,2021-08-09 21:11:58,Leonard St & Maujer St,5148,Leonard St & Maujer St,5148,40.7103685423523,-73.94705951213837,40.7103685423523,-73.94705951213837,member
216549,B49813408817DD0A,classic_bike,2021-08-02 18:02:16,2021-08-02 18:28:46,38 Ave & 29 St,6538,Leonard St & Maujer St,5148,40.75473,-73.93367,40.7103685423523,-73.94705951213837,member
216575,BCFD949CE9D59061,classic_bike,2021-08-01 10:39:44,2021-08-01 11:02:05,Degraw St & Hoyt St,4258,Leonard St & Maujer St,5148,40.68199044270703,-73.99079024791718,40.7103685423523,-73.94705951213837,member
216591,4F5D4BDD2AE7FEF4,classic_bike,2021-08-29 14:05:31,2021-08-29 14:22:04,Rivington St & Ridge St,5406,Leonard St & Maujer St,5148,40.71850211,-73.98329859,40.7103685423523,-73.94705951213837,casual
216595,A5B6B2DA49B82152,classic_bike,2021-08-05 14:07:04,2021-08-05 14:16:05,N 6 St & Bedford Ave,5379,Leonard St & Maujer St,5148,40.71745169,-73.95850939,40.7103685423523,-73.94705951213837,casual
216609,2933E6DBB4C83BFC,electric_bike,2021-08-10 01:27:17,2021-08-10 01:36:18,Lewis Ave & Madison St,4425,Leonard St & Maujer St,5148,40.686312,-73.935775,40.7103685423523,-73.94705951213837,casual
216613,F90E5ED8B895B66B,classic_bike,2021-08-14 13:36:45,2021-08-14 13:55:25,N 6 St & Bedford Ave,5379,Leonard St & Maujer St,5148,40.71745169,-73.95850939,40.7103685423523,-73.94705951213837,casual
216641,8C5131C3FF7BEE29,classic_bike,2021-08-02 19:50:36,2021-08-02 19:59:54,Lorimer St & Calyer St,5709,Leonard St & Maujer St,5148,40.72795,-73.95414,40.7103685423523,-73.94705951213837,member
216653,3F51AC36C3718332,classic_bike,2021-08-11 10:15:22,2021-08-11 10:30:00,N 6 St & Bedford Ave,5379,Leonard St & Maujer St,5148,40.71745169,-73.95850939,40.7103685423523,-73.94705951213837,member
216659,6D67C6DF2F845AFC,electric_bike,2021-08-14 00:32:24,2021-08-14 00:49:43,Rivington St & Ridge St,5406,Leonard St & Maujer St,5148,40.71850211,-73.98329859,40.7103685423523,-73.94705951213837,casual
216660,A13923FBA4C02EFC,classic_bike,2021-08-03 17:50:40,2021-08-03 18:06:43,Calyer St & Jewel St,5743,Leonard St & Maujer St,5148,40.72984,-73.94839,40.7103685423523,-73.94705951213837,casual
216661,D3B57E931569CE77,classic_bike,2021-08-13 22:41:05,2021-08-13 22:57:24,N 6 St & Bedford Ave,5379,Leonard St & Maujer St,5148,40.71745169,-73.95850939,40.7103685423523,-73.94705951213837,casual
216663,98A2710F1DFBA6B1,classic_bike,2021-08-18 16:47:04,2021-08-18 16:56:57,Montrose Ave & Bushwick Ave,5068,Leonard St & Maujer St,5148,40.70767788,-73.94016171,40.7103685423523,-73.94705951213837,casual
216672,E1B83D208EF41022,classic_bike,2021-08-17 16:27:02,2021-08-17 16:42:46,Suydam St & Knickerbocker Ave,4939,Leonard St & Maujer St,5148,40.702013,-73.923769,40.7103685423523,-73.94705951213837,casual
216676,5A5EF57EE19D8FE4,classic_bike,2021-08-12 15:45:42,2021-08-12 15:53:13,Nostrand Ave & Myrtle Ave,4707,Leonard St & Maujer St,5148,40.69527008,-73.95238108,40.7103685423523,-73.94705951213837,member
216678,CFE81222AA64B4B6,classic_bike,2021-08-01 19:28:46,2021-08-01 20:15:34,31 Ave & 30 St,6857,Leonard St & Maujer St,5148,40.7647,-73.9240312,40.7103685423523,-73.94705951213837,member
216685,BAE7EE3AFB931E44,classic_bike,2021-08-31 14:20:50,2021-08-31 14:25:24,Bushwick Ave & Powers St,5250,Leonard St & Maujer St,5148,40.71247661,-73.94100005,40.7103685423523,-73.94705951213837,member
216686,EA5267185CB61B81,classic_bike,2021-08-20 14:46:38,2021-08-20 14:52:51,Bushwick Ave & Powers St,5250,Leonard St & Maujer St,5148,40.71247661,-73.94100005,40.7103685423523,-73.94705951213837,member
216690,1389B193C8F00DFC,classic_bike,2021-08-01 02:29:55,2021-08-01 02:36:43,Devoe St & Morgan Ave,5282,Leonard St & Maujer St,5148,40.713811,-73.93515,40.7103685423523,-73.94705951213837,casual
216691,8A1A531ADD5B64F1,electric_bike,2021-08-11 17:18:09,2021-08-11 18:01:27,Great Jones St,5636,Leonard St & Maujer St,5148,40.72743423,-73.99379025,40.7103685423523,-73.94705951213837,casual
216700,E8F93AF12E6F91EC,classic_bike,2021-08-26 19:14:06,2021-08-26 19:22:33,Metropolitan Ave & Bedford Ave,5308,Leonard St & Maujer St,5148,40.71534825,-73.96024116,40.7103685423523,-73.94705951213837,member
216709,2B260D6E2151466C,electric_bike,2021-08-04 19:28:54,2021-08-04 19:36:48,Lorimer St & Calyer St,5709,Leonard St & Maujer St,5148,40.72795,-73.95414,40.7103685423523,-73.94705951213837,member
216712,CD309FB3424D990E,electric_bike,2021-08-12 09:47:12,2021-08-12 09:55:32,Devoe St & Morgan Ave,5282,Leonard St & Maujer St,5148,40.713811,-73.93515,40.7103685423523,-73.94705951213837,casual
216715,3673EB125FD945D4,electric_bike,2021-08-22 20:21:35,2021-08-22 20:33:49,Norfolk St & Broome St,5374,Leonard St & Maujer St,5148,40.7172274,-73.98802084,40.7103685423523,-73.94705951213837,member
216720,13AE4B44E8354D6C,classic_bike,2021-08-05 11:23:45,2021-08-05 11:28:51,S 4 St & Rodney St,5156,Leonard St & Maujer St,5148,40.70934,-73.95608,40.7103685423523,-73.94705951213837,member
216722,DF3C613CCB767987,classic_bike,2021-08-14 18:35:48,2021-08-14 18:44:51,Harrison Pl & Porter Ave,5090,Leonard St & Maujer St,5148,40.70686,-73.92851,40.7103685423523,-73.94705951213837,casual
216728,A0D4A50BA72F420E,electric_bike,2021-08-11 18:50:52,2021-08-11 18:54:49,S 4 St & Rodney St,5156,Leonard St & Maujer St,5148,40.70934,-73.95608,40.7103685423523,-73.94705951213837,casual
216733,71B222437EE91955,classic_bike,2021-08-06 18:48:47,2021-08-06 18:55:28,S 4 St & Rodney St,5156,Leonard St & Maujer St,5148,40.70934,-73.95608,40.7103685423523,-73.94705951213837,member
216734,53A3EF33E724CB69,classic_bike,2021-08-02 11:58:22,2021-08-02 12:04:46,S 4 St & Rodney St,5156,Leonard St & Maujer St,5148,40.70934,-73.95608,40.7103685423523,-73.94705951213837,member
216739,D2DC7C3836BBF3C3,classic_bike,2021-08-22 19:45:53,2021-08-22 19:49:58,S 4 St & Rodney St,5156,Leonard St & Maujer St,5148,40.70934,-73.95608,40.7103685423523,-73.94705951213837,member
216742,734B956458991DB6,electric_bike,2021-08-27 17:26:47,2021-08-27 17:31:53,S 4 St & Rodney St,5156,Leonard St & Maujer St,5148,40.70934,-73.95608,40.7103685423523,-73.94705951213837,member
216744,5F7ACC3440824E27,classic_bike,2021-08-15 20:45:33,2021-08-15 20:48:54,Devoe St & Lorimer St,5259,Leonard St & Maujer St,5148,40.71335226222875,-73.9491033554077,40.7103685423523,-73.94705951213837,member
216749,F1D88CC0D67791C0,classic_bike,2021-08-23 19:37:49,2021-08-23 19:40:13,Devoe St & Lorimer St,5259,Leonard St & Maujer St,5148,40.71335226222875,-73.9491033554077,40.7103685423523,-73.94705951213837,member
216750,58528EE142906C5F,electric_bike,2021-08-05 00:22:12,2021-08-05 00:23:40,Devoe St & Lorimer St,5259,Leonard St & Maujer St,5148,40.71335226222875,-73.9491033554077,40.7103685423523,-73.94705951213837,member
216752,C81C099A7A50D4D7,classic_bike,2021-08-13 15:07:07,2021-08-13 15:26:55,Driggs Ave & N 9 St,5411,Leonard St & Maujer St,5148,40.71816969454208,-73.95520135760307,40.7103685423523,-73.94705951213837,member
216755,1850EDAC2BF4700B,classic_bike,2021-08-20 00:21:45,2021-08-20 00:23:39,Devoe St & Lorimer St,5259,Leonard St & Maujer St,5148,40.71335226222875,-73.9491033554077,40.7103685423523,-73.94705951213837,member
216756,A326E25AB710C95C,classic_bike,2021-08-29 08:25:42,2021-08-29 09:03:09,34 Ave & 38 St,6638,Leonard St & Maujer St,5148,40.756913,-73.921631,40.7103685423523,-73.94705951213837,member
216757,C0E7B65D7CE66ED2,electric_bike,2021-08-15 00:53:49,2021-08-15 00:55:24,Devoe St & Lorimer St,5259,Leonard St & Maujer St,5148,40.71335226222875,-73.9491033554077,40.7103685423523,-73.94705951213837,member
216758,9A8CF8337A1F684B,electric_bike,2021-08-20 20:11:12,2021-08-20 20:18:24,Driggs Ave & N 9 St,5411,Leonard St & Maujer St,5148,40.71816969454208,-73.95520135760307,40.7103685423523,-73.94705951213837,member
216759,84B4270D28302F29,classic_bike,2021-08-29 22:16:09,2021-08-29 22:19:30,Devoe St & Lorimer St,5259,Leonard St & Maujer St,5148,40.71335226222875,-73.9491033554077,40.7103685423523,-73.94705951213837,casual
216761,CD65B9FC3C0F0773,classic_bike,2021-08-23 20:36:56,2021-08-23 20:39:32,Devoe St & Lorimer St,5259,Leonard St & Maujer St,5148,40.71335226222875,-73.9491033554077,40.7103685423523,-73.94705951213837,casual
216766,8D86BEBEF734F944,classic_bike,2021-08-21 16:19:49,2021-08-21 16:22:38,Devoe St & Lorimer St,5259,Leonard St & Maujer St,5148,40.71335226222875,-73.9491033554077,40.7103685423523,-73.94705951213837,member
216768,C1943474BC39D3B1,classic_bike,2021-08-01 12:01:27,2021-08-01 12:10:53,Driggs Ave & N 9 St,5411,Leonard St & Maujer St,5148,40.71816969454208,-73.95520135760307,40.7103685423523,-73.94705951213837,member
216769,D17EDCD817717068,classic_bike,2021-08-10 12:32:39,2021-08-10 12:39:26,Driggs Ave & N 9 St,5411,Leonard St & Maujer St,5148,40.71816969454208,-73.95520135760307,40.7103685423523,-73.94705951213837,member
216772,78A826CFC1121694,classic_bike,2021-08-28 01:39:11,2021-08-28 01:41:31,Devoe St & Lorimer St,5259,Leonard St & Maujer St,5148,40.71335226222875,-73.9491033554077,40.7103685423523,-73.94705951213837,member
216773,4264D0903795C1BF,classic_bike,2021-08-06 03:20:57,2021-08-06 03:29:13,Driggs Ave & N 9 St,5411,Leonard St & Maujer St,5148,40.71816969454208,-73.95520135760307,40.7103685423523,-73.94705951213837,casual
216785,043A0191CEA362DA,classic_bike,2021-08-17 17:59:07,2021-08-17 18:06:33,Morgan Ave & Maspeth Ave,5354,Leonard St & Maujer St,5148,40.716657,-73.93637,40.7103685423523,-73.94705951213837,member
216791,A68A42C3F537A9F1,classic_bike,2021-08-27 20:30:03,2021-08-27 20:42:55,N 6 St & Bedford Ave,5379,Leonard St & Maujer St,5148,40.71745169,-73.95850939,40.7103685423523,-73.94705951213837,casual
216812,C5C295D2164B60C7,classic_bike,2021-08-29 17:10:42,2021-08-29 17:22:54,Bedford Ave & Nassau Ave,5550,Leonard St & Maujer St,5148,40.72311651,-73.95212324,40.7103685423523,-73.94705951213837,member
216815,279E2FF4015979C5,classic_bike,2021-08-03 22:38:40,2021-08-03 22:45:58,N 6 St & Bedford Ave,5379,Leonard St & Maujer St,5148,40.71745169,-73.95850939,40.7103685423523,-73.94705951213837,member
216816,152B545ECBEE54C3,classic_bike,2021-08-04 13:12:53,2021-08-04 13:30:31,Rivington St & Ridge St,5406,Leonard St & Maujer St,5148,40.71850211,-73.98329859,40.7103685423523,-73.94705951213837,member
216833,1993B4492CC92100,classic_bike,2021-08-02 10:16:50,2021-08-02 10:27:35,Throop Ave & Myrtle Ave,4697,Leonard St & Maujer St,5148,40.69622937,-73.94371094,40.7103685423523,-73.94705951213837,member
216834,2BC24B99203E8ED8,electric_bike,2021-08-13 18:20:17,2021-08-13 18:22:43,Bushwick Ave & Stagg St,5140,Leonard St & Maujer St,5148,40.709897,-73.94008,40.7103685423523,-73.94705951213837,member
216836,D1D9E79EA98DB665,classic_bike,2021-08-26 15:39:13,2021-08-26 15:44:18,Graham Ave & Conselyea St,5291,Leonard St & Maujer St,5148,40.715143,-73.944507,40.7103685423523,-73.94705951213837,member
216840,4741A90490B59534,classic_bike,2021-08-26 19:39:49,2021-08-26 19:53:34,Irving Ave & Jefferson St,5051,Leonard St & Maujer St,5148,40.70538,-73.92535,40.7103685423523,-73.94705951213837,casual
216850,18AAC20D318F3343,classic_bike,2021-08-12 09:17:42,2021-08-12 09:39:18,Wyckoff Av & Stanhope St,4931,Leonard St & Maujer St,5148,40.703545,-73.917775,40.7103685423523,-73.94705951213837,member
216873,E7F479F88599F78F,electric_bike,2021-08-10 00:52:40,2021-08-10 01:05:00,DeKalb Ave & Vanderbilt Ave,4461,Leonard St & Maujer St,5148,40.68940747,-73.96885458,40.7103685423523,-73.94705951213837,casual
216889,6477240BF68E8C36,electric_bike,2021-08-11 13:25:10,2021-08-11 13:53:15,W 11 St & 6 Ave,5914,Leonard St & Maujer St,5148,40.73532427,-73.99800419,40.7103685423523,-73.94705951213837,casual
216895,960FF41683FAD0F0,classic_bike,2021-08-24 20:16:21,2021-08-24 20:23:35,S 3 St & Bedford Ave,5235,Leonard St & Maujer St,5148,40.71260486,-73.96264403,40.7103685423523,-73.94705951213837,casual
216903,52F3F8A7E675F803,classic_bike,2021-08-15 14:26:49,2021-08-15 14:33:28,S 3 St & Bedford Ave,5235,Leonard St & Maujer St,5148,40.71260486,-73.96264403,40.7103685423523,-73.94705951213837,member
216904,7F630E3F8A4C084F,electric_bike,2021-08-13 01:10:11,2021-08-13 01:23:49,Norfolk St & Broome St,5374,Leonard St & Maujer St,5148,40.7172274,-73.98802084,40.7103685423523,-73.94705951213837,member
216920,E1E83EC130FBE411,classic_bike,2021-08-14 16:32:47,2021-08-14 16:53:42,DeKalb Ave & Vanderbilt Ave,4461,Leonard St & Maujer St,5148,40.68940747,-73.96885458,40.7103685423523,-73.94705951213837,casual
216923,C0317BCC460A2E92,electric_bike,2021-08-24 15:24:19,2021-08-24 15:39:01,Willoughby Ave & Wyckoff Ave,5010,Leonard St & Maujer St,5148,40.705614,-73.92153,40.7103685423523,-73.94705951213837,casual
216927,705477814070BA7E,classic_bike,2021-08-12 00:27:40,2021-08-12 00:35:40,S 3 St & Bedford Ave,5235,Leonard St & Maujer St,5148,40.71260486,-73.96264403,40.7103685423523,-73.94705951213837,member
216935,93B2D7024066931D,classic_bike,2021-08-05 08:47:50,2021-08-05 08:54:22,S 3 St & Bedford Ave,5235,Leonard St & Maujer St,5148,40.71260486,-73.96264403,40.7103685423523,-73.94705951213837,member
216967,60859DF8666CDB95,electric_bike,2021-08-20 13:41:58,2021-08-20 13:54:51,Clinton St & Grand St,5303,Leonard St & Maujer St,5148,40.71559509,-73.9870295,40.7103685423523,-73.94705951213837,member
216970,3770621FDF757122,classic_bike,2021-08-05 14:31:54,2021-08-05 15:02:38,Hope St & Union Ave,5187,Leonard St & Maujer St,5148,40.71167351,-73.95141312,40.7103685423523,-73.94705951213837,casual
216971,202915137AC4E988,electric_bike,2021-08-16 12:12:29,2021-08-16 12:24:46,Clinton St & Grand St,5303,Leonard St & Maujer St,5148,40.71559509,-73.9870295,40.7103685423523,-73.94705951213837,casual
216981,FB0CB2F8820FCE5E,classic_bike,2021-08-25 10:53:04,2021-08-25 10:57:15,Broadway & Whipple St,4883,Leonard St & Maujer St,5148,40.7016657,-73.9437303,40.7103685423523,-73.94705951213837,member
216990,58047AA95444D573,classic_bike,2021-08-28 18:54:17,2021-08-28 18:59:53,Union Ave & Jackson St,5300,Leonard St & Maujer St,5148,40.7160751,-73.952029,40.7103685423523,-73.94705951213837,member
217007,F91EBAD60AC9AB19,classic_bike,2021-08-10 09:10:41,2021-08-10 09:27:37,Milton St & Franklin St,5752,Leonard St & Maujer St,5148,40.72906,-73.95779,40.7103685423523,-73.94705951213837,casual
217019,B8751FA5F5BAFC2E,classic_bike,2021-08-08 16:19:31,2021-08-08 16:31:48,Milton St & Franklin St,5752,Leonard St & Maujer St,5148,40.72906,-73.95779,40.7103685423523,-73.94705951213837,casual
217033,E2B83077CB598058,classic_bike,2021-08-26 20:00:17,2021-08-26 20:06:22,Division Ave & Marcy Ave,5084,Leonard St & Maujer St,5148,40.70708701,-73.95796783,40.7103685423523,-73.94705951213837,member
217043,C246F28A9C297742,electric_bike,2021-08-18 17:55:50,2021-08-18 18:26:10,E 45 St & 3 Ave,6464,Leonard St & Maujer St,5148,40.75255434,-73.97282625,40.7103685423523,-73.94705951213837,member
217047,E4B928E0EDA746E0,classic_bike,2021-08-10 19:31:13,2021-08-10 19:37:55,Bayard St & Leonard St,5442,Leonard St & Maujer St,5148,40.71915571696044,-73.94885390996933,40.7103685423523,-73.94705951213837,casual
217057,6F31749E3E65341B,classic_bike,2021-08-26 09:49:24,2021-08-26 09:49:49,Leonard St & Maujer St,5148,Leonard St & Maujer St,5148,40.7103685423523,-73.94705951213837,40.7103685423523,-73.94705951213837,member
217069,5C479071D71069ED,classic_bike,2021-08-21 18:20:49,2021-08-21 18:30:00,Driggs Ave & N Henry St,5542,Leonard St & Maujer St,5148,40.72325,-73.94308,40.7103685423523,-73.94705951213837,casual
217074,4EB469405C2DDFEB,classic_bike,2021-08-28 17:45:58,2021-08-28 17:57:53,Leonard St & Maujer St,5148,Driggs Ave & N Henry St,5542,40.7103685423523,-73.94705951213837,40.72325,-73.94308,casual
217077,7C884173D9A97EF4,electric_bike,2021-08-16 16:11:26,2021-08-16 16:38:01,Leonard St & Maujer St,5148,Fairview Ave & Linden St,5066,40.7103685423523,-73.94705951213837,40.70694,-73.90632,casual
217088,F0406A998F48A6B5,electric_bike,2021-08-19 22:50:46,2021-08-19 23:04:35,Leonard St & Maujer St,5148,Fairview Ave & Linden St,5066,40.7103685423523,-73.94705951213837,40.70694,-73.90632,member
217112,59BB7F1F298DD495,classic_bike,2021-08-06 07:27:53,2021-08-06 08:05:30,Crescent St & Broadway,6827,Leonard St & Maujer St,5148,40.7633589,-73.9286471,40.7103685423523,-73.94705951213837,casual
217122,7C728317B2B43CC4,electric_bike,2021-08-16 17:51:07,2021-08-16 17:55:37,Grand St & Havemeyer St,5267,Leonard St & Maujer St,5148,40.71286844,-73.95698119,40.7103685423523,-73.94705951213837,member
217124,9C1AAA2EC6BA587B,electric_bike,2021-08-14 22:28:25,2021-08-14 22:43:04,Frost St & Meeker Ave,5371,Leonard St & Maujer St,5148,40.71766197083994,-73.94880026578903,40.7103685423523,-73.94705951213837,casual
217130,56FBA938472768E5,classic_bike,2021-08-25 22:52:45,2021-08-25 22:56:50,Frost St & Meeker Ave,5371,Leonard St & Maujer St,5148,40.71766197083994,-73.94880026578903,40.7103685423523,-73.94705951213837,casual
217134,3DC6806393BF9F5D,classic_bike,2021-08-30 16:34:40,2021-08-30 16:38:44,Frost St & Meeker Ave,5371,Leonard St & Maujer St,5148,40.71766197083994,-73.94880026578903,40.7103685423523,-73.94705951213837,member
217139,08FE459CA1765ACC,classic_bike,2021-08-31 22:48:11,2021-08-31 22:55:37,Grand St & Havemeyer St,5267,Leonard St & Maujer St,5148,40.71286844,-73.95698119,40.7103685423523,-73.94705951213837,member
217141,C6456A79A91814BD,classic_bike,2021-08-17 19:55:10,2021-08-17 20:00:30,Frost St & Meeker Ave,5371,Leonard St & Maujer St,5148,40.71766197083994,-73.94880026578903,40.7103685423523,-73.94705951213837,casual
217142,D33B362AF7BEC1C1,electric_bike,2021-08-27 19:38:26,2021-08-27 19:48:47,Grand St & Havemeyer St,5267,Leonard St & Maujer St,5148,40.71286844,-73.95698119,40.7103685423523,-73.94705951213837,casual
217143,4A009A4594E7D4A6,electric_bike,2021-08-03 17:52:33,2021-08-03 17:56:20,Grand St & Havemeyer St,5267,Leonard St & Maujer St,5148,40.71286844,-73.95698119,40.7103685423523,-73.94705951213837,member
217144,2E81416E9645CAA5,classic_bike,2021-08-30 14:56:54,2021-08-30 15:06:42,Grand St & Havemeyer St,5267,Leonard St & Maujer St,5148,40.71286844,-73.95698119,40.7103685423523,-73.94705951213837,member
217150,AFB2CE1353970150,classic_bike,2021-08-29 15:01:36,2021-08-29 15:09:32,Roebling St & N 4 St,5267,Leonard St & Maujer St,5148,40.71469,-73.95739,40.7103685423523,-73.94705951213837,casual
217155,D16D26EA4A98E33F,classic_bike,2021-08-12 11:07:57,2021-08-12 11:13:40,Roebling St & N 4 St,5267,Leonard St & Maujer St,5148,40.71469,-73.95739,40.7103685423523,-73.94705951213837,casual
217163,9CDA0D5EA76ACF75,classic_bike,2021-08-16 14:56:04,2021-08-16 15:01:32,Roebling St & N 4 St,5267,Leonard St & Maujer St,5148,40.71469,-73.95739,40.7103685423523,-73.94705951213837,member
217166,3825392923508E6E,electric_bike,2021-08-28 23:10:45,2021-08-28 23:26:40,Roebling St & N 4 St,5267,Leonard St & Maujer St,5148,40.71469,-73.95739,40.7103685423523,-73.94705951213837,casual
217167,06C9CD3F17FD18FA,classic_bike,2021-08-28 21:48:37,2021-08-28 22:25:49,10 St & 7 Ave,3762,Leonard St & Maujer St,5148,40.6662078,-73.98199886,40.7103685423523,-73.94705951213837,member
217183,C52EBCA8D098330C,classic_bike,2021-08-18 17:20:38,2021-08-18 17:26:51,Roebling St & N 4 St,5267,Leonard St & Maujer St,5148,40.71469,-73.95739,40.7103685423523,-73.94705951213837,member
217194,6DB71AAF3B87F647,electric_bike,2021-08-27 22:31:20,2021-08-27 22:36:43,Roebling St & N 4 St,5267,Leonard St & Maujer St,5148,40.71469,-73.95739,40.7103685423523,-73.94705951213837,casual
217200,3145CE8ACC2AAD4E,electric_bike,2021-08-16 18:31:32,2021-08-16 18:52:28,46 Ave & 5 St,6286,Leonard St & Maujer St,5148,40.74731,-73.95451,40.7103685423523,-73.94705951213837,member
217204,77204F214C89C069,electric_bike,2021-08-15 14:02:55,2021-08-15 15:54:19,Forest Ave & Summerfield St,4798,Leonard St & Maujer St,5148,40.69922,-73.89795,40.7103685423523,-73.94705951213837,casual
217207,374D3432BCF7F3DE,classic_bike,2021-08-12 00:33:14,2021-08-12 00:36:13,Devoe St & Lorimer St,5259,Leonard St & Maujer St,5148,40.71335226222875,-73.9491033554077,40.7103685423523,-73.94705951213837,member
217209,9EF38EFF7E4E9EC5,classic_bike,2021-08-15 12:20:07,2021-08-15 12:29:26,Driggs Ave & N 9 St,5411,Leonard St & Maujer St,5148,40.71816969454208,-73.95520135760307,40.7103685423523,-73.94705951213837,member
217211,F24DC7850996025D,classic_bike,2021-08-25 00:54:07,2021-08-25 00:57:30,Devoe St & Lorimer St,5259,Leonard St & Maujer St,5148,40.71335226222875,-73.9491033554077,40.7103685423523,-73.94705951213837,member
217212,A68B3344940B08DC,classic_bike,2021-08-20 08:37:23,2021-08-20 08:54:29,Monroe St & Bedford Ave,4368,Leonard St & Maujer St,5148,40.6851443,-73.95380904,40.7103685423523,-73.94705951213837,member
217214,D50F9EAA1F1534B8,electric_bike,2021-08-20 21:40:25,2021-08-20 21:48:08,Broadway & Roebling St,5125,Leonard St & Maujer St,5148,40.70924826276157,-73.96063148975372,40.7103685423523,-73.94705951213837,member
217216,78C8089F5AE7BF04,electric_bike,2021-08-27 17:29:35,2021-08-27 18:01:21,E 6 St & Avenue D,5506,Leonard St & Maujer St,5148,40.72228087,-73.97668709,40.7103685423523,-73.94705951213837,casual
217225,66BE4D6A521F7490,classic_bike,2021-08-06 11:33:25,2021-08-06 11:45:24,Engert Ave & McGuinness Blvd,5473,Leonard St & Maujer St,5148,40.72158,-73.94546,40.7103685423523,-73.94705951213837,member
217226,54B6F67EA76F9BF7,classic_bike,2021-08-20 09:39:28,2021-08-20 09:54:32,Engert Ave & McGuinness Blvd,5473,Leonard St & Maujer St,5148,40.72158,-73.94546,40.7103685423523,-73.94705951213837,member
217232,CE41AD4A266E513A,electric_bike,2021-08-31 20:41:54,2021-08-31 21:01:25,27 St & Hunter St,6310,Leonard St & Maujer St,5148,40.7485,-73.941275,40.7103685423523,-73.94705951213837,member
217233,D7B15D5BBBDF98F2,classic_bike,2021-08-18 14:34:12,2021-08-18 15:15:03,LaGuardia Pl & W 3 St,5721,Leonard St & Maujer St,5148,40.72917025,-73.99810231,40.7103685423523,-73.94705951213837,member
217242,6A875E540291086F,classic_bike,2021-08-29 15:35:59,2021-08-29 16:10:34,South St & Whitehall St,4846,Leonard St & Maujer St,5148,40.70122128,-74.01234218,40.7103685423523,-73.94705951213837,member
217250,FA7348DA2663BFBC,classic_bike,2021-08-29 11:57:42,2021-08-29 12:06:27,S 3 St & Bedford Ave,5235,Leonard St & Maujer St,5148,40.71260486,-73.96264403,40.7103685423523,-73.94705951213837,member
217257,B62FFABBF2A8845E,electric_bike,2021-08-18 17:14:13,2021-08-18 17:41:53,South St & Whitehall St,4846,Leonard St & Maujer St,5148,40.70122128,-74.01234218,40.7103685423523,-73.94705951213837,casual
217266,651AEE969EFE150A,classic_bike,2021-08-09 14:57:46,2021-08-09 15:13:04,Jefferson St & Cypress Ave,5082,Leonard St & Maujer St,5148,40.70907,-73.92157,40.7103685423523,-73.94705951213837,casual
217268,C3FB5DD51CFD07B8,classic_bike,2021-08-06 18:37:48,2021-08-06 18:49:54,Jefferson St & Cypress Ave,5082,Leonard St & Maujer St,5148,40.70907,-73.92157,40.7103685423523,-73.94705951213837,member
217270,1ED065372AEA70F3,classic_bike,2021-08-15 20:23:33,2021-08-15 20:34:17,S 3 St & Bedford Ave,5235,Leonard St & Maujer St,5148,40.71260486,-73.96264403,40.7103685423523,-73.94705951213837,casual
217271,D4B3E74DAD4806E6,electric_bike,2021-08-16 16:17:47,2021-08-16 16:29:07,Wilson Ave & Troutman St,4864,Leonard St & Maujer St,5148,40.70166,-73.92754,40.7103685423523,-73.94705951213837,casual
217276,FCC8249A5F679B25,electric_bike,2021-08-07 18:35:15,2021-08-07 18:43:15,Wilson Ave & Troutman St,4864,Leonard St & Maujer St,5148,40.70166,-73.92754,40.7103685423523,-73.94705951213837,casual
217277,E5784BDF0FF5B290,classic_bike,2021-08-15 12:08:22,2021-08-15 12:19:32,S 3 St & Bedford Ave,5235,Leonard St & Maujer St,5148,40.71260486,-73.96264403,40.7103685423523,-73.94705951213837,casual
217278,2C6306B71C61D4C1,classic_bike,2021-08-14 01:56:50,2021-08-14 02:13:49,Norfolk St & Broome St,5374,Leonard St & Maujer St,5148,40.7172274,-73.98802084,40.7103685423523,-73.94705951213837,casual
217280,E40E541132E001DF,electric_bike,2021-08-28 22:55:21,2021-08-28 23:08:35,Stanton St & Norfolk St,5445,Leonard St & Maujer St,5148,40.720747,-73.986274,40.7103685423523,-73.94705951213837,member
217286,0D91C6DBAEAC4386,electric_bike,2021-08-27 21:22:13,2021-08-27 21:30:21,S 3 St & Bedford Ave,5235,Leonard St & Maujer St,5148,40.71260486,-73.96264403,40.7103685423523,-73.94705951213837,casual
217288,AA8D19269AD0BD42,classic_bike,2021-08-29 17:35:35,2021-08-29 17:42:54,S 3 St & Bedford Ave,5235,Leonard St & Maujer St,5148,40.71260486,-73.96264403,40.7103685423523,-73.94705951213837,member
217303,24E8A4DC10858748,electric_bike,2021-08-01 15:48:39,2021-08-01 16:00:30,Banker St & Meserole Ave,5633,Leonard St & Maujer St,5148,40.72606,-73.95621,40.7103685423523,-73.94705951213837,casual
217308,E011D5A142E3E53C,classic_bike,2021-08-31 22:22:07,2021-08-31 22:33:09,Banker St & Meserole Ave,5633,Leonard St & Maujer St,5148,40.72606,-73.95621,40.7103685423523,-73.94705951213837,casual
217313,A661BD61CB98DCCD,electric_bike,2021-08-19 15:58:46,2021-08-19 16:04:37,Metropolitan Ave & Bedford Ave,5308,Leonard St & Maujer St,5148,40.71534825,-73.96024116,40.7103685423523,-73.94705951213837,casual
217314,ECAD45DF150DFD6B,classic_bike,2021-08-15 15:54:40,2021-08-15 16:02:19,Metropolitan Ave & Bedford Ave,5308,Leonard St & Maujer St,5148,40.71534825,-73.96024116,40.7103685423523,-73.94705951213837,casual
217323,4C463EB2333850A4,classic_bike,2021-08-12 21:21:27,2021-08-13 01:59:21,9 Ave & W 45 St,6717,Leonard St & Maujer St,5148,40.76019252,-73.9912551,40.7103685423523,-73.94705951213837,casual
217333,F02C19323AB387A4,classic_bike,2021-08-28 11:53:41,2021-08-28 11:56:29,Scholes St & Manhattan Ave,5108,Leonard St & Maujer St,5148,40.70870368,-73.9448625,40.7103685423523,-73.94705951213837,casual
217355,1E486BD669D799AC,electric_bike,2021-08-11 17:11:32,2021-08-11 18:01:09,Washington Pl & Broadway,5755,Leonard St & Maujer St,5148,40.72903917,-73.99404649,40.7103685423523,-73.94705951213837,member
217356,DB088C1C0C3EC196,classic_bike,2021-08-20 18:07:51,2021-08-20 18:09:46,Scholes St & Manhattan Ave,5108,Leonard St & Maujer St,5148,40.70870368,-73.9448625,40.7103685423523,-73.94705951213837,member
217357,F2180E3992743C71,classic_bike,2021-08-08 09:01:04,2021-08-08 09:03:08,Scholes St & Manhattan Ave,5108,Leonard St & Maujer St,5148,40.70870368,-73.9448625,40.7103685423523,-73.94705951213837,member
217368,5418223F14B8396B,classic_bike,2021-08-25 03:56:18,2021-08-25 03:58:33,Scholes St & Manhattan Ave,5108,Leonard St & Maujer St,5148,40.70870368,-73.9448625,40.7103685423523,-73.94705951213837,member
217375,8C4ADB356D84A94C,electric_bike,2021-08-07 19:11:20,2021-08-07 19:43:47,Scholes St & Manhattan Ave,5108,Leonard St & Maujer St,5148,40.70870368,-73.9448625,40.7103685423523,-73.94705951213837,casual
217401,A31075E258293B9B,classic_bike,2021-08-03 20:27:32,2021-08-03 20:29:02,Scholes St & Manhattan Ave,5108,Leonard St & Maujer St,5148,40.70870368,-73.9448625,40.7103685423523,-73.94705951213837,member
217403,136E6F228CDBE818,classic_bike,2021-08-09 17:26:50,2021-08-09 17:28:28,Scholes St & Manhattan Ave,5108,Leonard St & Maujer St,5148,40.70870368,-73.9448625,40.7103685423523,-73.94705951213837,member
217416,6E8FDDE42E5C13DF,classic_bike,2021-08-01 13:18:47,2021-08-01 13:33:16,Nassau Ave & Newell St,5623,Leonard St & Maujer St,5148,40.724812564400175,-73.94752621650696,40.7103685423523,-73.94705951213837,member
217428,C05F91A1A16690F3,electric_bike,2021-08-18 16:14:44,2021-08-18 16:22:36,Nassau Ave & Newell St,5623,Leonard St & Maujer St,5148,40.724812564400175,-73.94752621650696,40.7103685423523,-73.94705951213837,member
217449,E0BEAB1A35B1A36E,classic_bike,2021-08-13 00:24:22,2021-08-13 00:32:58,Nassau Ave & Newell St,5623,Leonard St & Maujer St,5148,40.724812564400175,-73.94752621650696,40.7103685423523,-73.94705951213837,member
217487,C3A0FB5D1F906856,classic_bike,2021-08-01 17:31:28,2021-08-01 17:40:32,N 6 St & Bedford Ave,5379,Leonard St & Maujer St,5148,40.71745169,-73.95850939,40.7103685423523,-73.94705951213837,member
217489,B813255E4B5D28C5,classic_bike,2021-08-03 18:10:21,2021-08-03 18:20:38,Morgan Ave & Maspeth Ave,5354,Leonard St & Maujer St,5148,40.716657,-73.93637,40.7103685423523,-73.94705951213837,member
217491,FDF1AB504CA829A5,classic_bike,2021-08-19 23:42:14,2021-08-19 23:55:52,N 6 St & Bedford Ave,5379,Leonard St & Maujer St,5148,40.71745169,-73.95850939,40.7103685423523,-73.94705951213837,casual
217513,D747B713F361354C,classic_bike,2021-08-04 15:09:00,2021-08-04 15:12:42,Graham Ave & Conselyea St,5291,Leonard St & Maujer St,5148,40.715143,-73.944507,40.7103685423523,-73.94705951213837,member
217521,E831BB15D0A2EDFB,electric_bike,2021-08-06 21:09:12,2021-08-06 21:15:33,Bushwick Ave & Forrest St,4914,Leonard St & Maujer St,5148,40.70076,-73.93641,40.7103685423523,-73.94705951213837,casual
217533,1B6334C818EC5F5C,classic_bike,2021-08-11 19:57:05,2021-08-11 20:12:10,Kent Ave & S 11 St,5062,Leonard St & Maujer St,5148,40.707644944175705,-73.96841526031494,40.7103685423523,-73.94705951213837,member
217538,ED2A9C2BB5D10DBC,classic_bike,2021-08-13 17:36:25,2021-08-13 17:52:58,Huron St & Franklin St,5869,Leonard St & Maujer St,5148,40.73266,-73.95826,40.7103685423523,-73.94705951213837,casual
217539,5C5BF168E1FC5699,classic_bike,2021-08-11 12:38:31,2021-08-11 13:25:59,Clark St & Henry St,4789,Leonard St & Maujer St,5148,40.69760127,-73.99344559,40.7103685423523,-73.94705951213837,casual
217565,6D5D3588D6BC1102,classic_bike,2021-08-21 14:40:03,2021-08-21 14:50:12,Wythe Ave & Metropolitan Ave,5348,Leonard St & Maujer St,5148,40.716887,-73.963198,40.7103685423523,-73.94705951213837,casual
217575,7EC3A195D9F26E4E,classic_bike,2021-08-15 15:53:26,2021-08-15 16:02:26,Metropolitan Ave & Bedford Ave,5308,Leonard St & Maujer St,5148,40.71534825,-73.96024116,40.7103685423523,-73.94705951213837,casual
217578,43A8AAED291AEB34,classic_bike,2021-08-04 12:06:23,2021-08-04 12:27:43,Hicks St & Montague St,4645,Leonard St & Maujer St,5148,40.69512845,-73.99595065,40.7103685423523,-73.94705951213837,member
217585,AACCA020BE484FA4,electric_bike,2021-08-31 15:35:14,2021-08-31 15:43:14,Wythe Ave & Metropolitan Ave,5348,Leonard St & Maujer St,5148,40.716887,-73.963198,40.7103685423523,-73.94705951213837,casual
217591,D311953D3EA90BF8,classic_bike,2021-08-14 11:37:13,2021-08-14 11:47:03,Wythe Ave & Metropolitan Ave,5348,Leonard St & Maujer St,5148,40.716887,-73.963198,40.7103685423523,-73.94705951213837,casual
217592,DED82E4D7473516B,electric_bike,2021-08-04 13:27:53,2021-08-04 13:37:55,Wythe Ave & Metropolitan Ave,5348,Leonard St & Maujer St,5148,40.716887,-73.963198,40.7103685423523,-73.94705951213837,casual
217593,AEBB8882407B4F21,classic_bike,2021-08-24 20:27:54,2021-08-24 20:39:24,Wythe Ave & Metropolitan Ave,5348,Leonard St & Maujer St,5148,40.716887,-73.963198,40.7103685423523,-73.94705951213837,casual
217596,91A302AE306A59C8,classic_bike,2021-08-14 13:40:40,2021-08-14 13:51:25,Wythe Ave & Metropolitan Ave,5348,Leonard St & Maujer St,5148,40.716887,-73.963198,40.7103685423523,-73.94705951213837,casual
217602,5AC98CFD4137FABC,classic_bike,2021-08-23 19:26:09,2021-08-23 19:32:36,Metropolitan Ave & Bedford Ave,5308,Leonard St & Maujer St,5148,40.71534825,-73.96024116,40.7103685423523,-73.94705951213837,member
217605,901A24BCBD7CCA33,classic_bike,2021-08-10 13:04:11,2021-08-10 13:11:58,Metropolitan Ave & Bedford Ave,5308,Leonard St & Maujer St,5148,40.71534825,-73.96024116,40.7103685423523,-73.94705951213837,casual
217606,32DF4CA8B67ED0E7,classic_bike,2021-08-08 11:09:22,2021-08-08 11:18:46,Metropolitan Ave & Bedford Ave,5308,Leonard St & Maujer St,5148,40.71534825,-73.96024116,40.7103685423523,-73.94705951213837,casual
217620,6DA53B842B45EEE2,classic_bike,2021-08-09 16:19:19,2021-08-09 16:28:51,Metropolitan Ave & Bedford Ave,5308,Leonard St & Maujer St,5148,40.71534825,-73.96024116,40.7103685423523,-73.94705951213837,member
217621,825252D02487C76D,classic_bike,2021-08-20 08:26:45,2021-08-20 08:32:42,Metropolitan Ave & Bedford Ave,5308,Leonard St & Maujer St,5148,40.71534825,-73.96024116,40.7103685423523,-73.94705951213837,member
217623,81E032571CB7362C,classic_bike,2021-08-26 12:19:05,2021-08-26 12:38:42,Irving Ave & Palmetto St,4775,Leonard St & Maujer St,5148,40.698,-73.9127,40.7103685423523,-73.94705951213837,casual
217660,D62563E2C5536714,classic_bike,2021-08-31 19:05:01,2021-08-31 19:09:37,Montrose Ave & Bushwick Ave,5068,Leonard St & Maujer St,5148,40.70767788,-73.94016171,40.7103685423523,-73.94705951213837,member
217670,045AE4A4DFD898D5,classic_bike,2021-08-06 19:39:16,2021-08-06 20:15:02,Morgan Ave & Maspeth Ave,5354,Leonard St & Maujer St,5148,40.716657,-73.93637,40.7103685423523,-73.94705951213837,member
217671,EE002591CC5C027D,classic_bike,2021-08-14 19:53:52,2021-08-14 20:04:41,Morgan Ave & Maspeth Ave,5354,Leonard St & Maujer St,5148,40.716657,-73.93637,40.7103685423523,-73.94705951213837,casual
217680,060C62C73539D150,electric_bike,2021-08-01 18:46:20,2021-08-01 19:07:16,Kosciuszko St & Tompkins Ave,4553,Leonard St & Maujer St,5148,40.69128258,-73.9452416,40.7103685423523,-73.94705951213837,casual
217686,6BFD7AA0DAD59EE5,classic_bike,2021-08-06 13:20:13,2021-08-06 13:30:11,Kosciuszko St & Tompkins Ave,4553,Leonard St & Maujer St,5148,40.69128258,-73.9452416,40.7103685423523,-73.94705951213837,member
217691,98ADB869BC9EDC93,classic_bike,2021-08-19 18:07:31,2021-08-19 18:57:02,W 44 St & 5 Ave,6551,Leonard St & Maujer St,5148,40.75500254,-73.98014437,40.7103685423523,-73.94705951213837,member
217698,2090AD4A84BA0659,electric_bike,2021-08-19 22:56:03,2021-08-19 23:08:52,Pike St & E Broadway,5270,Leonard St & Maujer St,5148,40.71406667,-73.99293911,40.7103685423523,-73.94705951213837,member
217715,C41317F341A73F83,classic_bike,2021-08-11 19:47:44,2021-08-11 19:59:50,Kosciuszko St & Tompkins Ave,4553,Leonard St & Maujer St,5148,40.69128258,-73.9452416,40.7103685423523,-73.94705951213837,casual
217718,BA23922E8ACB31D3,classic_bike,2021-08-27 20:13:01,2021-08-27 20:32:19,Flushing Ave & Vanderbilt Ave,4762,Leonard St & Maujer St,5148,40.69795031569544,-73.97077560424805,40.7103685423523,-73.94705951213837,member
217723,CEA079714FDACA39,classic_bike,2021-08-05 19:40:20,2021-08-05 19:44:52,Division Ave & Hooper St,5045,Leonard St & Maujer St,5148,40.70684203101325,-73.9544353965357,40.7103685423523,-73.94705951213837,member
217730,C3736443401E0A5F,classic_bike,2021-08-13 19:54:08,2021-08-13 20:11:37,Driggs Ave & Lorimer St,5481,Leonard St & Maujer St,5148,40.72179134,-73.9504154,40.7103685423523,-73.94705951213837,casual
217736,6A3CFDB85633E242,classic_bike,2021-08-07 13:54:34,2021-08-07 14:02:28,S 5 Pl & S 5 St,5125,Leonard St & Maujer St,5148,40.710451,-73.960876,40.7103685423523,-73.94705951213837,member
217739,4F6C0381A2A33DF0,classic_bike,2021-08-20 12:43:28,2021-08-20 12:55:13,Metropolitan Ave & Meeker Ave,5300,Leonard St & Maujer St,5148,40.71413311,-73.95234386,40.7103685423523,-73.94705951213837,casual
217746,996F2F34EAD269BC,classic_bike,2021-08-08 01:49:33,2021-08-08 01:58:39,Metropolitan Ave & Meeker Ave,5300,Leonard St & Maujer St,5148,40.71413311,-73.95234386,40.7103685423523,-73.94705951213837,casual
