,ride_id,rideable_type,started_at,ended_at,start_station_name,start_station_id,end_station_name,end_station_id,start_lat,start_lng,end_lat,end_lng,member_casual
13702,AAF5F71DA0CE419D,classic_bike,2021-08-24 16:47:31,2021-08-24 16:59:28,Sullivan Pl & Franklin Ave,3704,Underhill Ave & Pacific St,4231,40.66407983678161,-73.96025128666679,40.6804836,-73.9646795,member
13719,B9CF5F4CAB3EF515,classic_bike,2021-08-30 08:40:23,2021-08-30 08:57:17,Bushwick Ave & Dekalb Ave,4680,Underhill Ave & Pacific St,4231,40.69502,-73.92825,40.6804836,-73.9646795,member
13730,6B66C3BA1CC72528,classic_bike,2021-08-21 10:35:36,2021-08-21 10:46:39,Franklin Ave & Myrtle Ave,4715,Underhill Ave & Pacific St,4231,40.694546087246025,-73.95801365375519,40.6804836,-73.9646795,member
13756,04FD36B2BF09E83F,classic_bike,2021-08-27 12:01:55,2021-08-27 12:09:35,Sterling Pl & Bedford Ave,3993,Underhill Ave & Pacific St,4231,40.672695,-73.954131,40.6804836,-73.9646795,member
13778,95AA3133D0309998,docked_bike,2021-08-25 23:37:41,2021-08-25 23:58:07,S 4 St & Wythe Ave,5204,Underhill Ave & Pacific St,4231,40.712859,-73.965903,40.680484,-73.96468,casual
13781,CEB4DFECA200D5FF,classic_bike,2021-08-01 15:24:56,2021-08-01 15:30:42,Hancock St & Bedford Ave,4255,Underhill Ave & Pacific St,4231,40.68216564,-73.95399026,40.6804836,-73.9646795,member
13846,47E732F078B0FA6A,classic_bike,2021-08-15 14:17:17,2021-08-15 14:20:47,St Johns Pl & Washington Ave,4001,Underhill Ave & Pacific St,4231,40.6737236,-73.9631611,40.6804836,-73.9646795,member
13875,33F0FC739D7B61DA,classic_bike,2021-08-20 23:00:03,2021-08-20 23:28:04,Harrison St & Hudson St,5400,Underhill Ave & Pacific St,4231,40.71870987,-74.0090009,40.6804836,-73.9646795,member
13904,3DB93FFFC05F9E39,classic_bike,2021-08-19 18:50:48,2021-08-19 18:57:43,Lafayette Ave & Classon Ave,4452,Underhill Ave & Pacific St,4231,40.68900443,-73.96023854,40.6804836,-73.9646795,casual
13911,8E3B160869AD9D75,classic_bike,2021-08-25 18:23:34,2021-08-25 18:43:25,Broadway & Madison St,4483,Underhill Ave & Pacific St,4231,40.68822,-73.91966,40.6804836,-73.9646795,casual
13926,8F398E9072CA0BF7,electric_bike,2021-08-27 15:43:02,2021-08-27 15:51:45,Washington Ave & Park Ave,4724,Underhill Ave & Pacific St,4231,40.69610226,-73.96751037,40.6804836,-73.9646795,member
13927,9A1CC84217E1BBD0,classic_bike,2021-08-01 00:37:36,2021-08-01 00:45:48,Washington Ave & Park Ave,4724,Underhill Ave & Pacific St,4231,40.69610226,-73.96751037,40.6804836,-73.9646795,member
13943,A001E26543393A2E,classic_bike,2021-08-16 09:37:35,2021-08-16 09:56:18,S 4 St & Wythe Ave,5204,Underhill Ave & Pacific St,4231,40.71285887,-73.96590294,40.6804836,-73.9646795,member
13951,697199499E2B3F2B,classic_bike,2021-08-17 18:53:28,2021-08-17 19:06:31,Monroe St & Tompkins Ave,4434,Underhill Ave & Pacific St,4231,40.686203,-73.944694,40.6804836,-73.9646795,member
13953,8BFAB0CD889527F2,classic_bike,2021-08-14 13:09:38,2021-08-14 13:20:54,Atlantic Ave & Fort Greene Pl,4354,Underhill Ave & Pacific St,4231,40.68382604,-73.97632328,40.6804836,-73.9646795,member
13955,F1BF83AC149497DC,electric_bike,2021-08-19 12:04:16,2021-08-19 12:11:00,S Portland Ave & Hanson Pl,4354,Underhill Ave & Pacific St,4231,40.68539567,-73.97431458,40.6804836,-73.9646795,member
13957,2F00DC600D81A6EE,classic_bike,2021-08-07 16:57:25,2021-08-07 17:04:54,S Portland Ave & Hanson Pl,4354,Underhill Ave & Pacific St,4231,40.68539567,-73.97431458,40.6804836,-73.9646795,member
13978,EB77430ADE16E83F,classic_bike,2021-08-01 15:19:04,2021-08-01 15:40:51,Front St & Jay St,4895,Underhill Ave & Pacific St,4231,40.702461,-73.986842,40.6804836,-73.9646795,casual
13992,31817F97353DA78F,electric_bike,2021-08-25 18:19:56,2021-08-25 20:04:35,Wadsworth Ave & W 179 St,8336,Underhill Ave & Pacific St,4231,40.848467,-73.936064,40.6804836,-73.9646795,casual
13999,B9D827545E192094,classic_bike,2021-08-02 14:06:34,2021-08-02 14:14:05,Hancock St & Bedford Ave,4255,Underhill Ave & Pacific St,4231,40.68216564,-73.95399026,40.6804836,-73.9646795,casual
14002,ED99F77FC1792ACF,classic_bike,2021-08-13 22:26:24,2021-08-13 22:41:16,3 St & Prospect Park West,3865,Underhill Ave & Pacific St,4231,40.668132,-73.97363831,40.6804836,-73.9646795,casual
14029,080B70818DF0EE5F,classic_bike,2021-08-20 20:33:37,2021-08-20 21:15:19,Clinton St & Grand St,5303,Underhill Ave & Pacific St,4231,40.71559509,-73.9870295,40.6804836,-73.9646795,casual
14087,E8EC387295C9C26B,classic_bike,2021-08-04 15:53:57,2021-08-04 15:57:31,Underhill Ave & Lincoln Pl,4042,Underhill Ave & Pacific St,4231,40.6740123,-73.9671457,40.6804836,-73.9646795,casual
14100,B387A81931B5D0D9,classic_bike,2021-08-13 21:03:22,2021-08-13 21:06:53,Lexington Ave & Classon Ave,4452,Underhill Ave & Pacific St,4231,40.68676793,-73.95928168,40.6804836,-73.9646795,member
14125,125371F22AD83D32,electric_bike,2021-08-27 18:37:14,2021-08-27 18:42:03,Lafayette Ave & Classon Ave,4452,Underhill Ave & Pacific St,4231,40.68900443,-73.96023854,40.6804836,-73.9646795,member
14132,2F00ABF3B8E1484A,electric_bike,2021-08-27 22:58:59,2021-08-27 23:08:51,Monroe St & Classon Ave,4336,Underhill Ave & Pacific St,4231,40.6845683,-73.95881081,40.6804836,-73.9646795,member
14146,E76622147373A3C6,electric_bike,2021-08-17 11:55:45,2021-08-17 11:59:13,S Portland Ave & Hanson Pl,4354,Underhill Ave & Pacific St,4231,40.68539567,-73.97431458,40.6804836,-73.9646795,member
14172,6A67AD1B1B7A4EED,classic_bike,2021-08-15 22:58:33,2021-08-15 23:04:20,7 Ave & Park Pl,4125,Underhill Ave & Pacific St,4231,40.6776147,-73.97324283,40.6804836,-73.9646795,member
14188,1C37A4661EEC9864,electric_bike,2021-08-09 18:11:26,2021-08-09 18:29:53,2 Ave & 32 St,3532,Underhill Ave & Pacific St,4231,40.659176,-74.006584,40.6804836,-73.9646795,member
14189,E8C80AB1EE6F4B33,classic_bike,2021-08-16 19:21:07,2021-08-16 19:30:42,Douglass St & 4 Ave,4175,Underhill Ave & Pacific St,4231,40.6792788,-73.98154004,40.6804836,-73.9646795,member
14647,5679425338AD40EA,classic_bike,2021-08-27 16:24:33,2021-08-27 16:29:41,St Johns Pl & Washington Ave,4001,Underhill Ave & Pacific St,4231,40.6737236,-73.9631611,40.6804836,-73.9646795,member
14653,A5F56FB603BEB7C6,classic_bike,2021-08-30 08:58:13,2021-08-30 09:03:17,St Johns Pl & Washington Ave,4001,Underhill Ave & Pacific St,4231,40.6737236,-73.9631611,40.6804836,-73.9646795,member
14791,560B5CCFB83B1B08,classic_bike,2021-08-30 19:34:21,2021-08-30 20:02:22,Milton St & Franklin St,5752,Underhill Ave & Pacific St,4231,40.72906,-73.95779,40.6804836,-73.9646795,casual
33522,F6D973B107AD892B,classic_bike,2021-08-18 18:47:54,2021-08-18 19:02:53,Union St & 4 Ave,4175,Underhill Ave & Pacific St,4231,40.6772744,-73.98282002,40.6804836,-73.9646795,member
33553,E6EFD732E4684D51,classic_bike,2021-08-13 01:50:48,2021-08-13 02:01:25,Eastern Pkwy & Franklin Ave,3919,Underhill Ave & Pacific St,4231,40.6707767,-73.9576801,40.6804836,-73.9646795,casual
33569,F8626B41A34BAAFB,classic_bike,2021-08-15 13:14:39,2021-08-15 13:35:20,Suydam St & Broadway,4689,Underhill Ave & Pacific St,4231,40.69544,-73.93223,40.6804836,-73.9646795,member
33584,07658031326CA443,classic_bike,2021-08-10 16:17:01,2021-08-10 16:29:22,Plaza St West & Flatbush Ave,4010,Underhill Ave & Pacific St,4231,40.6750207,-73.97111473,40.6804836,-73.9646795,casual
33590,4FC639AD0D93B581,electric_bike,2021-08-30 19:26:28,2021-08-30 19:30:37,7 Ave & Park Pl,4125,Underhill Ave & Pacific St,4231,40.6776147,-73.97324283,40.6804836,-73.9646795,member
33598,0BD24AC6BBCCE28F,classic_bike,2021-08-20 22:24:29,2021-08-20 22:44:26,Union St & Nevins St,4143,Underhill Ave & Pacific St,4231,40.67909799721684,-73.98765474557877,40.6804836,-73.9646795,casual
33604,E994CE0DDAEFA099,classic_bike,2021-08-17 07:18:14,2021-08-17 07:24:20,7 Ave & Park Pl,4125,Underhill Ave & Pacific St,4231,40.6776147,-73.97324283,40.6804836,-73.9646795,member
33648,23208342E8447518,classic_bike,2021-08-14 16:24:04,2021-08-14 16:35:44,Duffield St & Willoughby St,4596,Underhill Ave & Pacific St,4231,40.69221589,-73.9842844,40.6804836,-73.9646795,casual
33669,2931E314785F9CDF,electric_bike,2021-08-27 18:01:28,2021-08-27 18:16:47,Fulton St & Utica Ave,4228,Underhill Ave & Pacific St,4231,40.6794268,-73.9298911,40.6804836,-73.9646795,casual
33689,EC31A77EAAAD51F6,classic_bike,2021-08-04 15:35:32,2021-08-04 15:42:41,Bergen St & 4 Ave,4322,Underhill Ave & Pacific St,4231,40.68256425759694,-73.9798977971077,40.6804836,-73.9646795,member
33692,413A4988D433E825,electric_bike,2021-08-25 12:59:47,2021-08-25 13:05:45,Carlton Ave & Dean St,4199,Underhill Ave & Pacific St,4231,40.6809741,-73.9710097,40.6804836,-73.9646795,member
33804,80939579E7D171AB,classic_bike,2021-08-29 03:00:04,2021-08-29 03:15:53,Willoughby St & Fleet St,4628,Underhill Ave & Pacific St,4231,40.69196566,-73.9813018,40.6804836,-73.9646795,member
34808,4CF780BF971F610F,classic_bike,2021-08-03 17:09:34,2021-08-03 17:23:13,Bergen St & Flatbush Ave,4281,Underhill Ave & Pacific St,4231,40.680944723477296,-73.97567331790923,40.6804836,-73.9646795,casual
34959,25BDED03B366B201,classic_bike,2021-08-29 20:41:11,2021-08-29 20:53:51,Wyckoff St & Nevins St,4290,Underhill Ave & Pacific St,4231,40.683426,-73.984275,40.6804836,-73.9646795,member
79903,1ECB339A6F582CBA,electric_bike,2021-08-08 19:47:16,2021-08-08 19:51:00,Underhill Ave & Pacific St,4231,St Johns Pl & Washington Ave,4001,40.6804836,-73.9646795,40.6737236,-73.9631611,member
79905,FA501DD31806F251,electric_bike,2021-08-31 13:29:40,2021-08-31 13:32:37,Underhill Ave & Pacific St,4231,St Johns Pl & Washington Ave,4001,40.6804836,-73.9646795,40.6737236,-73.9631611,member
95509,44AC45ACA0F6EE78,classic_bike,2021-08-02 17:47:50,2021-08-02 17:57:27,Underhill Ave & Pacific St,4231,Willoughby Ave & Walworth St,4634,40.6804836,-73.9646795,40.69331716,-73.95381995,member
113437,578A893E9D8A0B4E,electric_bike,2021-08-23 13:49:56,2021-08-23 14:01:53,Underhill Ave & Pacific St,4231,Classon Ave & St Marks Ave,4074,40.6804836,-73.9646795,40.6765198,-73.9596082,member
113443,E68E4F9691E88C44,classic_bike,2021-08-15 14:52:53,2021-08-15 14:57:21,Underhill Ave & Pacific St,4231,Franklin Ave & St Marks Ave,4107,40.6804836,-73.9646795,40.6758324,-73.9561677,casual
128376,A1838BD53DF7F585,classic_bike,2021-08-20 17:58:58,2021-08-20 18:17:38,Underhill Ave & Pacific St,4231,S 5 Pl & S 5 St,5125,40.6804836,-73.9646795,40.710451,-73.960876,member
132623,0BFED6ABFBD21548,classic_bike,2021-08-07 20:46:14,2021-08-07 21:04:09,Underhill Ave & Pacific St,4231,Stagg St & Union Ave,5117,40.6804836,-73.9646795,40.70877084,-73.95095259,member
136382,EDFA6104BF809811,classic_bike,2021-08-31 18:24:50,2021-08-31 18:54:53,Underhill Ave & Pacific St,4231,Jefferson St & Cypress Ave,5082,40.6804836,-73.9646795,40.70907,-73.92157,member
136395,08F46A4787AF1A82,classic_bike,2021-08-07 20:35:29,2021-08-07 20:53:20,Underhill Ave & Pacific St,4231,6 Ave & 12 St,3803,40.6804836,-73.9646795,40.6663181,-73.9854617,casual
136739,55FFA1A66147C87E,classic_bike,2021-08-27 20:01:29,2021-08-27 21:40:41,E 16 St & 5 Ave,6022,Underhill Ave & Pacific St,4231,40.73726186,-73.99238967,40.6804836,-73.9646795,casual
136756,0F88E222778ACD71,electric_bike,2021-08-16 17:46:33,2021-08-16 18:15:59,St Marks Pl & 2 Ave,5669,Underhill Ave & Pacific St,4231,40.7284186,-73.98713956,40.6804836,-73.9646795,member
136766,9FE787200730CF55,classic_bike,2021-08-08 11:47:42,2021-08-08 11:57:44,Clinton Ave & Myrtle Ave,4651,Underhill Ave & Pacific St,4231,40.693261,-73.968896,40.6804836,-73.9646795,member
136790,EC8EC044E69DD9F8,classic_bike,2021-08-15 13:37:28,2021-08-15 13:49:00,Prospect Park West & 8 St,3722,Underhill Ave & Pacific St,4231,40.66514681533792,-73.97637605667114,40.6804836,-73.9646795,member
136805,84FEBBDB33892341,classic_bike,2021-08-30 16:49:37,2021-08-30 17:06:03,Warren St & Smith St,4371,Underhill Ave & Pacific St,4231,40.68542400997018,-73.99127773940563,40.6804836,-73.9646795,member
136831,B1D2AD1769B89BD3,classic_bike,2021-08-19 14:06:49,2021-08-19 14:11:07,Carlton Ave & Dean St,4199,Underhill Ave & Pacific St,4231,40.6809741,-73.9710097,40.6804836,-73.9646795,member
136858,1EC5C6B9659F4B8C,classic_bike,2021-08-19 17:13:52,2021-08-19 17:17:18,Classon Ave & St Marks Ave,4074,Underhill Ave & Pacific St,4231,40.6765198,-73.9596082,40.6804836,-73.9646795,member
136867,0609DC169B30ABA0,classic_bike,2021-08-13 18:46:59,2021-08-13 18:57:38,6 St & 7 Ave,3834,Underhill Ave & Pacific St,4231,40.6686627,-73.97988067,40.6804836,-73.9646795,casual
136869,56285CBECDBB172E,classic_bike,2021-08-21 13:46:11,2021-08-21 13:51:55,Franklin Ave & St Marks Ave,4107,Underhill Ave & Pacific St,4231,40.6758324,-73.9561677,40.6804836,-73.9646795,casual
136874,20E875D860C2E73D,classic_bike,2021-08-20 20:04:03,2021-08-20 20:15:43,6 St & 7 Ave,3834,Underhill Ave & Pacific St,4231,40.6686627,-73.97988067,40.6804836,-73.9646795,casual
136877,45F041DBCF8A63DC,classic_bike,2021-08-12 14:52:37,2021-08-12 14:56:53,Lafayette Ave & St James Pl,4494,Underhill Ave & Pacific St,4231,40.68851534,-73.9647628,40.6804836,-73.9646795,member
136881,798EDAEC1732959E,classic_bike,2021-08-01 15:41:13,2021-08-01 15:44:17,Classon Ave & St Marks Ave,4074,Underhill Ave & Pacific St,4231,40.6765198,-73.9596082,40.6804836,-73.9646795,member
136954,E84B1A9EEEC663B8,classic_bike,2021-08-17 18:17:07,2021-08-17 18:32:40,Front St & Jay St,4895,Underhill Ave & Pacific St,4231,40.702461,-73.986842,40.6804836,-73.9646795,member
136957,3D07EF7BE927686C,classic_bike,2021-08-01 15:19:55,2021-08-01 15:40:49,Front St & Jay St,4895,Underhill Ave & Pacific St,4231,40.702461,-73.986842,40.6804836,-73.9646795,casual
136980,074B8AE9DA008121,classic_bike,2021-08-31 16:57:07,2021-08-31 17:27:38,Vesey Pl & River Terrace,5297,Underhill Ave & Pacific St,4231,40.7153379,-74.01658354,40.6804836,-73.9646795,member
136995,C0CAD8AF0DB50BA9,classic_bike,2021-08-31 10:44:32,2021-08-31 10:47:08,Pacific St & Classon Ave,4148,Underhill Ave & Pacific St,4231,40.6791944,-73.9587903,40.6804836,-73.9646795,member
137023,5EA84A90879140C4,electric_bike,2021-08-28 09:41:44,2021-08-28 09:53:01,Bond St & Fulton St,4479,Underhill Ave & Pacific St,4231,40.68962188790333,-73.98304268717766,40.6804836,-73.9646795,member
137037,FFAA9E762179BCE7,electric_bike,2021-08-18 17:19:10,2021-08-18 17:31:31,Myrtle Ave & Marcy Ave,4707,Underhill Ave & Pacific St,4231,40.69539817,-73.94954908,40.6804836,-73.9646795,member
137105,98196075F2721BC9,classic_bike,2021-08-10 18:02:22,2021-08-10 18:48:43,28 Ave & 35 St,6951,Underhill Ave & Pacific St,4231,40.7671,-73.9169858,40.6804836,-73.9646795,member
137117,0392C20490EC89D8,classic_bike,2021-08-30 20:14:05,2021-08-30 20:19:19,Underhill Ave & Lincoln Pl,4042,Underhill Ave & Pacific St,4231,40.6740123,-73.9671457,40.6804836,-73.9646795,member
137129,38760C7FB675688F,classic_bike,2021-08-02 17:16:34,2021-08-02 17:23:32,7 Ave & Park Pl,4125,Underhill Ave & Pacific St,4231,40.6776147,-73.97324283,40.6804836,-73.9646795,member
137145,64751A24E7C14F1C,electric_bike,2021-08-11 19:18:17,2021-08-11 19:22:37,7 Ave & Park Pl,4125,Underhill Ave & Pacific St,4231,40.6776147,-73.97324283,40.6804836,-73.9646795,member
137159,0CC026A3A5A1257A,electric_bike,2021-08-25 18:51:03,2021-08-25 18:57:50,Douglass St & 4 Ave,4175,Underhill Ave & Pacific St,4231,40.6792788,-73.98154004,40.6804836,-73.9646795,casual
137177,46A1921CE17539FF,electric_bike,2021-08-28 02:45:30,2021-08-28 02:52:40,Washington Ave & Park Ave,4724,Underhill Ave & Pacific St,4231,40.69610226,-73.96751037,40.6804836,-73.9646795,casual
137192,C5707FEDD23F67A4,classic_bike,2021-08-06 18:17:49,2021-08-06 18:37:48,Butler St & Court St,4339,Underhill Ave & Pacific St,4231,40.6849894,-73.99440329,40.6804836,-73.9646795,member
137241,799F623425F27443,classic_bike,2021-08-16 18:29:46,2021-08-16 18:47:32,Hanson Pl & Ashland Pl,4395,Underhill Ave & Pacific St,4231,40.68506807308177,-73.97790759801863,40.6804836,-73.9646795,member
137245,53F945205043DD4E,classic_bike,2021-08-14 20:01:41,2021-08-14 20:09:19,Hanson Pl & Ashland Pl,4395,Underhill Ave & Pacific St,4231,40.68506807308177,-73.97790759801863,40.6804836,-73.9646795,member
137256,D1D0ACC20D3AC71C,classic_bike,2021-08-14 14:35:56,2021-08-14 14:38:32,Bergen St & Vanderbilt Ave,4157,Underhill Ave & Pacific St,4231,40.6794388,-73.9680438,40.6804836,-73.9646795,member
137257,C7A82B68AA4AA114,classic_bike,2021-08-23 08:07:41,2021-08-23 08:20:01,Hanson Pl & Ashland Pl,4395,Underhill Ave & Pacific St,4231,40.68506807308177,-73.97790759801863,40.6804836,-73.9646795,member
137259,B0A101A90ED67B72,electric_bike,2021-08-25 15:38:08,2021-08-25 15:45:50,Hanson Pl & Ashland Pl,4395,Underhill Ave & Pacific St,4231,40.68506807308177,-73.97790759801863,40.6804836,-73.9646795,member
137264,921BE4EEE21149B2,classic_bike,2021-08-02 19:25:54,2021-08-02 19:32:00,Hanson Pl & Ashland Pl,4395,Underhill Ave & Pacific St,4231,40.68506807308177,-73.97790759801863,40.6804836,-73.9646795,member
137265,CB081C8784B7B9FA,classic_bike,2021-08-11 18:52:16,2021-08-11 18:59:41,Hanson Pl & Ashland Pl,4395,Underhill Ave & Pacific St,4231,40.68506807308177,-73.97790759801863,40.6804836,-73.9646795,member
137278,7A7E4771A24D34C7,classic_bike,2021-08-11 19:53:21,2021-08-11 19:58:10,Bergen St & Vanderbilt Ave,4157,Underhill Ave & Pacific St,4231,40.6794388,-73.9680438,40.6804836,-73.9646795,casual
137287,77DA6F7C1DBF94A4,classic_bike,2021-08-17 08:35:13,2021-08-17 08:46:42,Prospect Park West & 8 St,3722,Underhill Ave & Pacific St,4231,40.66514681533792,-73.97637605667114,40.6804836,-73.9646795,casual
137293,F477013D3502173B,classic_bike,2021-08-03 09:36:57,2021-08-03 09:45:43,Carroll St & Franklin Ave,3847,Underhill Ave & Pacific St,4231,40.6679411,-73.9588,40.6804836,-73.9646795,casual
137294,2146BCEFF3D24D36,classic_bike,2021-08-15 19:54:07,2021-08-15 20:05:19,Prospect Park West & 8 St,3722,Underhill Ave & Pacific St,4231,40.66514681533792,-73.97637605667114,40.6804836,-73.9646795,casual
137398,4171C4C86989E152,classic_bike,2021-08-20 17:03:17,2021-08-20 17:10:42,Park Pl & Franklin Ave,4033,Underhill Ave & Pacific St,4231,40.6741806,-73.9564947,40.6804836,-73.9646795,member
137415,9231F1EECD80ADC6,classic_bike,2021-08-19 15:34:57,2021-08-19 15:58:19,Suydam St & Broadway,4689,Underhill Ave & Pacific St,4231,40.69544,-73.93223,40.6804836,-73.9646795,member
137444,C967AC62CFEA980E,classic_bike,2021-08-30 17:52:29,2021-08-30 18:40:30,W 24 St & 7 Ave,6257,Underhill Ave & Pacific St,4231,40.74487634,-73.99529885,40.6804836,-73.9646795,member
137470,68D7117D857AE788,electric_bike,2021-08-19 07:30:28,2021-08-19 07:41:19,Sterling St & Bedford Ave,3665,Underhill Ave & Pacific St,4231,40.6627059,-73.9569115,40.6804836,-73.9646795,member
137476,59DA7922116963FF,classic_bike,2021-08-25 11:58:15,2021-08-25 12:04:57,Prospect Pl & 6 Ave,4166,Underhill Ave & Pacific St,4231,40.6793307,-73.97519523,40.6804836,-73.9646795,member
137477,337D2C8CCEBE1013,electric_bike,2021-08-24 18:20:57,2021-08-24 18:38:19,2 Ave & 32 St,3532,Underhill Ave & Pacific St,4231,40.659176,-74.006584,40.6804836,-73.9646795,member
137482,ED21E310C8E35EB9,classic_bike,2021-08-09 19:25:13,2021-08-09 19:34:46,Douglass St & 4 Ave,4175,Underhill Ave & Pacific St,4231,40.6792788,-73.98154004,40.6804836,-73.9646795,member
137484,3E355C37B73C7DAE,classic_bike,2021-08-12 22:02:54,2021-08-12 22:23:39,Douglass St & 4 Ave,4175,Underhill Ave & Pacific St,4231,40.6792788,-73.98154004,40.6804836,-73.9646795,casual
137517,D3299E918C798190,electric_bike,2021-08-05 21:31:34,2021-08-05 21:42:03,Schermerhorn St & Bond St,4479,Underhill Ave & Pacific St,4231,40.688417427540834,-73.98451656103134,40.6804836,-73.9646795,member
137520,EF54CD4FA9052676,classic_bike,2021-08-18 19:14:08,2021-08-18 19:44:14,Rogers Ave & Sterling St,3696,Underhill Ave & Pacific St,4231,40.6630619,-73.9538746,40.6804836,-73.9646795,casual
137546,DEFF8D9DE5FE3EDB,classic_bike,2021-08-12 19:12:16,2021-08-12 19:22:18,Fulton St & Waverly Ave,4345,Underhill Ave & Pacific St,4231,40.68323865460341,-73.96599590778351,40.6804836,-73.9646795,casual
137570,85BE76A58E40A8EE,electric_bike,2021-08-28 22:03:20,2021-08-28 22:23:51,S 5 Pl & S 5 St,5125,Underhill Ave & Pacific St,4231,40.710451,-73.960876,40.6804836,-73.9646795,casual
137622,B07C1CF984833B96,classic_bike,2021-08-26 13:09:00,2021-08-26 13:56:52,Ashland Pl & Dekalb Ave,4513,Underhill Ave & Pacific St,4231,40.690065,-73.978776,40.6804836,-73.9646795,member
137642,09DC6659A7DD4EEB,classic_bike,2021-08-14 17:26:36,2021-08-14 17:28:15,Grand Ave & Bergen St,4190,Underhill Ave & Pacific St,4231,40.678045,-73.962408,40.6804836,-73.9646795,member
137654,A96D33E99C2A1112,classic_bike,2021-08-05 18:41:27,2021-08-05 18:54:06,Carroll St & 6 Ave,4019,Underhill Ave & Pacific St,4231,40.6740886,-73.9787282,40.6804836,-73.9646795,casual
137663,D09CCB1155E9EEEE,classic_bike,2021-08-31 12:32:20,2021-08-31 12:38:03,Lincoln Pl & Classon Ave,3960,Underhill Ave & Pacific St,4231,40.6721683,-73.9609,40.6804836,-73.9646795,member
137664,5BE7DB9A5135D3E9,classic_bike,2021-08-08 17:46:42,2021-08-08 18:47:39,Dean St & Franklin Ave,4107,Underhill Ave & Pacific St,4231,40.67759206937376,-73.955637216568,40.6804836,-73.9646795,member
137688,17D155A0D619E57A,classic_bike,2021-08-09 16:15:24,2021-08-09 16:30:31,Flushing Ave & Vanderbilt Ave,4762,Underhill Ave & Pacific St,4231,40.69795031569544,-73.97077560424805,40.6804836,-73.9646795,member
137691,0D8739270BE15DCA,classic_bike,2021-08-26 13:55:48,2021-08-26 14:12:51,Flushing Ave & Vanderbilt Ave,4762,Underhill Ave & Pacific St,4231,40.69795031569544,-73.97077560424805,40.6804836,-73.9646795,member
137734,C17BF784E15D05E5,classic_bike,2021-08-10 08:29:20,2021-08-10 08:38:55,Underhill Ave & Pacific St,4231,Macon St & Nostrand Ave,4214,40.6804836,-73.9646795,40.6809833854,-73.9500479759,member
137747,F946EB7C56E0C22B,classic_bike,2021-08-31 14:50:42,2021-08-31 14:57:02,Plaza St West & Flatbush Ave,4010,Underhill Ave & Pacific St,4231,40.6750207,-73.97111473,40.6804836,-73.9646795,member
137766,D2A7714A3F3D7AF4,classic_bike,2021-08-29 17:05:04,2021-08-29 17:09:56,Bergen St & Vanderbilt Ave,4157,Underhill Ave & Pacific St,4231,40.6794388,-73.9680438,40.6804836,-73.9646795,member
137781,613D36BE8F12A3D6,classic_bike,2021-08-03 09:15:04,2021-08-03 09:22:50,Willoughby Ave & Hall St,4611,Underhill Ave & Pacific St,4231,40.69196035,-73.96536851,40.6804836,-73.9646795,member
137826,B77B42D5EFCBE8DD,classic_bike,2021-08-02 17:10:35,2021-08-02 17:33:01,West Drive & Prospect Park West,3651,Underhill Ave & Pacific St,4231,40.6610633719006,-73.97945255041122,40.6804836,-73.9646795,casual
137830,71443C323E2ECCB0,electric_bike,2021-08-14 16:24:44,2021-08-14 17:00:20,Metropolitan Ave & Meeker Ave,5300,Underhill Ave & Pacific St,4231,40.71413311,-73.95234386,40.6804836,-73.9646795,casual
137836,97252ADB74E83A94,electric_bike,2021-08-26 18:31:20,2021-08-26 18:52:10,Metropolitan Ave & Meeker Ave,5300,Underhill Ave & Pacific St,4231,40.71413311,-73.95234386,40.6804836,-73.9646795,member
137846,30E2D8049D959736,classic_bike,2021-08-13 08:11:55,2021-08-13 08:15:49,Prospect Pl & Vanderbilt Ave,4157,Underhill Ave & Pacific St,4231,40.67767534269111,-73.96902143955231,40.6804836,-73.9646795,member
137858,FD5CB707AD7F7A31,classic_bike,2021-08-05 21:38:54,2021-08-05 21:45:30,Bergen St & Flatbush Ave,4281,Underhill Ave & Pacific St,4231,40.680944723477296,-73.97567331790923,40.6804836,-73.9646795,member
137881,B842C088A39DEA1A,classic_bike,2021-08-26 10:19:49,2021-08-26 10:24:56,Lexington Ave & Classon Ave,4452,Underhill Ave & Pacific St,4231,40.68676793,-73.95928168,40.6804836,-73.9646795,casual
137895,D749B3E6AC870849,classic_bike,2021-08-28 10:37:56,2021-08-28 10:57:12,Clark St & Henry St,4789,Underhill Ave & Pacific St,4231,40.69760127,-73.99344559,40.6804836,-73.9646795,member
137910,BC9967EDB13E3A6D,classic_bike,2021-08-01 10:04:29,2021-08-01 10:20:26,Sands St Gate,4812,Underhill Ave & Pacific St,4231,40.699569,-73.979827,40.6804836,-73.9646795,casual
137913,DCE552F36DB9A0CC,classic_bike,2021-08-05 18:15:42,2021-08-05 18:41:15,Montague St & Clinton St,4677,Underhill Ave & Pacific St,4231,40.6942715,-73.9923272,40.6804836,-73.9646795,casual
137917,E402F5D734E7DD97,electric_bike,2021-08-01 10:04:00,2021-08-01 10:20:26,Sands St Gate,4812,Underhill Ave & Pacific St,4231,40.699569,-73.979827,40.6804836,-73.9646795,member
138035,19D9F13AEF19793E,classic_bike,2021-08-10 12:30:45,2021-08-10 12:39:00,Boerum Pl\t& Pacific St,4488,Underhill Ave & Pacific St,4231,40.68848905639242,-73.99116039276123,40.6804836,-73.9646795,member
138725,403DF20423AFD491,classic_bike,2021-08-03 10:51:30,2021-08-03 11:11:42,S 3 St & Bedford Ave,5235,Underhill Ave & Pacific St,4231,40.71260486,-73.96264403,40.6804836,-73.9646795,member
138728,18FDC22481870A45,classic_bike,2021-08-26 15:30:44,2021-08-26 15:54:00,Suydam St & Broadway,4689,Underhill Ave & Pacific St,4231,40.69544,-73.93223,40.6804836,-73.9646795,member
149491,14DF0D4BC434F3E2,classic_bike,2021-08-07 15:23:21,2021-08-07 15:33:54,Underhill Ave & Pacific St,4231,Monroe St & Tompkins Ave,4434,40.6804836,-73.9646795,40.686203,-73.944694,member
149522,DBB90620BB31079E,classic_bike,2021-08-07 19:11:14,2021-08-07 19:31:15,Underhill Ave & Pacific St,4231,S 4 St & Wythe Ave,5204,40.6804836,-73.9646795,40.71285887,-73.96590294,casual
149527,B5204E7689200F30,classic_bike,2021-08-20 12:14:38,2021-08-20 12:38:42,Underhill Ave & Pacific St,4231,S 4 St & Wythe Ave,5204,40.6804836,-73.9646795,40.71285887,-73.96590294,casual
184019,86AF35CD82DA506A,classic_bike,2021-08-28 13:24:49,2021-08-28 13:33:01,Underhill Ave & Pacific St,4231,Garfield Pl & 8 Ave,3978,40.6804836,-73.9646795,40.6711978,-73.97484126,member
192762,6261ECBB84133127,classic_bike,2021-08-21 19:56:05,2021-08-21 20:08:18,Underhill Ave & Pacific St,4231,Putnam Ave & Throop Ave,4392,40.6804836,-73.9646795,40.6851532,-73.94111,casual
195548,50C33DC02F5DE219,electric_bike,2021-08-12 20:13:26,2021-08-12 20:30:38,Underhill Ave & Pacific St,4231,Butler St & Court St,4339,40.6804836,-73.9646795,40.6849894,-73.99440329,casual
198008,CC5F5976CD4C9795,classic_bike,2021-08-07 15:57:32,2021-08-07 16:30:59,Underhill Ave & Pacific St,4231,Smith St & 9 St,4077,40.6804836,-73.9646795,40.6746957,-73.99785768,casual
198009,A01CF3CCF051F02C,electric_bike,2021-08-18 19:40:33,2021-08-18 19:50:03,Underhill Ave & Pacific St,4231,Lawrence St & Willoughby St,4596,40.6804836,-73.9646795,40.69236178,-73.98631746,casual
209312,FEBD12230C862DF2,electric_bike,2021-08-30 06:37:25,2021-08-30 07:00:26,Woodward Ave & Harman St,5074,Underhill Ave & Pacific St,4231,40.70793,-73.91092,40.6804836,-73.9646795,member
209418,504AB29405CEC88E,classic_bike,2021-08-10 08:14:34,2021-08-10 08:28:34,Monroe St & Tompkins Ave,4434,Underhill Ave & Pacific St,4231,40.686203,-73.944694,40.6804836,-73.9646795,member
209421,D635AE0CB712CEC3,classic_bike,2021-08-30 18:27:15,2021-08-30 18:45:19,Monroe St & Tompkins Ave,4434,Underhill Ave & Pacific St,4231,40.686203,-73.944694,40.6804836,-73.9646795,member
209531,96DAED008F6E83A5,classic_bike,2021-08-31 17:21:42,2021-08-31 17:33:29,Underhill Ave & Pacific St,4231,Underhill Ave & Pacific St,4231,40.6804836,-73.9646795,40.6804836,-73.9646795,member
209538,91F1DA27C55E259D,classic_bike,2021-08-14 16:11:58,2021-08-14 16:23:24,DeKalb Ave & S Portland Ave,4546,Underhill Ave & Pacific St,4231,40.68981035,-73.97493121,40.6804836,-73.9646795,member
209563,17AA369FD015D969,classic_bike,2021-08-28 14:16:49,2021-08-28 14:23:38,Underhill Ave & Pacific St,4231,Clermont Ave & Lafayette Ave,4461,40.6804836,-73.9646795,40.68764484,-73.96968902,member
209566,8B708E641FDE753D,classic_bike,2021-08-13 07:57:11,2021-08-13 08:31:47,Underhill Ave & Pacific St,4231,Barrow St & Hudson St,5805,40.6804836,-73.9646795,40.73172428,-74.00674436,member
209568,ECD66E29139D67CD,classic_bike,2021-08-26 19:20:29,2021-08-26 19:26:22,Underhill Ave & Pacific St,4231,Clermont Ave & Lafayette Ave,4461,40.6804836,-73.9646795,40.68764484,-73.96968902,member
209587,E6639A896D16E8EC,electric_bike,2021-08-27 15:56:31,2021-08-27 16:13:56,Underhill Ave & Pacific St,4231,Underhill Ave & Pacific St,4231,40.6804836,-73.9646795,40.6804836,-73.9646795,casual
209591,EB2570B5CE7319F8,classic_bike,2021-08-17 13:46:52,2021-08-17 13:48:22,Underhill Ave & Pacific St,4231,Underhill Ave & Pacific St,4231,40.6804836,-73.9646795,40.6804836,-73.9646795,casual
209592,38C4658FAD47F6BA,classic_bike,2021-08-17 16:38:29,2021-08-17 16:40:16,Underhill Ave & Pacific St,4231,Underhill Ave & Pacific St,4231,40.6804836,-73.9646795,40.6804836,-73.9646795,casual
209604,148297B3429CD80C,classic_bike,2021-08-16 12:51:56,2021-08-16 12:52:23,Underhill Ave & Pacific St,4231,Underhill Ave & Pacific St,4231,40.6804836,-73.9646795,40.6804836,-73.9646795,casual
209621,C568E4E679684C68,classic_bike,2021-08-12 19:10:23,2021-08-12 20:07:45,Underhill Ave & Pacific St,4231,Underhill Ave & Pacific St,4231,40.6804836,-73.9646795,40.6804836,-73.9646795,casual
209623,D7511195D27335B2,classic_bike,2021-08-05 20:25:42,2021-08-05 20:32:10,Clermont Ave & Lafayette Ave,4461,Underhill Ave & Pacific St,4231,40.68764484,-73.96968902,40.6804836,-73.9646795,casual
209631,AC12B0F77C88CECB,classic_bike,2021-08-14 16:30:25,2021-08-14 16:48:06,Underhill Ave & Pacific St,4231,Clermont Ave & Lafayette Ave,4461,40.6804836,-73.9646795,40.68764484,-73.96968902,casual
209633,F922B32CBB2985A0,electric_bike,2021-08-16 19:37:08,2021-08-16 20:38:38,Underhill Ave & Pacific St,4231,Underhill Ave & Pacific St,4231,40.6804836,-73.9646795,40.6804836,-73.9646795,casual
209662,EEA6C75DB47EABD6,classic_bike,2021-08-27 19:38:27,2021-08-27 19:45:46,Clermont Ave & Lafayette Ave,4461,Underhill Ave & Pacific St,4231,40.68764484,-73.96968902,40.6804836,-73.9646795,casual
209663,3BEC70D745C501AB,classic_bike,2021-08-30 11:42:00,2021-08-30 11:46:22,Underhill Ave & Pacific St,4231,Underhill Ave & Pacific St,4231,40.6804836,-73.9646795,40.6804836,-73.9646795,casual
209667,7A6CC69156619A2C,electric_bike,2021-08-31 00:39:23,2021-08-31 00:52:19,Court St & State St,4488,Underhill Ave & Pacific St,4231,40.6902375,-73.99203074,40.6804836,-73.9646795,casual
209680,A6D70107441377FA,classic_bike,2021-08-30 15:53:33,2021-08-30 15:55:45,Grand Ave & Bergen St,4190,Underhill Ave & Pacific St,4231,40.678045,-73.962408,40.6804836,-73.9646795,member
209763,E559361023D75917,classic_bike,2021-08-14 16:23:02,2021-08-14 16:59:47,Metropolitan Ave & Meeker Ave,5300,Underhill Ave & Pacific St,4231,40.71413311,-73.95234386,40.6804836,-73.9646795,casual
209773,93F4233841114AC3,classic_bike,2021-08-30 08:15:13,2021-08-30 08:19:04,Fulton St & Irving Pl,4263,Underhill Ave & Pacific St,4231,40.68186,-73.959432,40.6804836,-73.9646795,casual
209791,A587D9B6F33C0B72,classic_bike,2021-08-30 06:20:45,2021-08-30 06:34:29,Willoughby Ave & Hall St,4611,Underhill Ave & Pacific St,4231,40.69196035,-73.96536851,40.6804836,-73.9646795,casual
209817,DCE1CDC624A06149,electric_bike,2021-08-29 08:22:59,2021-08-29 08:28:20,Union St & Bedford Ave,3879,Underhill Ave & Pacific St,4231,40.6691783,-73.9554162,40.6804836,-73.9646795,casual
209835,45CC10EAB759FD9E,classic_bike,2021-08-02 19:36:57,2021-08-02 19:58:19,Boerum Pl\t& Pacific St,4488,Underhill Ave & Pacific St,4231,40.68848905639242,-73.99116039276123,40.6804836,-73.9646795,member
209868,FE888B95F53E410C,classic_bike,2021-08-01 14:12:38,2021-08-01 14:25:03,5 Ave & 3 St,3987,Underhill Ave & Pacific St,4231,40.6728155,-73.98352355,40.6804836,-73.9646795,casual
209871,1D81903A7B3B1AE4,classic_bike,2021-08-18 18:47:36,2021-08-18 19:01:27,Halsey St & Tompkins Ave,4319,Underhill Ave & Pacific St,4231,40.6823687,-73.944118,40.6804836,-73.9646795,casual
209882,8EEB007FD3B55AAC,electric_bike,2021-08-26 18:59:20,2021-08-26 19:12:37,West Drive & Prospect Park West,3651,Underhill Ave & Pacific St,4231,40.6610633719006,-73.97945255041122,40.6804836,-73.9646795,casual
209883,E9658840EA41B397,classic_bike,2021-08-21 16:08:16,2021-08-21 16:22:04,West Drive & Prospect Park West,3651,Underhill Ave & Pacific St,4231,40.6610633719006,-73.97945255041122,40.6804836,-73.9646795,casual
209891,03ED01B609128313,classic_bike,2021-08-18 09:14:35,2021-08-18 09:22:56,Adelphi St & Myrtle Ave,4620,Underhill Ave & Pacific St,4231,40.69308257,-73.97178913,40.6804836,-73.9646795,member
209928,4252124B463445A2,classic_bike,2021-08-06 14:39:33,2021-08-06 14:51:23,Bond St & Fulton St,4479,Underhill Ave & Pacific St,4231,40.68962188790333,-73.98304268717766,40.6804836,-73.9646795,casual
209931,4FCCB61BD57562BC,classic_bike,2021-08-12 18:58:47,2021-08-12 19:09:04,Lafayette Ave & Classon Ave,4452,Underhill Ave & Pacific St,4231,40.68900443,-73.96023854,40.6804836,-73.9646795,casual
209936,EDD0A59512676FC0,classic_bike,2021-08-29 17:25:06,2021-08-29 17:50:43,Bedford Ave & Nassau Ave,5550,Underhill Ave & Pacific St,4231,40.72311651,-73.95212324,40.6804836,-73.9646795,casual
209937,D0C449D4C9CC9374,electric_bike,2021-08-10 19:06:38,2021-08-10 19:17:28,Bond St & Fulton St,4479,Underhill Ave & Pacific St,4231,40.68962188790333,-73.98304268717766,40.6804836,-73.9646795,member
209938,E9C2349D44BD112A,electric_bike,2021-08-30 18:15:45,2021-08-30 18:52:05,Division St & Bowery,5270,Underhill Ave & Pacific St,4231,40.714193,-73.996732,40.6804836,-73.9646795,casual
210086,DE02C7F3D144B54B,classic_bike,2021-08-03 19:03:46,2021-08-03 19:20:20,Front St & Jay St,4895,Underhill Ave & Pacific St,4231,40.702461,-73.986842,40.6804836,-73.9646795,member
210087,D43F5BF26836AC9A,classic_bike,2021-08-05 19:21:36,2021-08-05 19:37:55,Front St & Jay St,4895,Underhill Ave & Pacific St,4231,40.702461,-73.986842,40.6804836,-73.9646795,member
210098,9BC96467A189C664,classic_bike,2021-08-21 14:33:34,2021-08-21 14:41:30,Monroe St & Bedford Ave,4368,Underhill Ave & Pacific St,4231,40.6851443,-73.95380904,40.6804836,-73.9646795,casual
210113,9A46FC9E1819A77B,classic_bike,2021-08-12 22:40:19,2021-08-12 23:08:06,Clark St & Henry St,4789,Underhill Ave & Pacific St,4231,40.69760127,-73.99344559,40.6804836,-73.9646795,casual
210128,6C1229E04C77A8CC,classic_bike,2021-08-16 19:05:25,2021-08-16 19:24:42,Fulton St & Utica Ave,4228,Underhill Ave & Pacific St,4231,40.6794268,-73.9298911,40.6804836,-73.9646795,member
210130,DE33A0737A08ADED,classic_bike,2021-08-16 21:42:12,2021-08-16 22:25:49,Broadway & E 14 St,5905,Underhill Ave & Pacific St,4231,40.73454567,-73.99074142,40.6804836,-73.9646795,member
210176,5F09EB587A81B3E2,electric_bike,2021-08-20 13:31:17,2021-08-20 13:50:28,Douglass St & 4 Ave,4175,Underhill Ave & Pacific St,4231,40.6792788,-73.98154004,40.6804836,-73.9646795,casual
210178,00F92059871E3B5E,classic_bike,2021-08-17 19:34:37,2021-08-17 19:45:55,Prospect Pl & 6 Ave,4166,Underhill Ave & Pacific St,4231,40.6793307,-73.97519523,40.6804836,-73.9646795,casual
210179,FDE983A18CFA49E1,classic_bike,2021-08-17 18:38:33,2021-08-17 18:48:06,Douglass St & 4 Ave,4175,Underhill Ave & Pacific St,4231,40.6792788,-73.98154004,40.6804836,-73.9646795,casual
210199,5A21F150E254C083,classic_bike,2021-08-14 14:51:21,2021-08-14 15:03:25,Cumberland St & Lafayette Ave,4428,Underhill Ave & Pacific St,4231,40.68753406,-73.97265183,40.6804836,-73.9646795,member
210227,DAFF357CDE502E12,classic_bike,2021-08-29 18:00:20,2021-08-29 18:02:41,Pacific St & Classon Ave,4148,Underhill Ave & Pacific St,4231,40.6791944,-73.9587903,40.6804836,-73.9646795,member
210275,8CF1FCA9A675E43D,classic_bike,2021-08-08 00:20:04,2021-08-08 00:46:08,Franklin St & Dupont St,5944,Underhill Ave & Pacific St,4231,40.73564,-73.95866,40.6804836,-73.9646795,member
210290,7F5AFC38242FBFD9,classic_bike,2021-08-09 12:37:23,2021-08-09 12:51:07,Berkeley Pl & 7 Ave,4051,Underhill Ave & Pacific St,4231,40.675146838709786,-73.97523209452629,40.6804836,-73.9646795,member
210295,D8C4D1CB8C50C64E,electric_bike,2021-08-02 13:41:59,2021-08-02 13:53:51,Warren St & Court St,4413,Underhill Ave & Pacific St,4231,40.686371,-73.99383324,40.6804836,-73.9646795,member
210360,2B826B8C1EBB94CF,classic_bike,2021-08-23 17:23:20,2021-08-23 18:14:35,E 33 St & 5 Ave,6322,Underhill Ave & Pacific St,4231,40.74765947,-73.98490707,40.6804836,-73.9646795,member
210367,66FC66FFAFDCF365,classic_bike,2021-08-04 20:34:18,2021-08-04 20:43:53,Clinton Ave & Myrtle Ave,4651,Underhill Ave & Pacific St,4231,40.693261,-73.968896,40.6804836,-73.9646795,casual
210417,98E5E7607C68417E,classic_bike,2021-08-05 19:35:41,2021-08-05 19:42:59,Sterling Pl & Bedford Ave,3993,Underhill Ave & Pacific St,4231,40.672695,-73.954131,40.6804836,-73.9646795,member
210432,E376BDA002130ED7,classic_bike,2021-08-15 20:33:40,2021-08-15 20:38:39,Underhill Ave & Pacific St,4231,Clermont Ave & Lafayette Ave,4461,40.6804836,-73.9646795,40.68764484,-73.96968902,member
210465,C9AE4A14C56A0002,electric_bike,2021-08-11 18:03:54,2021-08-11 18:15:30,Kingston Ave & Herkimer St,4205,Underhill Ave & Pacific St,4231,40.67890679,-73.94142771,40.6804836,-73.9646795,casual
210474,4F14EBC6CC9A4D5A,electric_bike,2021-08-10 15:19:49,2021-08-10 15:19:52,Underhill Ave & Pacific St,4231,Underhill Ave & Pacific St,4231,40.6804836,-73.9646795,40.6804836,-73.9646795,member
210487,9D3E3189BF2B1CF4,classic_bike,2021-08-26 18:34:14,2021-08-26 18:40:08,Clermont Ave & Lafayette Ave,4461,Underhill Ave & Pacific St,4231,40.68764484,-73.96968902,40.6804836,-73.9646795,member
210488,E6244C6D49E7E010,classic_bike,2021-08-18 16:01:08,2021-08-18 16:12:22,Underhill Ave & Pacific St,4231,Macon St & Nostrand Ave,4214,40.6804836,-73.9646795,40.6809833854,-73.9500479759,member
210494,E82721FD7E6F450D,electric_bike,2021-08-10 19:13:24,2021-08-10 19:19:54,President St & 4 Ave,4101,Underhill Ave & Pacific St,4231,40.676757,-73.983262,40.6804836,-73.9646795,member
210497,886F2D1C05CD8494,classic_bike,2021-08-05 10:39:44,2021-08-05 11:06:35,Underhill Ave & Pacific St,4231,Underhill Ave & Pacific St,4231,40.6804836,-73.9646795,40.6804836,-73.9646795,member
210505,1F344EC18FF6B2B2,electric_bike,2021-08-26 19:33:09,2021-08-26 19:43:40,President St & 4 Ave,4101,Underhill Ave & Pacific St,4231,40.676757,-73.983262,40.6804836,-73.9646795,member
210510,B744469C0C299F77,classic_bike,2021-08-24 22:14:46,2021-08-24 22:37:49,Underhill Ave & Pacific St,4231,Underhill Ave & Pacific St,4231,40.6804836,-73.9646795,40.6804836,-73.9646795,member
210517,8A7C24F74F725264,classic_bike,2021-08-19 23:18:44,2021-08-19 23:24:09,Clermont Ave & Lafayette Ave,4461,Underhill Ave & Pacific St,4231,40.68764484,-73.96968902,40.6804836,-73.9646795,casual
210547,145EDEBAEAB732AC,classic_bike,2021-08-19 08:32:00,2021-08-19 08:43:58,Carroll St & 6 Ave,4019,Underhill Ave & Pacific St,4231,40.6740886,-73.9787282,40.6804836,-73.9646795,member
210557,3767DD503D70362A,electric_bike,2021-08-13 15:21:47,2021-08-13 15:34:44,5 St & 6 Ave,3874,Underhill Ave & Pacific St,4231,40.6704836,-73.98208968,40.6804836,-73.9646795,member
210572,BA1E509235B1055A,classic_bike,2021-08-30 19:59:47,2021-08-30 20:15:27,3 St & 7 Ave,3905,Underhill Ave & Pacific St,4231,40.6703837,-73.97839676,40.6804836,-73.9646795,member
210599,D7A5F7B3A37A7540,classic_bike,2021-08-07 15:29:45,2021-08-07 15:53:18,Suydam St & Broadway,4689,Underhill Ave & Pacific St,4231,40.69544,-73.93223,40.6804836,-73.9646795,member
210607,DCDE3C3CE06A8885,classic_bike,2021-08-07 16:46:11,2021-08-07 16:50:30,Fulton St & Irving Pl,4263,Underhill Ave & Pacific St,4231,40.68186,-73.959432,40.6804836,-73.9646795,member
210617,D6F2A30C2067DBF8,electric_bike,2021-08-12 12:40:35,2021-08-12 13:01:03,2 Ave & 36 St,3460,Underhill Ave & Pacific St,4231,40.65708866668485,-74.00870203971863,40.6804836,-73.9646795,member
210618,8A5E491375BDEF1E,classic_bike,2021-08-10 16:17:03,2021-08-10 16:29:45,Plaza St West & Flatbush Ave,4010,Underhill Ave & Pacific St,4231,40.6750207,-73.97111473,40.6804836,-73.9646795,casual
210626,DFD6121D8F039C29,electric_bike,2021-08-05 13:41:57,2021-08-05 13:53:17,14 St & 7 Ave,3731,Underhill Ave & Pacific St,4231,40.663779,-73.98396846,40.6804836,-73.9646795,member
210636,B7F1B68718934DEC,classic_bike,2021-08-08 15:30:05,2021-08-08 15:51:09,Metropolitan Ave & Meeker Ave,5300,Underhill Ave & Pacific St,4231,40.71413311,-73.95234386,40.6804836,-73.9646795,casual
210656,F3AE3686919C7A61,classic_bike,2021-08-07 16:33:41,2021-08-07 18:37:13,Grand Ave & Bergen St,4190,Underhill Ave & Pacific St,4231,40.678045,-73.962408,40.6804836,-73.9646795,member
210659,8753531493A659B1,electric_bike,2021-08-09 17:51:09,2021-08-09 17:59:55,Bedford Ave & Bergen St,4066,Underhill Ave & Pacific St,4231,40.676368,-73.952918,40.6804836,-73.9646795,casual
210680,9F33EC0E7E1241D7,classic_bike,2021-08-19 18:36:22,2021-08-19 18:42:37,Bedford Ave & Bergen St,4066,Underhill Ave & Pacific St,4231,40.676368,-73.952918,40.6804836,-73.9646795,casual
210706,7909F59CB64BEA46,classic_bike,2021-08-30 08:52:06,2021-08-30 09:00:17,Willoughby Ave & Hall St,4611,Underhill Ave & Pacific St,4231,40.69196035,-73.96536851,40.6804836,-73.9646795,member
210776,25890906FA3DEBF5,classic_bike,2021-08-02 19:38:31,2021-08-02 19:45:16,Park Pl & Franklin Ave,4033,Underhill Ave & Pacific St,4231,40.6741806,-73.9564947,40.6804836,-73.9646795,member
210798,8C0BE21137F21368,classic_bike,2021-08-01 19:25:22,2021-08-01 19:33:35,Adelphi St & Myrtle Ave,4620,Underhill Ave & Pacific St,4231,40.69308257,-73.97178913,40.6804836,-73.9646795,member
210987,533D081CBAFA032E,electric_bike,2021-08-22 21:51:01,2021-08-22 21:54:31,Bedford Ave & Bergen St,4066,Underhill Ave & Pacific St,4231,40.676368,-73.952918,40.6804836,-73.9646795,casual
211038,0A945B3A07AEC8DF,classic_bike,2021-08-01 14:12:04,2021-08-01 14:24:12,Dean St & Hoyt St,4446,Underhill Ave & Pacific St,4231,40.6864442,-73.98759104,40.6804836,-73.9646795,member
211055,CC3AB7C38F3993D8,classic_bike,2021-08-27 21:51:39,2021-08-27 22:08:07,Prospect Park West & 8 St,3722,Underhill Ave & Pacific St,4231,40.66514681533792,-73.97637605667114,40.6804836,-73.9646795,casual
211072,97089E6EDC96098F,classic_bike,2021-08-26 22:23:11,2021-08-26 22:30:56,Prospect Park West & 8 St,3722,Underhill Ave & Pacific St,4231,40.66514681533792,-73.97637605667114,40.6804836,-73.9646795,member
211148,F534E123CF141942,classic_bike,2021-08-30 19:24:46,2021-08-30 19:59:59,Sands St & Jay St,4821,Underhill Ave & Pacific St,4231,40.700119,-73.9862,40.6804836,-73.9646795,member
211158,AA0656F5042D091F,electric_bike,2021-08-17 18:53:20,2021-08-17 19:20:15,Bushwick Ave & Stagg St,5140,Underhill Ave & Pacific St,4231,40.709897,-73.94008,40.6804836,-73.9646795,member
211164,EB9D45A514B785D2,classic_bike,2021-08-20 23:16:08,2021-08-20 23:29:48,Carroll St & 5 Ave,4060,Underhill Ave & Pacific St,4231,40.6751622,-73.9814832,40.6804836,-73.9646795,member
211165,839DA84981E4FA51,electric_bike,2021-08-04 12:24:55,2021-08-04 12:54:43,Graham Ave & Conselyea St,5291,Underhill Ave & Pacific St,4231,40.715143,-73.944507,40.6804836,-73.9646795,member
211202,28396440A2534408,classic_bike,2021-08-01 16:29:15,2021-08-01 16:40:05,Kingston Ave & Herkimer St,4205,Underhill Ave & Pacific St,4231,40.67890679,-73.94142771,40.6804836,-73.9646795,member
211222,574E423BD137FBEC,classic_bike,2021-08-01 06:52:28,2021-08-01 06:58:50,Cumberland St & Lafayette Ave,4428,Underhill Ave & Pacific St,4231,40.68753406,-73.97265183,40.6804836,-73.9646795,casual
211225,BB29A76A912ABBD6,classic_bike,2021-08-01 15:23:20,2021-08-01 15:53:53,Parade Pl & Crooke Ave,3376,Underhill Ave & Pacific St,4231,40.651847,-73.965248,40.6804836,-73.9646795,member
211283,A6AB4FED3D0AE4E5,classic_bike,2021-08-25 08:16:56,2021-08-25 08:31:25,Albany Ave & Fulton St,4237,Underhill Ave & Pacific St,4231,40.6800105,-73.938475,40.6804836,-73.9646795,member
211284,BD80FABE128FA766,classic_bike,2021-08-29 14:21:04,2021-08-29 14:23:58,Carlton Ave & Dean St,4199,Underhill Ave & Pacific St,4231,40.6809741,-73.9710097,40.6804836,-73.9646795,member
211296,A5F808A98679A1C1,classic_bike,2021-08-04 21:11:31,2021-08-04 21:20:27,Bergen St & Flatbush Ave,4281,Underhill Ave & Pacific St,4231,40.680944723477296,-73.97567331790923,40.6804836,-73.9646795,casual
211299,617E926B2D7229CE,classic_bike,2021-08-27 18:27:03,2021-08-27 18:35:33,St Marks Pl & 4 Ave,4249,Underhill Ave & Pacific St,4231,40.68177810928762,-73.97988975048065,40.6804836,-73.9646795,member
211307,954F6043B98F8790,classic_bike,2021-08-21 12:11:02,2021-08-21 12:27:36,Lewis Ave & Decatur St,4237,Underhill Ave & Pacific St,4231,40.6814598,-73.934903,40.6804836,-73.9646795,member
211316,D342F0AACC7048C0,classic_bike,2021-08-15 14:11:49,2021-08-15 14:29:48,Myrtle Ave & Fleet Pl,4628,Underhill Ave & Pacific St,4231,40.693534,-73.981909,40.6804836,-73.9646795,casual
211317,4BC9E3C8E7D7FC28,electric_bike,2021-08-09 19:35:42,2021-08-09 19:52:01,Myrtle Ave & Fleet Pl,4628,Underhill Ave & Pacific St,4231,40.693534,-73.981909,40.6804836,-73.9646795,casual
211346,DC0C5D5CCC72C641,classic_bike,2021-08-07 14:24:58,2021-08-07 14:31:00,Lafayette Ave & St James Pl,4494,Underhill Ave & Pacific St,4231,40.68851534,-73.9647628,40.6804836,-73.9646795,member
211349,5D7A379371D2BE5C,classic_bike,2021-08-26 14:33:09,2021-08-26 14:53:58,Columbia St & Degraw St,4422,Underhill Ave & Pacific St,4231,40.6859296,-74.00242364,40.6804836,-73.9646795,member
211354,48D22384E8AA8620,classic_bike,2021-08-26 12:16:58,2021-08-26 12:24:40,Franklin Ave & St Marks Ave,4107,Underhill Ave & Pacific St,4231,40.6758324,-73.9561677,40.6804836,-73.9646795,casual
211368,12CFE483AA36CB5D,classic_bike,2021-08-08 10:22:32,2021-08-08 10:34:11,Lawrence St & Willoughby St,4596,Underhill Ave & Pacific St,4231,40.69236178,-73.98631746,40.6804836,-73.9646795,casual
211379,00771882DCF0D511,classic_bike,2021-08-25 17:00:36,2021-08-25 17:07:02,Eastern Pkwy & Franklin Ave,3919,Underhill Ave & Pacific St,4231,40.6707767,-73.9576801,40.6804836,-73.9646795,member
211388,DCF35C9AB22511E8,classic_bike,2021-08-19 08:20:08,2021-08-19 08:26:26,Lafayette Ave & St James Pl,4494,Underhill Ave & Pacific St,4231,40.68851534,-73.9647628,40.6804836,-73.9646795,member
211478,151BEEC5CAAD4B0D,classic_bike,2021-08-28 15:58:03,2021-08-28 16:02:58,Dean St & Franklin Ave,4107,Underhill Ave & Pacific St,4231,40.67759206937376,-73.955637216568,40.6804836,-73.9646795,casual
211499,F4CEE0616A5E83BD,electric_bike,2021-08-10 15:04:08,2021-08-10 15:13:55,Douglass St & 4 Ave,4175,Underhill Ave & Pacific St,4231,40.6792788,-73.98154004,40.6804836,-73.9646795,member
211513,98C19D0B26D12187,classic_bike,2021-08-17 13:14:52,2021-08-17 13:33:07,14 St & 5 Ave,3771,Underhill Ave & Pacific St,4231,40.666287,-73.98895053,40.6804836,-73.9646795,member
211519,95AB5A7FBDFEA5C1,classic_bike,2021-08-27 20:24:13,2021-08-27 20:31:32,Lefferts Pl & Franklin Ave,4222,Underhill Ave & Pacific St,4231,40.680342423,-73.9557689392,40.6804836,-73.9646795,member
211531,26AAD97377690098,classic_bike,2021-08-11 13:48:34,2021-08-11 14:10:15,Sterling St & Bedford Ave,3665,Underhill Ave & Pacific St,4231,40.6627059,-73.9569115,40.6804836,-73.9646795,member
211533,0F4B3B0339665F3E,classic_bike,2021-08-03 09:06:17,2021-08-03 09:20:53,Sterling St & Bedford Ave,3665,Underhill Ave & Pacific St,4231,40.6627059,-73.9569115,40.6804836,-73.9646795,member
211540,CC9DDD45D516CBA5,classic_bike,2021-08-31 18:15:43,2021-08-31 18:29:48,Front St & Jay St,4895,Underhill Ave & Pacific St,4231,40.702461,-73.986842,40.6804836,-73.9646795,member
211553,C92FB9AE543EDAA8,electric_bike,2021-08-15 20:15:59,2021-08-15 20:22:43,Bond St & Bergen St,4404,Underhill Ave & Pacific St,4231,40.6849668,-73.98620772,40.6804836,-73.9646795,member
211561,605362B8396532A6,classic_bike,2021-08-30 14:07:36,2021-08-30 14:19:27,Carroll St & 6 Ave,4019,Underhill Ave & Pacific St,4231,40.6740886,-73.9787282,40.6804836,-73.9646795,casual
211594,4CD2F56A302F6401,classic_bike,2021-08-13 18:29:06,2021-08-13 18:48:02,Bushwick Ave & Dekalb Ave,4680,Underhill Ave & Pacific St,4231,40.69502,-73.92825,40.6804836,-73.9646795,member
211615,9DD0BDBAA954E22B,classic_bike,2021-08-05 19:13:35,2021-08-05 19:21:55,President St & 4 Ave,4101,Underhill Ave & Pacific St,4231,40.676757,-73.983262,40.6804836,-73.9646795,member
211633,9269F83056A937B5,electric_bike,2021-08-28 05:39:21,2021-08-28 05:58:15,Bushwick Ave & Dekalb Ave,4680,Underhill Ave & Pacific St,4231,40.69502,-73.92825,40.6804836,-73.9646795,casual
211634,1D5BF997124AFB79,electric_bike,2021-08-27 16:35:35,2021-08-27 16:52:29,Bushwick Ave & Dekalb Ave,4680,Underhill Ave & Pacific St,4231,40.69502,-73.92825,40.6804836,-73.9646795,casual
211663,1A7A164DDC01386C,electric_bike,2021-08-25 20:09:21,2021-08-25 20:56:18,Underhill Ave & Pacific St,4231,Underhill Ave & Pacific St,4231,40.6804836,-73.9646795,40.6804836,-73.9646795,casual
211678,92D19DC2A394B39E,classic_bike,2021-08-20 14:25:13,2021-08-20 14:36:18,Underhill Ave & Pacific St,4231,Underhill Ave & Pacific St,4231,40.6804836,-73.9646795,40.6804836,-73.9646795,casual
211720,A99CEEA6FF89FA5A,classic_bike,2021-08-18 19:42:27,2021-08-18 20:12:30,Underhill Ave & Pacific St,4231,Underhill Ave & Pacific St,4231,40.6804836,-73.9646795,40.6804836,-73.9646795,member
211732,9FFB3B02D31C4B5E,electric_bike,2021-08-29 13:15:20,2021-08-29 14:06:09,Underhill Ave & Pacific St,4231,Underhill Ave & Pacific St,4231,40.6804836,-73.9646795,40.6804836,-73.9646795,casual
211768,3D8DACC7E325AD38,electric_bike,2021-08-20 19:00:23,2021-08-20 19:12:46,Court St & State St,4488,Underhill Ave & Pacific St,4231,40.6902375,-73.99203074,40.6804836,-73.9646795,member
211772,8E0A6AA727CB6DC2,classic_bike,2021-08-31 13:35:44,2021-08-31 13:47:03,Underhill Ave & Pacific St,4231,President St & 4 Ave,4101,40.6804836,-73.9646795,40.676757,-73.983262,member
211773,E4FC5A3E5C703A6A,electric_bike,2021-08-01 19:30:15,2021-08-01 19:45:24,Court St & State St,4488,Underhill Ave & Pacific St,4231,40.6902375,-73.99203074,40.6804836,-73.9646795,member
211821,8ECF077C8C48347D,classic_bike,2021-08-02 14:21:02,2021-08-02 14:30:23,Macon St & Nostrand Ave,4214,Underhill Ave & Pacific St,4231,40.6809833854,-73.9500479759,40.6804836,-73.9646795,casual
211822,A028A4063FD58E37,classic_bike,2021-08-02 13:14:54,2021-08-02 13:34:07,Underhill Ave & Pacific St,4231,Macon St & Nostrand Ave,4214,40.6804836,-73.9646795,40.6809833854,-73.9500479759,casual
211825,1F3754D6CE1B0E84,classic_bike,2021-08-10 18:37:56,2021-08-10 18:43:42,Clermont Ave & Lafayette Ave,4461,Underhill Ave & Pacific St,4231,40.68764484,-73.96968902,40.6804836,-73.9646795,casual
211832,6CD6022E190F00E6,classic_bike,2021-08-17 21:27:44,2021-08-17 21:27:47,Underhill Ave & Pacific St,4231,Underhill Ave & Pacific St,4231,40.6804836,-73.9646795,40.6804836,-73.9646795,casual
211841,E2BF1B0C623CFC9B,classic_bike,2021-08-26 16:10:14,2021-08-26 16:12:15,Underhill Ave & Pacific St,4231,Underhill Ave & Pacific St,4231,40.6804836,-73.9646795,40.6804836,-73.9646795,casual
211861,8B1C1B83EB711469,electric_bike,2021-08-21 18:28:32,2021-08-21 18:52:59,India St Pier,5794,Underhill Ave & Pacific St,4231,40.731734785883454,-73.9612390102593,40.6804836,-73.9646795,member
211866,B281728C0DF77961,classic_bike,2021-08-29 18:53:43,2021-08-29 19:18:43,Fulton St & Adams St,4637,Underhill Ave & Pacific St,4231,40.69241829257847,-73.98949474096298,40.6804836,-73.9646795,casual
211905,29AAE75B6B935ABB,classic_bike,2021-08-06 23:19:08,2021-08-06 23:29:23,Lexington Ave & Classon Ave,4452,Underhill Ave & Pacific St,4231,40.68676793,-73.95928168,40.6804836,-73.9646795,member
211947,A4B47A73790919FC,classic_bike,2021-08-27 19:59:51,2021-08-27 20:16:15,Monroe St & Classon Ave,4336,Underhill Ave & Pacific St,4231,40.6845683,-73.95881081,40.6804836,-73.9646795,casual
211950,4492EE56A9016C8E,classic_bike,2021-08-03 18:02:32,2021-08-03 18:36:30,Van Brunt St & Wolcott St,4095,Underhill Ave & Pacific St,4231,40.6773429,-74.01275056,40.6804836,-73.9646795,casual
211959,017EC961FBA4A357,classic_bike,2021-08-17 17:10:44,2021-08-17 17:15:41,Grand Army Plaza & Plaza St West,4010,Underhill Ave & Pacific St,4231,40.6729679,-73.97087984,40.6804836,-73.9646795,member
211976,BF8859629764646A,classic_bike,2021-08-25 16:57:00,2021-08-25 17:01:34,St Johns Pl & Washington Ave,4001,Underhill Ave & Pacific St,4231,40.6737236,-73.9631611,40.6804836,-73.9646795,member
211989,7780CB977218995F,classic_bike,2021-08-05 19:45:09,2021-08-05 20:05:49,Metropolitan Ave & Meeker Ave,5300,Underhill Ave & Pacific St,4231,40.71413311,-73.95234386,40.6804836,-73.9646795,member
212009,E17E2F7DACAF7D21,classic_bike,2021-08-30 22:34:18,2021-08-30 22:43:39,Schermerhorn St & Bond St,4479,Underhill Ave & Pacific St,4231,40.688417427540834,-73.98451656103134,40.6804836,-73.9646795,member
212040,37A07EAC9E2A65FC,classic_bike,2021-08-25 05:07:19,2021-08-25 05:09:14,Prospect Pl & Underhill Ave,4116,Underhill Ave & Pacific St,4231,40.6769694,-73.96579,40.6804836,-73.9646795,member
212055,856DA456242275D4,classic_bike,2021-08-16 19:46:44,2021-08-16 19:54:09,Lexington Ave & Classon Ave,4452,Underhill Ave & Pacific St,4231,40.68676793,-73.95928168,40.6804836,-73.9646795,casual
212060,70AF48957C4FA7F1,classic_bike,2021-08-07 11:26:57,2021-08-07 11:37:31,Prospect Pl & Underhill Ave,4116,Underhill Ave & Pacific St,4231,40.6769694,-73.96579,40.6804836,-73.9646795,member
212074,8CB19B31C9101B66,classic_bike,2021-08-19 15:50:58,2021-08-19 16:06:11,Rogers Ave & Sterling St,3696,Underhill Ave & Pacific St,4231,40.6630619,-73.9538746,40.6804836,-73.9646795,casual
212076,BFBBE2DAC4E8DE50,classic_bike,2021-08-16 14:48:07,2021-08-16 14:53:03,Prospect Pl & Underhill Ave,4116,Underhill Ave & Pacific St,4231,40.6769694,-73.96579,40.6804836,-73.9646795,casual
212078,F1B1151099455052,classic_bike,2021-08-23 21:13:48,2021-08-23 21:24:39,Schermerhorn St & Bond St,4479,Underhill Ave & Pacific St,4231,40.688417427540834,-73.98451656103134,40.6804836,-73.9646795,member
212089,C52AFB41A71F7D62,classic_bike,2021-08-06 17:27:53,2021-08-06 17:42:13,West Drive & Prospect Park West,3651,Underhill Ave & Pacific St,4231,40.6610633719006,-73.97945255041122,40.6804836,-73.9646795,casual
212093,4EBC706D65F6CC70,classic_bike,2021-08-27 19:59:43,2021-08-27 20:15:51,Monroe St & Classon Ave,4336,Underhill Ave & Pacific St,4231,40.6845683,-73.95881081,40.6804836,-73.9646795,member
212095,452B51F10C8FD6B1,classic_bike,2021-08-08 10:53:09,2021-08-08 10:58:53,Monroe St & Classon Ave,4336,Underhill Ave & Pacific St,4231,40.6845683,-73.95881081,40.6804836,-73.9646795,member
212097,3A3B4CECABA2A866,classic_bike,2021-08-27 15:00:44,2021-08-27 15:03:25,Prospect Pl & Underhill Ave,4116,Underhill Ave & Pacific St,4231,40.6769694,-73.96579,40.6804836,-73.9646795,member
212105,3D2399BDE3C03919,classic_bike,2021-08-30 08:20:02,2021-08-30 08:31:09,Schermerhorn St & Bond St,4479,Underhill Ave & Pacific St,4231,40.688417427540834,-73.98451656103134,40.6804836,-73.9646795,casual
212119,6681FE0430662025,classic_bike,2021-08-07 11:41:26,2021-08-07 11:43:05,Prospect Pl & Underhill Ave,4116,Underhill Ave & Pacific St,4231,40.6769694,-73.96579,40.6804836,-73.9646795,member
212126,1121741CCDE4162B,electric_bike,2021-08-18 09:15:50,2021-08-18 09:26:25,Albany Ave & Fulton St,4237,Underhill Ave & Pacific St,4231,40.6800105,-73.938475,40.6804836,-73.9646795,member
212150,C0204C1F847E1A83,classic_bike,2021-08-13 18:49:42,2021-08-13 18:54:27,Carlton Ave & Dean St,4199,Underhill Ave & Pacific St,4231,40.6809741,-73.9710097,40.6804836,-73.9646795,member
212151,5817A678F667B66D,classic_bike,2021-08-28 10:40:02,2021-08-28 10:44:18,Carlton Ave & Dean St,4199,Underhill Ave & Pacific St,4231,40.6809741,-73.9710097,40.6804836,-73.9646795,member
212156,E33199A696904CB8,classic_bike,2021-08-09 18:23:08,2021-08-09 18:29:05,Carlton Ave & Dean St,4199,Underhill Ave & Pacific St,4231,40.6809741,-73.9710097,40.6804836,-73.9646795,member
212185,926C6EF4BAA0414E,classic_bike,2021-08-25 08:15:48,2021-08-25 08:31:45,Albany Ave & Fulton St,4237,Underhill Ave & Pacific St,4231,40.6800105,-73.938475,40.6804836,-73.9646795,casual
212190,E03036E252DCCBD8,classic_bike,2021-08-19 20:31:54,2021-08-19 20:38:26,Bergen St & 4 Ave,4322,Underhill Ave & Pacific St,4231,40.68256425759694,-73.9798977971077,40.6804836,-73.9646795,member
212196,9A040BAB9BAB4F7F,electric_bike,2021-08-25 15:23:12,2021-08-25 15:30:23,Grand Army Plaza & Plaza St West,4010,Underhill Ave & Pacific St,4231,40.6729679,-73.97087984,40.6804836,-73.9646795,member
212198,69260A103E4CFE28,classic_bike,2021-08-01 13:12:28,2021-08-01 13:40:23,Grand Army Plaza & Plaza St West,4010,Underhill Ave & Pacific St,4231,40.6729679,-73.97087984,40.6804836,-73.9646795,member
212241,B4C9A0FDB7F2A858,classic_bike,2021-08-24 15:27:54,2021-08-24 16:08:35,14 St & 5 Ave,3771,Underhill Ave & Pacific St,4231,40.666287,-73.98895053,40.6804836,-73.9646795,member
212285,35E51F2202A6A866,electric_bike,2021-08-04 12:32:15,2021-08-04 12:39:56,Bond St & Bergen St,4404,Underhill Ave & Pacific St,4231,40.6849668,-73.98620772,40.6804836,-73.9646795,member
212292,A551BCDB463AA986,classic_bike,2021-08-27 17:00:50,2021-08-27 17:09:54,Berkeley Pl & 7 Ave,4051,Underhill Ave & Pacific St,4231,40.675146838709786,-73.97523209452629,40.6804836,-73.9646795,member
212314,F002FEAF4CBF3F63,classic_bike,2021-08-12 19:15:26,2021-08-12 19:21:52,Berkeley Pl & 7 Ave,4051,Underhill Ave & Pacific St,4231,40.675146838709786,-73.97523209452629,40.6804836,-73.9646795,member
212317,4FE81D9A85CC2D98,electric_bike,2021-08-20 17:42:51,2021-08-20 18:04:37,6 Ave & Canal St,5500,Underhill Ave & Pacific St,4231,40.72243797,-74.00566443,40.6804836,-73.9646795,member
212318,25170CC00A715271,classic_bike,2021-08-31 09:24:26,2021-08-31 09:34:35,Berkeley Pl & 7 Ave,4051,Underhill Ave & Pacific St,4231,40.675146838709786,-73.97523209452629,40.6804836,-73.9646795,member
212342,AA02AD338013740B,classic_bike,2021-08-25 15:01:53,2021-08-25 15:11:46,Berkeley Pl & 7 Ave,4051,Underhill Ave & Pacific St,4231,40.675146838709786,-73.97523209452629,40.6804836,-73.9646795,member
212421,20B46CFBEADD4603,classic_bike,2021-08-26 20:15:40,2021-08-26 20:21:44,7 Ave & Park Pl,4125,Underhill Ave & Pacific St,4231,40.6776147,-73.97324283,40.6804836,-73.9646795,member
212451,F0B3D0EBAB46A9FD,electric_bike,2021-08-06 21:48:04,2021-08-06 22:00:13,Johnson St & Gold St,4668,Underhill Ave & Pacific St,4231,40.69474881,-73.98362464,40.6804836,-73.9646795,casual
212458,26C1B9BAB7DE4713,electric_bike,2021-08-19 11:25:15,2021-08-19 11:28:43,Underhill Ave & Lincoln Pl,4042,Underhill Ave & Pacific St,4231,40.6740123,-73.9671457,40.6804836,-73.9646795,casual
212485,46096968AB84495A,classic_bike,2021-08-16 16:55:25,2021-08-16 17:58:04,1 Ave & E 44 St,6379,Underhill Ave & Pacific St,4231,40.75001986,-73.96905301,40.6804836,-73.9646795,member
212503,C56435997E64868F,electric_bike,2021-08-11 12:55:55,2021-08-11 13:07:32,10 St & 7 Ave,3762,Underhill Ave & Pacific St,4231,40.6662078,-73.98199886,40.6804836,-73.9646795,member
212506,FC6930B7C87C7CDE,classic_bike,2021-08-13 17:41:36,2021-08-13 17:57:52,10 St & 7 Ave,3762,Underhill Ave & Pacific St,4231,40.6662078,-73.98199886,40.6804836,-73.9646795,casual
212520,3D460DA10F207423,classic_bike,2021-08-05 20:43:35,2021-08-05 21:14:00,10 St & 7 Ave,3762,Underhill Ave & Pacific St,4231,40.6662078,-73.98199886,40.6804836,-73.9646795,member
212522,422DF2FCF3E5E2EC,classic_bike,2021-08-02 13:45:28,2021-08-02 13:59:45,10 St & 7 Ave,3762,Underhill Ave & Pacific St,4231,40.6662078,-73.98199886,40.6804836,-73.9646795,member
212532,7259E2B545AD7F11,classic_bike,2021-08-01 10:53:36,2021-08-01 10:58:03,Plaza St West & Flatbush Ave,4010,Underhill Ave & Pacific St,4231,40.6750207,-73.97111473,40.6804836,-73.9646795,member
212540,AFB7BC0F77E6C858,classic_bike,2021-08-05 18:59:03,2021-08-05 19:04:51,Plaza St West & Flatbush Ave,4010,Underhill Ave & Pacific St,4231,40.6750207,-73.97111473,40.6804836,-73.9646795,member
212551,3644970628CAF8F3,classic_bike,2021-08-20 20:33:46,2021-08-20 21:15:14,Clinton St & Grand St,5303,Underhill Ave & Pacific St,4231,40.71559509,-73.9870295,40.6804836,-73.9646795,casual
212561,78E2A5C6B6726E59,classic_bike,2021-08-10 14:58:46,2021-08-10 15:11:10,Smith St & 3 St,4151,Underhill Ave & Pacific St,4231,40.6787242,-73.99599099,40.6804836,-73.9646795,casual
212611,E9BA4DEE0BB81818,classic_bike,2021-08-19 18:40:21,2021-08-19 18:46:09,Cambridge Pl & Gates Ave,4377,Underhill Ave & Pacific St,4231,40.68488,-73.96304,40.6804836,-73.9646795,member
212616,4F52B0BA7A98E475,electric_bike,2021-08-08 10:43:06,2021-08-08 10:55:54,Eastern Pkwy & Franklin Ave,3919,Underhill Ave & Pacific St,4231,40.6707767,-73.9576801,40.6804836,-73.9646795,member
212633,AB51565B1FA057F6,classic_bike,2021-08-07 18:43:48,2021-08-07 18:49:13,Eastern Pkwy & Franklin Ave,3919,Underhill Ave & Pacific St,4231,40.6707767,-73.9576801,40.6804836,-73.9646795,casual
212638,0AB5C977E1CEC904,classic_bike,2021-08-02 11:27:04,2021-08-02 11:33:10,Eastern Pkwy & Franklin Ave,3919,Underhill Ave & Pacific St,4231,40.6707767,-73.9576801,40.6804836,-73.9646795,member
212652,2235A970D34BED4C,electric_bike,2021-08-24 14:09:39,2021-08-24 14:26:36,Clinton St & Tillary St,4748,Underhill Ave & Pacific St,4231,40.69623297129316,-73.99142056703568,40.6804836,-73.9646795,casual
212659,1228ECE70E47C8AD,classic_bike,2021-08-18 19:53:06,2021-08-18 20:07:49,Cambridge Pl & Gates Ave,4377,Underhill Ave & Pacific St,4231,40.68488,-73.96304,40.6804836,-73.9646795,casual
212662,11D3AD338B6DFFB3,electric_bike,2021-08-28 20:04:01,2021-08-28 20:12:41,Eastern Pkwy & Franklin Ave,3919,Underhill Ave & Pacific St,4231,40.6707767,-73.9576801,40.6804836,-73.9646795,member
212680,7C71411A1CA0946A,classic_bike,2021-08-06 23:07:44,2021-08-06 23:17:00,Cambridge Pl & Gates Ave,4377,Underhill Ave & Pacific St,4231,40.68488,-73.96304,40.6804836,-73.9646795,member
212716,816C248D4DBBDD7B,electric_bike,2021-08-29 14:22:06,2021-08-29 14:25:09,Cambridge Pl & Gates Ave,4377,Underhill Ave & Pacific St,4231,40.68488,-73.96304,40.6804836,-73.9646795,member
212724,313D30B77C1F6A73,classic_bike,2021-08-31 18:50:50,2021-08-31 19:10:59,S 4 St & Wythe Ave,5204,Underhill Ave & Pacific St,4231,40.71285887,-73.96590294,40.6804836,-73.9646795,member
212749,328032073E0CE630,classic_bike,2021-08-02 12:08:44,2021-08-02 12:21:36,Monroe St & Tompkins Ave,4434,Underhill Ave & Pacific St,4231,40.686203,-73.944694,40.6804836,-73.9646795,member
212780,F418CE76C2D5D771,classic_bike,2021-08-08 00:45:42,2021-08-08 00:53:32,Adelphi St & Myrtle Ave,4620,Underhill Ave & Pacific St,4231,40.69308257,-73.97178913,40.6804836,-73.9646795,member
212797,29662E83DC916EE1,electric_bike,2021-08-28 20:49:33,2021-08-28 21:18:26,Carmine St & 6 Ave,5763,Underhill Ave & Pacific St,4231,40.73038599,-74.00214988,40.6804836,-73.9646795,member
212801,15B361EEF9675871,electric_bike,2021-08-09 19:30:09,2021-08-09 19:48:36,Sands St Gate,4812,Underhill Ave & Pacific St,4231,40.699569,-73.979827,40.6804836,-73.9646795,member
212810,B4A354B802EE0AAB,electric_bike,2021-08-11 20:06:46,2021-08-11 20:13:50,Clinton Ave & Myrtle Ave,4651,Underhill Ave & Pacific St,4231,40.693261,-73.968896,40.6804836,-73.9646795,member
212819,CED4A5CFB8D076E4,electric_bike,2021-08-27 19:12:48,2021-08-27 19:21:45,Emerson Pl & Myrtle Ave,4683,Underhill Ave & Pacific St,4231,40.69363137,-73.96223558,40.6804836,-73.9646795,member
212843,339322C83420494B,classic_bike,2021-08-29 13:41:24,2021-08-29 13:57:03,Schermerhorn St & Court St,4565,Underhill Ave & Pacific St,4231,40.69102925677968,-73.99183362722397,40.6804836,-73.9646795,member
212845,F90E3B3693D87F71,classic_bike,2021-08-19 13:25:10,2021-08-19 13:57:48,Schermerhorn St & Court St,4565,Underhill Ave & Pacific St,4231,40.69102925677968,-73.99183362722397,40.6804836,-73.9646795,member
212892,7938010E396B9C06,classic_bike,2021-08-06 14:49:14,2021-08-06 15:04:35,Front St & Washington St,4936,Underhill Ave & Pacific St,4231,40.70255088,-73.98940236,40.6804836,-73.9646795,casual
212900,EBA1278BB34C954C,classic_bike,2021-08-25 13:09:27,2021-08-25 13:23:46,6 Ave & 12 St,3803,Underhill Ave & Pacific St,4231,40.6663181,-73.9854617,40.6804836,-73.9646795,member
212911,25ACACC5A1CFA61D,classic_bike,2021-08-13 01:51:00,2021-08-13 02:01:41,Eastern Pkwy & Franklin Ave,3919,Underhill Ave & Pacific St,4231,40.6707767,-73.9576801,40.6804836,-73.9646795,casual
212980,8B979A5CA44C5A9B,classic_bike,2021-08-01 13:51:35,2021-08-01 14:05:42,4 Ave & 3 St,4028,Underhill Ave & Pacific St,4231,40.673746,-73.985649,40.6804836,-73.9646795,casual
213045,9F557101C26B6858,classic_bike,2021-08-25 12:42:15,2021-08-25 12:45:29,Underhill Ave & Lincoln Pl,4042,Underhill Ave & Pacific St,4231,40.6740123,-73.9671457,40.6804836,-73.9646795,member
213058,CC29000D271306F1,classic_bike,2021-08-30 19:34:01,2021-08-30 20:02:18,Milton St & Franklin St,5752,Underhill Ave & Pacific St,4231,40.72906,-73.95779,40.6804836,-73.9646795,casual
213080,9C47996934802F78,electric_bike,2021-08-31 16:37:46,2021-08-31 17:03:40,Front St & Washington St,4936,Underhill Ave & Pacific St,4231,40.70255088,-73.98940236,40.6804836,-73.9646795,casual
213148,D7A57048FFCC3C41,electric_bike,2021-08-13 22:15:38,2021-08-13 22:41:08,Forsyth St & Canal St,5270,Underhill Ave & Pacific St,4231,40.7158155,-73.99422366,40.6804836,-73.9646795,member
213162,925BE32F88D55D70,classic_bike,2021-08-03 16:58:52,2021-08-03 17:11:46,Bond St & Fulton St,4479,Underhill Ave & Pacific St,4231,40.68962188790333,-73.98304268717766,40.6804836,-73.9646795,member
213260,8939B2E7DEFBA2B8,classic_bike,2021-08-11 10:57:27,2021-08-11 11:03:56,Union St & Bedford Ave,3879,Underhill Ave & Pacific St,4231,40.6691783,-73.9554162,40.6804836,-73.9646795,casual
213265,7457A1B7F8F73DA4,electric_bike,2021-08-20 16:52:35,2021-08-20 17:07:39,Forsyth St & Canal St,5270,Underhill Ave & Pacific St,4231,40.7158155,-73.99422366,40.6804836,-73.9646795,casual
213270,A1803218A7EBFBF0,classic_bike,2021-08-02 21:59:23,2021-08-02 22:23:33,Kosciuszko St & Tompkins Ave,4553,Underhill Ave & Pacific St,4231,40.69128258,-73.9452416,40.6804836,-73.9646795,casual
213286,36885974FCA52707,electric_bike,2021-08-28 13:47:59,2021-08-28 14:23:23,8 Ave & W 38 St,6526,Underhill Ave & Pacific St,4231,40.75461,-73.99177,40.6804836,-73.9646795,member
214184,1EB27EB10A6FC8C1,classic_bike,2021-08-07 03:56:55,2021-08-07 04:18:08,Henry St & Atlantic Ave,4531,Underhill Ave & Pacific St,4231,40.69089272,-73.99612349,40.6804836,-73.9646795,casual
214306,957C10E1B86AE541,electric_bike,2021-08-11 16:04:35,2021-08-11 16:32:35,Lispenard St & Broadway,5391,Underhill Ave & Pacific St,4231,40.71939226,-74.00247214,40.6804836,-73.9646795,member
214532,A89F505390AEA06A,classic_bike,2021-08-07 16:12:50,2021-08-07 16:32:46,17 St & 5 Ave,3699,Underhill Ave & Pacific St,4231,40.663493,-73.991007,40.6804836,-73.9646795,casual
217645,B0D3DB0DE0305F49,classic_bike,2021-08-04 13:00:29,2021-08-04 13:13:20,Underhill Ave & Pacific St,4231,DeKalb Ave & Hudson Ave,4513,40.6804836,-73.9646795,40.689888,-73.981013,casual
217646,B1C71CDA0CC1B427,electric_bike,2021-08-28 12:03:28,2021-08-28 12:36:06,Underhill Ave & Pacific St,4231,Driggs Ave & N Henry St,5542,40.6804836,-73.9646795,40.72325,-73.94308,casual
217657,A9A140D52DD3C460,electric_bike,2021-08-08 08:54:36,2021-08-08 09:03:26,Underhill Ave & Pacific St,4231,DeKalb Ave & Hudson Ave,4513,40.6804836,-73.9646795,40.689888,-73.981013,casual
220147,38C8D7443E2A8B2B,classic_bike,2021-08-16 12:48:33,2021-08-16 12:57:10,Underhill Ave & Pacific St,4231,DeKalb Ave & Hudson Ave,4513,40.6804836,-73.9646795,40.689888,-73.981013,member
242173,4D68F0ECA6431BD3,classic_bike,2021-08-11 18:32:52,2021-08-11 19:01:09,Underhill Ave & Pacific St,4231,Henry St & Atlantic Ave,4531,40.6804836,-73.9646795,40.69089272,-73.99612349,member
276847,F4997AB0F882D20F,classic_bike,2021-08-01 15:42:24,2021-08-01 15:52:34,Underhill Ave & Pacific St,4231,DeKalb Ave & Franklin Ave,4528,40.6804836,-73.9646795,40.69064807082943,-73.95746178925037,casual
287434,C52176693DA31F1E,classic_bike,2021-08-28 09:39:01,2021-08-28 09:44:03,Underhill Ave & Pacific St,4231,Bedford Ave & Bergen St,4066,40.6804836,-73.9646795,40.676368,-73.952918,member
287440,B2CC5D681A98A3DB,classic_bike,2021-08-09 22:01:21,2021-08-09 22:13:47,Underhill Ave & Pacific St,4231,Tompkins Ave & Hopkins St,4850,40.6804836,-73.9646795,40.69957608,-73.94708417,member
289537,34B448DE01F0AFB7,classic_bike,2021-08-19 22:38:36,2021-08-19 22:46:33,Underhill Ave & Pacific St,4231,Bedford Ave & Bergen St,4066,40.6804836,-73.9646795,40.676368,-73.952918,member
295554,38CE9D953362DA45,docked_bike,2021-08-06 19:49:13,2021-08-06 20:14:36,Underhill Ave & Pacific St,4231,Front St & Washington St,4936,40.680484,-73.96468,40.702551,-73.989402,casual
295560,B4A0617E79E81417,classic_bike,2021-08-01 10:32:55,2021-08-01 10:55:32,Underhill Ave & Pacific St,4231,Front St & Washington St,4936,40.6804836,-73.9646795,40.70255088,-73.98940236,casual
295583,B0D832C0B7E2F3C9,electric_bike,2021-08-28 19:24:44,2021-08-28 19:53:31,Underhill Ave & Pacific St,4231,Jefferson St & Cypress Ave,5082,40.6804836,-73.9646795,40.70907,-73.92157,casual
317831,B0D5EEA56A933576,classic_bike,2021-08-25 19:57:43,2021-08-25 20:01:13,Underhill Ave & Pacific St,4231,Underhill Ave & Lincoln Pl,4042,40.6804836,-73.9646795,40.6740123,-73.9671457,member
317833,C64529AB9520F0E4,classic_bike,2021-08-20 17:36:54,2021-08-20 17:41:05,Underhill Ave & Pacific St,4231,Underhill Ave & Lincoln Pl,4042,40.6804836,-73.9646795,40.6740123,-73.9671457,member
317834,9EC3214D7817C0F2,electric_bike,2021-08-07 11:03:46,2021-08-07 11:06:32,Underhill Ave & Pacific St,4231,Underhill Ave & Lincoln Pl,4042,40.6804836,-73.9646795,40.6740123,-73.9671457,member
317836,16B6F4F8A0DE66BD,classic_bike,2021-08-29 23:49:21,2021-08-30 00:04:00,Underhill Ave & Pacific St,4231,Jefferson Ave & Evergreen Ave,4517,40.6804836,-73.9646795,40.68989,-73.91458,member
317837,0497262E53A54EEB,classic_bike,2021-08-10 17:17:41,2021-08-10 17:23:04,Underhill Ave & Pacific St,4231,Underhill Ave & Lincoln Pl,4042,40.6804836,-73.9646795,40.6740123,-73.9671457,member
317839,10C7863BF1185459,classic_bike,2021-08-10 22:33:39,2021-08-10 22:37:28,Underhill Ave & Pacific St,4231,Underhill Ave & Lincoln Pl,4042,40.6804836,-73.9646795,40.6740123,-73.9671457,member
317850,30D752C4CCA1FE6D,classic_bike,2021-08-25 06:27:58,2021-08-25 06:32:23,Underhill Ave & Pacific St,4231,Underhill Ave & Lincoln Pl,4042,40.6804836,-73.9646795,40.6740123,-73.9671457,member
317871,F4CFAD4F39B6A4CC,electric_bike,2021-08-28 09:56:12,2021-08-28 10:07:27,Underhill Ave & Pacific St,4231,State St & Smith St,4565,40.6804836,-73.9646795,40.68926942,-73.98912867,member
317884,A7CAB174BB236200,electric_bike,2021-08-11 18:19:25,2021-08-11 18:23:11,Underhill Ave & Pacific St,4231,Underhill Ave & Lincoln Pl,4042,40.6804836,-73.9646795,40.6740123,-73.9671457,member
317896,04ECAD49815294BF,classic_bike,2021-08-15 16:19:29,2021-08-15 16:44:15,Underhill Ave & Pacific St,4231,Underhill Ave & Lincoln Pl,4042,40.6804836,-73.9646795,40.6740123,-73.9671457,member
317911,A0CA28192E5AEF33,classic_bike,2021-08-26 16:12:24,2021-08-26 16:17:52,Underhill Ave & Pacific St,4231,Underhill Ave & Lincoln Pl,4042,40.6804836,-73.9646795,40.6740123,-73.9671457,casual
317912,DCFA944068039971,classic_bike,2021-08-26 16:12:25,2021-08-26 16:17:50,Underhill Ave & Pacific St,4231,Underhill Ave & Lincoln Pl,4042,40.6804836,-73.9646795,40.6740123,-73.9671457,casual
317914,46F4E3639815DD5C,classic_bike,2021-08-18 18:52:01,2021-08-18 18:55:46,Underhill Ave & Pacific St,4231,Underhill Ave & Lincoln Pl,4042,40.6804836,-73.9646795,40.6740123,-73.9671457,casual
317916,52D6489D4410C1EF,classic_bike,2021-08-19 18:39:50,2021-08-19 18:45:10,Underhill Ave & Pacific St,4231,Underhill Ave & Lincoln Pl,4042,40.6804836,-73.9646795,40.6740123,-73.9671457,casual
317964,5361CBA998A260BA,electric_bike,2021-08-20 19:15:11,2021-08-20 19:17:49,Underhill Ave & Pacific St,4231,Underhill Ave & Lincoln Pl,4042,40.6804836,-73.9646795,40.6740123,-73.9671457,member
317971,A8831268D97C4314,electric_bike,2021-08-08 02:59:49,2021-08-08 03:06:35,Underhill Ave & Pacific St,4231,Sullivan Pl & Bedford Ave,3736,40.6804836,-73.9646795,40.6642406,-73.9574686,member
318121,C6DC6FFB96D06DE2,electric_bike,2021-08-31 20:44:13,2021-08-31 20:47:58,Underhill Ave & Pacific St,4231,Underhill Ave & Lincoln Pl,4042,40.6804836,-73.9646795,40.6740123,-73.9671457,member
320462,E5E21D46316CCC10,classic_bike,2021-08-03 06:19:52,2021-08-03 06:24:25,Underhill Ave & Pacific St,4231,Underhill Ave & Lincoln Pl,4042,40.6804836,-73.9646795,40.6740123,-73.9671457,member
320471,CA44AB884CC74B67,electric_bike,2021-08-06 08:16:08,2021-08-06 08:26:03,Underhill Ave & Pacific St,4231,State St & Smith St,4565,40.6804836,-73.9646795,40.68926942,-73.98912867,casual
320472,DDAAFB38DE8FD0DA,classic_bike,2021-08-17 17:31:32,2021-08-17 17:37:47,Underhill Ave & Pacific St,4231,Underhill Ave & Lincoln Pl,4042,40.6804836,-73.9646795,40.6740123,-73.9671457,casual
320586,5EA689B3D90CFBD4,classic_bike,2021-08-10 16:29:13,2021-08-10 16:41:42,Underhill Ave & Pacific St,4231,Underhill Ave & Lincoln Pl,4042,40.6804836,-73.9646795,40.6740123,-73.9671457,casual
332738,B6EEDAD5F634EA68,classic_bike,2021-08-29 13:07:16,2021-08-29 13:30:53,Underhill Ave & Pacific St,4231,Central Ave & Starr Street,4792,40.6804836,-73.9646795,40.700003,-73.92834,casual
332742,1494CC6BEA9DCEA1,electric_bike,2021-08-10 15:20:26,2021-08-10 15:30:14,Underhill Ave & Pacific St,4231,Flushing Ave & Vanderbilt Ave,4762,40.6804836,-73.9646795,40.69795031569544,-73.97077560424805,member
332761,37A8F5BC08757AA9,classic_bike,2021-08-01 00:12:49,2021-08-01 00:27:38,Underhill Ave & Pacific St,4231,Flushing Ave & Vanderbilt Ave,4762,40.6804836,-73.9646795,40.69795031569544,-73.97077560424805,member
332774,6BD19566BA8D1DF5,classic_bike,2021-08-27 23:28:37,2021-08-27 23:41:49,Underhill Ave & Pacific St,4231,Flushing Ave & Vanderbilt Ave,4762,40.6804836,-73.9646795,40.69795031569544,-73.97077560424805,member
332779,423A87C79FF96D82,classic_bike,2021-08-08 13:12:41,2021-08-08 13:23:01,Underhill Ave & Pacific St,4231,Flushing Ave & Vanderbilt Ave,4762,40.6804836,-73.9646795,40.69795031569544,-73.97077560424805,member
334140,748881C4D0634D69,electric_bike,2021-08-20 18:18:26,2021-08-20 19:22:26,Underhill Ave & Pacific St,4231,Flushing Ave & Vanderbilt Ave,4762,40.6804836,-73.9646795,40.69795031569544,-73.97077560424805,member
334208,BF4CC2B61841D6E4,classic_bike,2021-08-02 06:09:00,2021-08-02 06:18:10,Underhill Ave & Pacific St,4231,Flushing Ave & Vanderbilt Ave,4762,40.6804836,-73.9646795,40.69795031569544,-73.97077560424805,member
336794,8B465DA1F0EB13DE,classic_bike,2021-08-03 15:41:45,2021-08-03 16:10:42,Underhill Ave & Pacific St,4231,Dwight St & Van Dyke St,3981,40.6804836,-73.9646795,40.67363551341504,-74.01195555925369,member
354973,3499F428C1282FD3,classic_bike,2021-08-07 08:29:43,2021-08-07 08:32:54,Underhill Ave & Pacific St,4231,Pacific St & Classon Ave,4148,40.6804836,-73.9646795,40.6791944,-73.9587903,member
355709,1A597D5D9A2B72DB,electric_bike,2021-08-03 21:22:56,2021-08-03 21:44:40,Underhill Ave & Pacific St,4231,S 4 St & Wythe Ave,5204,40.6804836,-73.9646795,40.71285887,-73.96590294,casual
357723,53D01924BEA6F5AD,electric_bike,2021-08-15 00:14:59,2021-08-15 00:39:44,Underhill Ave & Pacific St,4231,Monroe St & Tompkins Ave,4434,40.6804836,-73.9646795,40.686203,-73.944694,casual
357729,DFC7A273A7563CCC,classic_bike,2021-08-04 17:34:05,2021-08-04 17:53:04,Underhill Ave & Pacific St,4231,Monroe St & Tompkins Ave,4434,40.6804836,-73.9646795,40.686203,-73.944694,casual
357737,F20526779145CA37,classic_bike,2021-08-26 09:24:48,2021-08-26 09:27:47,Underhill Ave & Pacific St,4231,Pacific St & Classon Ave,4148,40.6804836,-73.9646795,40.6791944,-73.9587903,member
362272,2A8E4925EFA35877,electric_bike,2021-08-18 10:22:49,2021-08-18 10:29:50,Underhill Ave & Pacific St,4231,Sterling Pl & Bedford Ave,3993,40.6804836,-73.9646795,40.672695,-73.954131,casual
362626,A3256F4765CD6B16,electric_bike,2021-08-31 10:47:42,2021-08-31 11:25:45,Underhill Ave & Pacific St,4231,MacDougal St & Washington Sq,5797,40.6804836,-73.9646795,40.73226398,-73.99852205,member
364188,875CA1B61A2A95EE,classic_bike,2021-08-02 09:20:55,2021-08-02 09:29:48,Underhill Ave & Pacific St,4231,Sterling Pl & Bedford Ave,3993,40.6804836,-73.9646795,40.672695,-73.954131,member
364204,D706C3F68CDEBDEF,classic_bike,2021-08-27 12:45:06,2021-08-27 12:54:43,Underhill Ave & Pacific St,4231,Sterling Pl & Bedford Ave,3993,40.6804836,-73.9646795,40.672695,-73.954131,casual
376466,DFB7ADF62F123B66,classic_bike,2021-08-24 08:46:51,2021-08-24 09:10:28,Underhill Ave & Pacific St,4231,36 St & 3 Ave,3460,40.6804836,-73.9646795,40.655716,-74.006664,member
378137,D970C4A1B3D7CE63,classic_bike,2021-08-09 10:03:33,2021-08-09 10:14:48,Underhill Ave & Pacific St,4231,Prospect Park West & 8 St,3722,40.6804836,-73.9646795,40.66514681533792,-73.97637605667114,member
383989,0EBE674E46845433,classic_bike,2021-08-01 00:44:40,2021-08-01 00:56:20,Underhill Ave & Pacific St,4231,West Drive & Prospect Park West,3651,40.6804836,-73.9646795,40.6610633719006,-73.97945255041122,member
392713,5CD7743499E7732E,classic_bike,2021-08-23 18:49:14,2021-08-23 18:59:36,Underhill Ave & Pacific St,4231,Halsey St & Tompkins Ave,4319,40.6804836,-73.9646795,40.6823687,-73.944118,member
392725,6E8D0B6848B93194,classic_bike,2021-08-02 18:24:07,2021-08-02 18:34:24,Underhill Ave & Pacific St,4231,West Drive & Prospect Park West,3651,40.6804836,-73.9646795,40.6610633719006,-73.97945255041122,member
392730,8C2D222A641AE207,classic_bike,2021-08-07 17:07:35,2021-08-07 17:33:41,Underhill Ave & Pacific St,4231,Van Brunt St & Van Dyke St,4095,40.6804836,-73.9646795,40.6758329439129,-74.01472628116608,member
392811,F8FDCDAAE89C90EF,electric_bike,2021-08-23 22:22:48,2021-08-23 22:32:59,Underhill Ave & Pacific St,4231,West Drive & Prospect Park West,3651,40.6804836,-73.9646795,40.6610633719006,-73.97945255041122,casual
392819,C068106129E2B08C,classic_bike,2021-08-19 15:21:20,2021-08-19 15:36:46,Underhill Ave & Pacific St,4231,West Drive & Prospect Park West,3651,40.6804836,-73.9646795,40.6610633719006,-73.97945255041122,casual
392821,07C3BCA0EE5C3922,electric_bike,2021-08-14 17:53:34,2021-08-14 18:01:20,Underhill Ave & Pacific St,4231,Halsey St & Tompkins Ave,4319,40.6804836,-73.9646795,40.6823687,-73.944118,casual
413251,5BD4A9E586669DFC,classic_bike,2021-08-28 09:58:01,2021-08-28 10:05:05,Underhill Ave & Pacific St,4231,Lexington Ave & Classon Ave,4452,40.6804836,-73.9646795,40.68676793,-73.95928168,casual
413310,39FE027187E0281F,classic_bike,2021-08-26 22:57:17,2021-08-26 23:20:26,Underhill Ave & Pacific St,4231,Banker St & Meserole Ave,5633,40.6804836,-73.9646795,40.72606,-73.95621,member
430741,FF7CEBDE5A11C6ED,classic_bike,2021-08-18 19:01:21,2021-08-18 19:36:04,Underhill Ave & Pacific St,4231,Sands St & Jay St,4821,40.6804836,-73.9646795,40.700119,-73.9862,member
438126,9A9C1A537C604C51,classic_bike,2021-08-24 18:08:09,2021-08-24 18:17:45,Underhill Ave & Pacific St,4231,Monroe St & Bedford Ave,4368,40.6804836,-73.9646795,40.6851443,-73.95380904,casual
445460,5912A7B745FFDDE4,docked_bike,2021-08-17 20:17:38,2021-08-17 20:48:03,Underhill Ave & Pacific St,4231,N 6 St & Bedford Ave,5379,40.680484,-73.96468,40.717452,-73.958509,casual
445465,445F88BE82FB7D5A,classic_bike,2021-08-04 09:41:14,2021-08-04 09:50:24,Underhill Ave & Pacific St,4231,DeKalb Ave & S Portland Ave,4546,40.6804836,-73.9646795,40.68981035,-73.97493121,casual
445472,EB2BA1785B9B8170,classic_bike,2021-08-14 16:58:49,2021-08-14 17:11:29,Underhill Ave & Pacific St,4231,DeKalb Ave & S Portland Ave,4546,40.6804836,-73.9646795,40.68981035,-73.97493121,casual
445473,D370FE8D90C38B6A,electric_bike,2021-08-02 00:14:00,2021-08-02 00:24:02,Underhill Ave & Pacific St,4231,Lewis Ave & Madison St,4425,40.6804836,-73.9646795,40.686312,-73.935775,casual
446498,C026D3B4AFBF102A,classic_bike,2021-08-07 17:34:13,2021-08-07 17:49:31,Underhill Ave & Pacific St,4231,S Portland Ave & Hanson Pl,4354,40.6804836,-73.9646795,40.68539567,-73.97431458,member
447000,E162693FC78C5F27,classic_bike,2021-08-02 07:53:05,2021-08-02 07:59:51,Underhill Ave & Pacific St,4231,Atlantic Ave & Fort Greene Pl,4354,40.6804836,-73.9646795,40.68382604,-73.97632328,member
447338,801628C5BCB04930,classic_bike,2021-08-03 09:32:15,2021-08-03 09:37:39,Underhill Ave & Pacific St,4231,Atlantic Ave & Fort Greene Pl,4354,40.6804836,-73.9646795,40.68382604,-73.97632328,member
447339,5842A8E6EBB7613A,classic_bike,2021-08-26 08:35:06,2021-08-26 08:39:04,Underhill Ave & Pacific St,4231,Atlantic Ave & Fort Greene Pl,4354,40.6804836,-73.9646795,40.68382604,-73.97632328,member
447340,F866396A5D016797,electric_bike,2021-08-04 14:46:33,2021-08-04 14:53:59,Underhill Ave & Pacific St,4231,Atlantic Ave & Fort Greene Pl,4354,40.6804836,-73.9646795,40.68382604,-73.97632328,member
457067,AA15E151D156C48C,classic_bike,2021-08-03 08:41:14,2021-08-03 09:00:56,Underhill Ave & Pacific St,4231,3 St & Prospect Park West,3865,40.6804836,-73.9646795,40.668132,-73.97363831,member
472968,8FA46E1B04F572DF,classic_bike,2021-08-08 23:32:08,2021-08-08 23:37:47,Underhill Ave & Pacific St,4231,Washington Ave & Park Ave,4724,40.6804836,-73.9646795,40.69610226,-73.96751037,member
475797,2E8045E256A4C453,classic_bike,2021-08-18 07:56:26,2021-08-18 08:04:54,Underhill Ave & Pacific St,4231,Washington Ave & Park Ave,4724,40.6804836,-73.9646795,40.69610226,-73.96751037,member
481697,C800A35A2DEF250A,classic_bike,2021-08-14 16:41:09,2021-08-14 16:48:49,Underhill Ave & Pacific St,4231,Washington Ave & Park Ave,4724,40.6804836,-73.9646795,40.69610226,-73.96751037,member
484463,E364D7F70A19E727,electric_bike,2021-08-25 20:23:47,2021-08-25 20:32:55,Underhill Ave & Pacific St,4231,Washington Ave & Park Ave,4724,40.6804836,-73.9646795,40.69610226,-73.96751037,member
484465,D28F10DDCFB82B1A,classic_bike,2021-08-23 14:38:22,2021-08-23 14:45:36,Underhill Ave & Pacific St,4231,Washington Ave & Park Ave,4724,40.6804836,-73.9646795,40.69610226,-73.96751037,member
485966,BC511560067F3306,electric_bike,2021-08-11 13:11:24,2021-08-11 13:28:52,Underhill Ave & Pacific St,4231,Grand St & Havemeyer St,5267,40.6804836,-73.9646795,40.71286844,-73.95698119,member
490542,C50081DB16331BCD,classic_bike,2021-08-29 01:56:42,2021-08-29 02:16:34,Underhill Ave & Pacific St,4231,Grand St & Havemeyer St,5267,40.6804836,-73.9646795,40.71286844,-73.95698119,casual
492724,7DB42C0456D0A7AC,electric_bike,2021-08-19 12:00:55,2021-08-19 12:18:01,Underhill Ave & Pacific St,4231,Grand St & Havemeyer St,5267,40.6804836,-73.9646795,40.71286844,-73.95698119,member
495559,7A24ADF2DCB05C3C,classic_bike,2021-08-25 17:49:03,2021-08-25 18:14:35,Underhill Ave & Pacific St,4231,Clinton St & Union St,4266,40.6804836,-73.9646795,40.6831164,-73.99785267,casual
495565,82D3107750DA6CC1,electric_bike,2021-08-27 19:35:27,2021-08-27 19:50:50,Underhill Ave & Pacific St,4231,Clinton St & Union St,4266,40.6804836,-73.9646795,40.6831164,-73.99785267,casual
509163,714568E235F252F4,electric_bike,2021-08-14 00:36:22,2021-08-14 00:51:21,Underhill Ave & Pacific St,4231,Putnam Ave & Throop Ave,4392,40.6804836,-73.9646795,40.6851532,-73.94111,member
510521,6C3A90A89EBA8D64,classic_bike,2021-08-12 18:41:58,2021-08-12 19:10:12,Underhill Ave & Pacific St,4231,Stockholm St & Wilson Ave,4824,40.6804836,-73.9646795,40.699304,-73.923044,member
512608,B13043820B29A384,classic_bike,2021-08-29 18:37:28,2021-08-29 19:07:50,Underhill Ave & Pacific St,4231,Stockholm St & Wilson Ave,4824,40.6804836,-73.9646795,40.699304,-73.923044,casual
513798,8A259646C4C16432,classic_bike,2021-08-01 15:54:46,2021-08-01 16:21:26,Underhill Ave & Pacific St,4231,Union Ave & Wallabout St,4818,40.6804836,-73.9646795,40.70029511,-73.95032283,member
522140,F63AC858002AFCB1,classic_bike,2021-08-01 15:54:33,2021-08-01 16:21:30,Underhill Ave & Pacific St,4231,Union Ave & Wallabout St,4818,40.6804836,-73.9646795,40.70029511,-73.95032283,member
524096,FCCA99ACCCFC72F6,electric_bike,2021-08-01 15:44:38,2021-08-01 15:56:36,Underhill Ave & Pacific St,4231,Hicks St & Montague St,4645,40.6804836,-73.9646795,40.69512845,-73.99595065,member
524101,7D1F7AE780779A41,classic_bike,2021-08-30 09:05:18,2021-08-30 09:32:44,Underhill Ave & Pacific St,4231,St James Pl & Pearl St,5167,40.6804836,-73.9646795,40.71117416,-74.00016545,member
525742,C7B927B2B5695296,classic_bike,2021-08-02 20:08:26,2021-08-02 20:28:09,Underhill Ave & Pacific St,4231,Hicks St & Montague St,4645,40.6804836,-73.9646795,40.69512845,-73.99595065,casual
530078,AAAE02C9F68C8336,classic_bike,2021-08-18 22:08:55,2021-08-18 22:22:38,Underhill Ave & Pacific St,4231,Kane St & Clinton St,4455,40.6804836,-73.9646795,40.6861758,-73.99645295,member
536177,80915E6580DB1E51,electric_bike,2021-08-09 18:07:52,2021-08-09 18:18:28,Underhill Ave & Pacific St,4231,Kane St & Clinton St,4455,40.6804836,-73.9646795,40.6861758,-73.99645295,casual
544929,309AB8A5DA5523CB,classic_bike,2021-08-26 08:29:33,2021-08-26 08:56:41,Underhill Ave & Pacific St,4231,St James Pl & Pearl St,5167,40.6804836,-73.9646795,40.71117416,-74.00016545,member
550572,36D06E251E151E0A,electric_bike,2021-08-17 01:18:07,2021-08-17 01:39:36,Underhill Ave & Pacific St,4231,57 St & 4 Ave,3093,40.6804836,-73.9646795,40.642622,-74.016866,member
550573,DB30A46553620880,classic_bike,2021-08-28 18:38:04,2021-08-28 18:56:10,Underhill Ave & Pacific St,4231,Garfield Pl & 8 Ave,3978,40.6804836,-73.9646795,40.6711978,-73.97484126,member
550577,E14B1895197EEC80,classic_bike,2021-08-10 15:19:52,2021-08-10 15:35:14,Underhill Ave & Pacific St,4231,Garfield Pl & 8 Ave,3978,40.6804836,-73.9646795,40.6711978,-73.97484126,member
550578,2C4F50E8B69A46D6,classic_bike,2021-08-29 17:35:44,2021-08-29 17:46:05,Underhill Ave & Pacific St,4231,Garfield Pl & 8 Ave,3978,40.6804836,-73.9646795,40.6711978,-73.97484126,member
551954,6B1EBF204B064968,classic_bike,2021-08-29 17:36:04,2021-08-29 17:46:11,Underhill Ave & Pacific St,4231,Garfield Pl & 8 Ave,3978,40.6804836,-73.9646795,40.6711978,-73.97484126,member
553925,781C0DB1765A03F4,classic_bike,2021-08-13 08:40:17,2021-08-13 08:51:45,Underhill Ave & Pacific St,4231,Garfield Pl & 8 Ave,3978,40.6804836,-73.9646795,40.6711978,-73.97484126,casual
553930,509FD84A84675E99,electric_bike,2021-08-27 20:33:47,2021-08-27 20:42:51,Underhill Ave & Pacific St,4231,Garfield Pl & 8 Ave,3978,40.6804836,-73.9646795,40.6711978,-73.97484126,casual
553932,E95F428E822DA274,classic_bike,2021-08-08 18:39:08,2021-08-08 18:52:22,Underhill Ave & Pacific St,4231,Franklin Ave & Myrtle Ave,4715,40.6804836,-73.9646795,40.694546087246025,-73.95801365375519,casual
555618,A0DF842D6384F1CC,classic_bike,2021-08-14 22:01:36,2021-08-14 22:12:11,Underhill Ave & Pacific St,4231,Garfield Pl & 8 Ave,3978,40.6804836,-73.9646795,40.6711978,-73.97484126,member
562871,C1AFB0E3FC282358,electric_bike,2021-08-27 20:34:01,2021-08-27 20:42:47,Underhill Ave & Pacific St,4231,Garfield Pl & 8 Ave,3978,40.6804836,-73.9646795,40.6711978,-73.97484126,casual
562899,0EA209BDF8EC6B6D,classic_bike,2021-08-14 13:37:29,2021-08-14 14:14:45,Underhill Ave & Pacific St,4231,44 St & 3 Ave,3315,40.6804836,-73.9646795,40.651173,-74.011405,member
563354,4EED93F772EA7730,classic_bike,2021-08-17 11:53:51,2021-08-17 12:06:48,Underhill Ave & Pacific St,4231,Garfield Pl & 8 Ave,3978,40.6804836,-73.9646795,40.6711978,-73.97484126,member
569231,FC28C7F475213909,electric_bike,2021-08-21 16:39:30,2021-08-21 16:48:35,Underhill Ave & Pacific St,4231,Emerson Pl & Myrtle Ave,4683,40.6804836,-73.9646795,40.69363137,-73.96223558,member
569233,358193BFBCF6420E,classic_bike,2021-08-14 21:17:37,2021-08-14 21:35:43,Underhill Ave & Pacific St,4231,Henry St & Degraw St,4380,40.6804836,-73.9646795,40.6847514,-73.99917254,member
569240,3FE6FCFA442C92D4,classic_bike,2021-08-27 11:26:37,2021-08-27 11:32:51,Underhill Ave & Pacific St,4231,Sterling Pl & Bedford Ave,3993,40.6804836,-73.9646795,40.672695,-73.954131,member
569272,CD2C25A00357348A,electric_bike,2021-08-25 21:10:30,2021-08-25 21:17:42,Underhill Ave & Pacific St,4231,Emerson Pl & Myrtle Ave,4683,40.6804836,-73.9646795,40.69363137,-73.96223558,member
569284,C0A0969B34A52B54,classic_bike,2021-08-07 14:03:51,2021-08-07 14:19:52,Underhill Ave & Pacific St,4231,Emerson Pl & Myrtle Ave,4683,40.6804836,-73.9646795,40.69363137,-73.96223558,casual
569307,BF4AC13FB5C29312,classic_bike,2021-08-29 21:49:25,2021-08-29 21:58:25,Underhill Ave & Pacific St,4231,Emerson Pl & Myrtle Ave,4683,40.6804836,-73.9646795,40.69363137,-73.96223558,casual
569347,8CAA67FAA8F220DB,classic_bike,2021-08-30 16:39:26,2021-08-30 16:52:24,Underhill Ave & Pacific St,4231,Emerson Pl & Myrtle Ave,4683,40.6804836,-73.9646795,40.69363137,-73.96223558,member
569490,ED5AA322DAC3B4FC,electric_bike,2021-08-05 18:27:38,2021-08-05 18:40:15,Underhill Ave & Pacific St,4231,Emerson Pl & Myrtle Ave,4683,40.6804836,-73.9646795,40.69363137,-73.96223558,casual
575390,A8D35D87B6555E92,classic_bike,2021-08-03 19:56:49,2021-08-03 20:26:10,Underhill Ave & Pacific St,4231,Emerson Pl & Myrtle Ave,4683,40.6804836,-73.9646795,40.69363137,-73.96223558,member
575392,BDF1E2CFF11C3513,classic_bike,2021-08-02 09:19:31,2021-08-02 09:29:45,Underhill Ave & Pacific St,4231,Sterling Pl & Bedford Ave,3993,40.6804836,-73.9646795,40.672695,-73.954131,member
584242,4DEEBA7BB2A297E0,classic_bike,2021-08-29 22:17:04,2021-08-29 22:26:24,Underhill Ave & Pacific St,4231,Sterling Pl & Bedford Ave,3993,40.6804836,-73.9646795,40.672695,-73.954131,member
585291,83F801F2837D436D,classic_bike,2021-08-10 22:25:32,2021-08-10 22:44:27,Underhill Ave & Pacific St,4231,Schermerhorn St & Court St,4565,40.6804836,-73.9646795,40.69102925677968,-73.99183362722397,member
585295,0B86276E3FCE857B,classic_bike,2021-08-12 23:11:58,2021-08-12 23:33:10,Underhill Ave & Pacific St,4231,Henry St & Bay St,3972,40.6804836,-73.9646795,40.6725058,-74.00494695,member
585305,AA36EA65844169F8,classic_bike,2021-08-15 15:15:28,2021-08-15 15:34:10,Underhill Ave & Pacific St,4231,Henry St & Degraw St,4380,40.6804836,-73.9646795,40.6847514,-73.99917254,member
585879,3292B9529667DB16,classic_bike,2021-08-11 14:33:59,2021-08-11 14:57:46,Underhill Ave & Pacific St,4231,Sterling Pl & Bedford Ave,3993,40.6804836,-73.9646795,40.672695,-73.954131,member
585904,0BB040BA5C3A4B97,classic_bike,2021-08-13 00:14:12,2021-08-13 00:22:00,Underhill Ave & Pacific St,4231,Sterling Pl & Bedford Ave,3993,40.6804836,-73.9646795,40.672695,-73.954131,casual
586933,197795BE1905BC20,classic_bike,2021-08-10 22:25:39,2021-08-10 22:44:33,Underhill Ave & Pacific St,4231,Schermerhorn St & Court St,4565,40.6804836,-73.9646795,40.69102925677968,-73.99183362722397,member
590761,E06A7688BBEFBE98,classic_bike,2021-08-26 20:11:31,2021-08-26 20:15:46,Underhill Ave & Pacific St,4231,St Johns Pl & Washington Ave,4001,40.6804836,-73.9646795,40.6737236,-73.9631611,member
590768,87D1BBAF0ACFE520,classic_bike,2021-08-03 00:24:33,2021-08-03 00:41:33,Underhill Ave & Pacific St,4231,Broadway & Madison St,4483,40.6804836,-73.9646795,40.68822,-73.91966,member
591008,61C0192B10FF1ADA,classic_bike,2021-08-25 15:12:38,2021-08-25 15:22:27,Underhill Ave & Pacific St,4231,St Johns Pl & Washington Ave,4001,40.6804836,-73.9646795,40.6737236,-73.9631611,member
591011,F91D41BE3C1CFCA9,classic_bike,2021-08-21 18:02:15,2021-08-21 18:23:20,Underhill Ave & Pacific St,4231,Prospect Park SW & Greenwood Ave,3385,40.6804836,-73.9646795,40.652563,-73.972573,casual
591020,58316CC38BCD6B26,classic_bike,2021-08-23 22:01:28,2021-08-23 22:07:56,Underhill Ave & Pacific St,4231,St Johns Pl & Washington Ave,4001,40.6804836,-73.9646795,40.6737236,-73.9631611,casual
593901,615C5CF80A3706A6,electric_bike,2021-08-25 18:57:46,2021-08-25 19:55:00,Underhill Ave & Pacific St,4231,31 Ave & 30 St,6857,40.6804836,-73.9646795,40.7647,-73.9240312,casual
593912,822E71636D29A64A,electric_bike,2021-08-13 23:54:10,2021-08-14 00:14:32,Underhill Ave & Pacific St,4231,Broadway & Madison St,4483,40.6804836,-73.9646795,40.68822,-73.91966,member
594270,15C95E0D3286D031,electric_bike,2021-08-07 23:15:36,2021-08-07 23:31:30,Underhill Ave & Pacific St,4231,Broadway & Madison St,4483,40.6804836,-73.9646795,40.68822,-73.91966,casual
594271,349031D171948252,classic_bike,2021-08-23 20:17:33,2021-08-23 20:22:44,Underhill Ave & Pacific St,4231,St Johns Pl & Washington Ave,4001,40.6804836,-73.9646795,40.6737236,-73.9631611,casual
594320,A434AFDA1EB2BC25,classic_bike,2021-08-28 17:40:01,2021-08-28 17:44:36,Underhill Ave & Pacific St,4231,St Johns Pl & Washington Ave,4001,40.6804836,-73.9646795,40.6737236,-73.9631611,member
594323,DEF33CB83A1444CC,classic_bike,2021-08-06 09:06:16,2021-08-06 09:11:36,Underhill Ave & Pacific St,4231,St Johns Pl & Washington Ave,4001,40.6804836,-73.9646795,40.6737236,-73.9631611,member
594413,31A66F7B82207606,classic_bike,2021-08-16 11:15:01,2021-08-16 11:18:42,Underhill Ave & Pacific St,4231,St Johns Pl & Washington Ave,4001,40.6804836,-73.9646795,40.6737236,-73.9631611,member
594782,2C598FF845F790AB,classic_bike,2021-08-30 18:15:47,2021-08-30 18:21:31,Underhill Ave & Pacific St,4231,St Johns Pl & Washington Ave,4001,40.6804836,-73.9646795,40.6737236,-73.9631611,member
598230,B8167C0D4D68F65D,classic_bike,2021-08-19 11:38:06,2021-08-19 12:01:01,Underhill Ave & Pacific St,4231,Broadway & Madison St,4483,40.6804836,-73.9646795,40.68822,-73.91966,member
598384,AC8028483FBB53D1,classic_bike,2021-08-09 21:19:58,2021-08-09 21:25:05,Underhill Ave & Pacific St,4231,St Johns Pl & Washington Ave,4001,40.6804836,-73.9646795,40.6737236,-73.9631611,member
598717,D4343670E9F02308,electric_bike,2021-08-07 23:15:00,2021-08-07 23:31:21,Underhill Ave & Pacific St,4231,Broadway & Madison St,4483,40.6804836,-73.9646795,40.68822,-73.91966,casual
598718,FC9749397989F20F,classic_bike,2021-08-16 16:44:39,2021-08-16 17:00:00,Underhill Ave & Pacific St,4231,Prospect Park SW & Greenwood Ave,3385,40.6804836,-73.9646795,40.652563,-73.972573,casual
600926,236BD4C677BA8039,classic_bike,2021-08-25 08:39:20,2021-08-25 08:45:22,Underhill Ave & Pacific St,4231,St Johns Pl & Washington Ave,4001,40.6804836,-73.9646795,40.6737236,-73.9631611,member
600930,F8F4A4DF977EC1FE,classic_bike,2021-08-01 22:37:39,2021-08-01 22:41:35,Underhill Ave & Pacific St,4231,St Johns Pl & Washington Ave,4001,40.6804836,-73.9646795,40.6737236,-73.9631611,member
605910,1D6AF56BE853FF72,classic_bike,2021-08-20 18:20:46,2021-08-20 18:25:58,Underhill Ave & Pacific St,4231,St Johns Pl & Washington Ave,4001,40.6804836,-73.9646795,40.6737236,-73.9631611,casual
607111,FB3574040B5EE86B,classic_bike,2021-08-03 20:59:10,2021-08-03 21:05:11,Underhill Ave & Pacific St,4231,St Johns Pl & Washington Ave,4001,40.6804836,-73.9646795,40.6737236,-73.9631611,member
607120,5A686304CE184E09,classic_bike,2021-08-30 09:24:14,2021-08-30 09:29:42,Underhill Ave & Pacific St,4231,St Johns Pl & Washington Ave,4001,40.6804836,-73.9646795,40.6737236,-73.9631611,member
607152,926D10E67BE34E51,classic_bike,2021-08-23 22:02:02,2021-08-23 22:07:20,Underhill Ave & Pacific St,4231,St Johns Pl & Washington Ave,4001,40.6804836,-73.9646795,40.6737236,-73.9631611,member
607501,CC501B2509E1589E,classic_bike,2021-08-31 13:52:36,2021-08-31 13:57:33,Underhill Ave & Pacific St,4231,St Johns Pl & Washington Ave,4001,40.6804836,-73.9646795,40.6737236,-73.9631611,member
613750,1DDC3991DA3E254C,classic_bike,2021-08-05 10:00:39,2021-08-05 10:08:20,Underhill Ave & Pacific St,4231,Union St & 4 Ave,4175,40.6804836,-73.9646795,40.6772744,-73.98282002,member
613751,0CE30B092EED23C8,classic_bike,2021-08-31 17:19:42,2021-08-31 18:02:14,Underhill Ave & Pacific St,4231,Dean St & Hoyt St,4446,40.6804836,-73.9646795,40.6864442,-73.98759104,member
613760,05CC622A937AD7C0,classic_bike,2021-08-20 19:22:43,2021-08-20 19:34:52,Underhill Ave & Pacific St,4231,Union St & 4 Ave,4175,40.6804836,-73.9646795,40.6772744,-73.98282002,member
614730,55580A6884B5156E,classic_bike,2021-08-19 07:49:00,2021-08-19 07:59:18,Underhill Ave & Pacific St,4231,Union St & 4 Ave,4175,40.6804836,-73.9646795,40.6772744,-73.98282002,casual
614756,CFC7AC4F9DB0E963,classic_bike,2021-08-30 10:18:51,2021-08-30 10:28:12,Underhill Ave & Pacific St,4231,Union St & 4 Ave,4175,40.6804836,-73.9646795,40.6772744,-73.98282002,member
618909,1E451D33101248DC,classic_bike,2021-08-31 09:00:28,2021-08-31 09:16:32,Underhill Ave & Pacific St,4231,Union St & 4 Ave,4175,40.6804836,-73.9646795,40.6772744,-73.98282002,member
618912,019B7218EBD84F86,classic_bike,2021-08-25 15:56:01,2021-08-25 16:09:04,Underhill Ave & Pacific St,4231,Union St & 4 Ave,4175,40.6804836,-73.9646795,40.6772744,-73.98282002,casual
618961,37B4E81FAAE03875,classic_bike,2021-08-17 08:24:23,2021-08-17 08:32:48,Underhill Ave & Pacific St,4231,Union St & 4 Ave,4175,40.6804836,-73.9646795,40.6772744,-73.98282002,casual
621791,E3762209743D2A5D,classic_bike,2021-08-09 09:51:35,2021-08-09 09:59:46,Underhill Ave & Pacific St,4231,Union St & 4 Ave,4175,40.6804836,-73.9646795,40.6772744,-73.98282002,member
621802,3489262B7AC93144,electric_bike,2021-08-18 17:38:27,2021-08-18 17:46:12,Underhill Ave & Pacific St,4231,Union St & 4 Ave,4175,40.6804836,-73.9646795,40.6772744,-73.98282002,casual
624537,B24B404A048FD78A,classic_bike,2021-08-27 10:10:22,2021-08-27 10:19:02,Underhill Ave & Pacific St,4231,Union St & 4 Ave,4175,40.6804836,-73.9646795,40.6772744,-73.98282002,member
624538,54C3CA8699AD6068,classic_bike,2021-08-15 16:31:15,2021-08-15 16:44:55,Underhill Ave & Pacific St,4231,Dean St & Hoyt St,4446,40.6804836,-73.9646795,40.6864442,-73.98759104,member
630933,93E4B4030AB0D5D2,classic_bike,2021-08-01 01:26:23,2021-08-01 01:36:37,Underhill Ave & Pacific St,4231,Dean St & Hoyt St,4446,40.6804836,-73.9646795,40.6864442,-73.98759104,member
630951,BCF238E22D04E55D,classic_bike,2021-08-25 10:03:10,2021-08-25 10:11:30,Underhill Ave & Pacific St,4231,Union St & 4 Ave,4175,40.6804836,-73.9646795,40.6772744,-73.98282002,member
630982,FE60C8A08F6AC3A5,classic_bike,2021-08-31 10:32:07,2021-08-31 10:43:39,Underhill Ave & Pacific St,4231,Union St & 4 Ave,4175,40.6804836,-73.9646795,40.6772744,-73.98282002,member
631003,EC4C5FA2A0AE5F53,classic_bike,2021-08-26 10:06:02,2021-08-26 10:14:37,Underhill Ave & Pacific St,4231,Union St & 4 Ave,4175,40.6804836,-73.9646795,40.6772744,-73.98282002,member
633292,DA0E7FEEB8530E9E,classic_bike,2021-08-21 16:41:01,2021-08-21 16:53:31,Underhill Ave & Pacific St,4231,Union St & 4 Ave,4175,40.6804836,-73.9646795,40.6772744,-73.98282002,casual
633294,E8595ED2A2ACB633,classic_bike,2021-08-16 07:11:49,2021-08-16 07:21:58,Underhill Ave & Pacific St,4231,Union St & 4 Ave,4175,40.6804836,-73.9646795,40.6772744,-73.98282002,casual
655228,A7ADCCBE58222FDE,electric_bike,2021-08-31 23:08:23,2021-08-31 23:24:25,Underhill Ave & Pacific St,4231,Bushwick Ave & Linden St,4600,40.6804836,-73.9646795,40.69146,-73.92146,member
662813,F2A728ADFFB52FD4,classic_bike,2021-08-03 19:01:30,2021-08-03 19:14:58,Underhill Ave & Pacific St,4231,DeKalb Ave & Hudson Ave,4513,40.6804836,-73.9646795,40.689888,-73.981013,member
662823,5F4994E7319ACBC6,electric_bike,2021-08-08 08:54:07,2021-08-08 09:03:42,Underhill Ave & Pacific St,4231,DeKalb Ave & Hudson Ave,4513,40.6804836,-73.9646795,40.689888,-73.981013,member
662827,EE98397AD6E604DB,classic_bike,2021-08-08 11:27:48,2021-08-08 11:36:09,Underhill Ave & Pacific St,4231,DeKalb Ave & Hudson Ave,4513,40.6804836,-73.9646795,40.689888,-73.981013,member
662828,6541B2F8BC5B1177,classic_bike,2021-08-31 20:40:00,2021-08-31 20:51:57,Underhill Ave & Pacific St,4231,DeKalb Ave & Hudson Ave,4513,40.6804836,-73.9646795,40.689888,-73.981013,member
662835,8D17D7DF160E3C23,electric_bike,2021-08-14 17:12:10,2021-08-14 17:19:58,Underhill Ave & Pacific St,4231,DeKalb Ave & Hudson Ave,4513,40.6804836,-73.9646795,40.689888,-73.981013,member
673237,88AF62701D3798E7,electric_bike,2021-08-16 18:01:24,2021-08-16 18:05:55,Underhill Ave & Pacific St,4231,Washington Ave & Greene Ave,4419,40.6804836,-73.9646795,40.68650065,-73.96563307,casual
673265,9D17CF47C934DDE2,classic_bike,2021-08-19 21:00:38,2021-08-19 21:14:14,Underhill Ave & Pacific St,4231,1 St & 6 Ave,3946,40.6804836,-73.9646795,40.672784,-73.979826,member
