,ride_id,rideable_type,started_at,ended_at,start_station_name,start_station_id,end_station_name,end_station_id,start_lat,start_lng,end_lat,end_lng,member_casual
2407,B2A0839143DB86C3,classic_bike,2021-08-04 16:47:02,2021-08-04 17:22:33,S 4 St & Wythe Ave,5204,Bushwick Ave & Powers St,5250,40.71285887,-73.96590294,40.71247661,-73.94100005,member
22536,1CCD60B2978DF4B7,electric_bike,2021-08-11 07:51:26,2021-08-11 08:07:20,Jefferson Ave & Evergreen Ave,4517,Bushwick Ave & Powers St,5250,40.68989,-73.91458,40.71247661,-73.94100005,member
22569,9DAC5EB7A64EBCC7,classic_bike,2021-08-23 20:41:13,2021-08-23 20:49:50,S 4 St & Rodney St,5156,Bushwick Ave & Powers St,5250,40.70934,-73.95608,40.71247661,-73.94100005,member
22570,C8B959E5ACF1D7B4,classic_bike,2021-08-18 18:18:20,2021-08-18 18:28:30,S 4 St & Rodney St,5156,Bushwick Ave & Powers St,5250,40.70934,-73.95608,40.71247661,-73.94100005,casual
22572,B9AB5F90AE3D0870,classic_bike,2021-08-16 17:30:33,2021-08-16 17:51:37,S 4 St & Wythe Ave,5204,Bushwick Ave & Powers St,5250,40.71285887,-73.96590294,40.71247661,-73.94100005,member
22592,BA6C12BEB1AD948C,classic_bike,2021-08-09 03:10:44,2021-08-09 03:21:50,Melrose St & Broadway,4801,Bushwick Ave & Powers St,5250,40.697481,-73.935877,40.71247661,-73.94100005,casual
22603,205359F49FBA265E,classic_bike,2021-08-21 10:28:57,2021-08-21 10:36:57,Stagg St & Union Ave,5117,Bushwick Ave & Powers St,5250,40.70877084,-73.95095259,40.71247661,-73.94100005,casual
22630,9113F0BC22E8C98A,electric_bike,2021-08-02 22:54:00,2021-08-02 22:58:37,Engert Ave & McGuinness Blvd,5473,Bushwick Ave & Powers St,5250,40.72158,-73.94546,40.71247661,-73.94100005,casual
22652,A1FE321B8A06BD02,classic_bike,2021-08-07 09:05:44,2021-08-07 09:12:23,Union Ave & N 12 St,5411,Bushwick Ave & Powers St,5250,40.71924,-73.95242,40.71247661,-73.94100005,member
22672,BECDBDD212E85480,classic_bike,2021-08-18 11:54:39,2021-08-18 12:07:16,Throop Ave & Myrtle Ave,4697,Bushwick Ave & Powers St,5250,40.69622937,-73.94371094,40.71247661,-73.94100005,member
22685,A512D8F0C60BC562,electric_bike,2021-08-12 21:06:56,2021-08-12 21:30:42,S 4 St & Wythe Ave,5204,Bushwick Ave & Powers St,5250,40.71285887,-73.96590294,40.71247661,-73.94100005,casual
22690,89A6F140C00677A6,classic_bike,2021-08-21 00:47:50,2021-08-21 00:59:13,S 4 St & Wythe Ave,5204,Bushwick Ave & Powers St,5250,40.71285887,-73.96590294,40.71247661,-73.94100005,casual
22754,66D5B70C61A2A43C,electric_bike,2021-08-15 12:48:29,2021-08-15 13:22:27,St Johns Pl & Washington Ave,4001,Bushwick Ave & Powers St,5250,40.6737236,-73.9631611,40.71247661,-73.94100005,casual
22850,32DC8D20DB32CFEC,classic_bike,2021-08-02 17:13:38,2021-08-02 17:24:21,Knickerbocker Ave & George St,4979,Bushwick Ave & Powers St,5250,40.704425,-73.92836,40.71247661,-73.94100005,member
22892,36407316642A6795,electric_bike,2021-08-25 00:41:17,2021-08-25 00:50:50,Van Buren St & Broadway,4568,Bushwick Ave & Powers St,5250,40.692,-73.92617,40.71247661,-73.94100005,member
22911,0B18C662B6BADC44,classic_bike,2021-08-30 10:11:20,2021-08-30 10:31:32,Menahan St & Onderdonk Ave,5034,Bushwick Ave & Powers St,5250,40.70553,-73.9096,40.71247661,-73.94100005,casual
23061,5BEFA5575B208309,classic_bike,2021-08-24 09:49:35,2021-08-24 09:58:10,Broadway & Whipple St,4883,Bushwick Ave & Powers St,5250,40.7016657,-73.9437303,40.71247661,-73.94100005,member
23074,233F04E5E5533C2B,classic_bike,2021-08-04 22:27:34,2021-08-04 22:39:29,S 4 St & Wythe Ave,5204,Bushwick Ave & Powers St,5250,40.71285887,-73.96590294,40.71247661,-73.94100005,casual
23132,BCBB964E9DB9E981,classic_bike,2021-08-08 16:52:20,2021-08-08 17:07:19,Kent St & McGuinness Blvd,5785,Bushwick Ave & Powers St,5250,40.73124,-73.95161,40.71247661,-73.94100005,casual
23238,11E73930676A1822,classic_bike,2021-08-05 18:33:44,2021-08-05 18:48:10,Nassau Ave & Newell St,5623,Bushwick Ave & Powers St,5250,40.724812564400175,-73.94752621650696,40.71247661,-73.94100005,member
23252,401589A3E365CF79,classic_bike,2021-08-19 19:54:49,2021-08-19 20:05:34,Driggs Ave & Lorimer St,5481,Bushwick Ave & Powers St,5250,40.72179134,-73.9504154,40.71247661,-73.94100005,casual
83701,3C94B4364B470AA2,classic_bike,2021-08-06 19:29:04,2021-08-06 19:40:55,Knickerbocker Ave & George St,4979,Bushwick Ave & Powers St,5250,40.704425,-73.92836,40.71247661,-73.94100005,casual
83703,5F92D0BC344DE5F2,classic_bike,2021-08-01 04:30:22,2021-08-01 04:36:19,Bushwick Ave & McKibbin St,5027,Bushwick Ave & Powers St,5250,40.705517,-73.93936,40.71247661,-73.94100005,casual
83712,2505EEB068671FAF,classic_bike,2021-08-19 20:22:44,2021-08-19 20:32:23,Knickerbocker Ave & George St,4979,Bushwick Ave & Powers St,5250,40.704425,-73.92836,40.71247661,-73.94100005,casual
83731,B0F0C9585A6452C4,classic_bike,2021-08-07 22:05:24,2021-08-07 22:30:22,Broadway & Furman Ave,4244,Bushwick Ave & Powers St,5250,40.68139,-73.90756,40.71247661,-73.94100005,member
83878,A1A560D62DDF40C4,classic_bike,2021-08-20 14:11:26,2021-08-20 14:18:08,Metropolitan Ave & Meeker Ave,5300,Bushwick Ave & Powers St,5250,40.71413311,-73.95234386,40.71247661,-73.94100005,member
83991,E0C2DE79919D0DDD,classic_bike,2021-08-31 21:22:28,2021-08-31 21:26:34,Graham Ave & Conselyea St,5291,Bushwick Ave & Powers St,5250,40.715143,-73.944507,40.71247661,-73.94100005,member
84147,00650A4012376554,classic_bike,2021-08-15 22:07:55,2021-08-15 22:26:06,Bushwick Ave & Dekalb Ave,4680,Bushwick Ave & Powers St,5250,40.69502,-73.92825,40.71247661,-73.94100005,member
84168,8579BED9192E9E38,classic_bike,2021-08-14 18:31:28,2021-08-14 18:50:46,Johnson St & Gold St,4668,Bushwick Ave & Powers St,5250,40.69474881,-73.98362464,40.71247661,-73.94100005,member
84174,42AF51BEC9849A78,classic_bike,2021-08-19 11:29:44,2021-08-19 11:38:03,Bayard St & Leonard St,5442,Bushwick Ave & Powers St,5250,40.71915571696044,-73.94885390996933,40.71247661,-73.94100005,member
84208,34AE3CDD1DA4059D,electric_bike,2021-08-12 21:15:43,2021-08-12 21:28:03,S 5 Pl & S 5 St,5125,Bushwick Ave & Powers St,5250,40.710451,-73.960876,40.71247661,-73.94100005,member
84221,DB95812A8572EBA2,classic_bike,2021-08-01 13:52:12,2021-08-01 14:08:19,Clinton Ave & Myrtle Ave,4651,Bushwick Ave & Powers St,5250,40.693261,-73.968896,40.71247661,-73.94100005,member
84258,BF2C240F17F6AF12,electric_bike,2021-08-10 16:24:04,2021-08-10 17:41:23,7 Ave & Central Park South,6912,Bushwick Ave & Powers St,5250,40.7667405590595,-73.9790689945221,40.71247661,-73.94100005,casual
84327,95F6DD1C2811928D,electric_bike,2021-08-09 09:35:38,2021-08-09 09:45:15,Greenpoint Ave & Manhattan Ave,5785,Bushwick Ave & Powers St,5250,40.73026,-73.95394,40.71247661,-73.94100005,casual
84386,04C10AE75D1D01B6,classic_bike,2021-08-24 21:45:00,2021-08-24 21:52:40,Metropolitan Ave & Meeker Ave,5300,Bushwick Ave & Powers St,5250,40.71413311,-73.95234386,40.71247661,-73.94100005,casual
84393,619B35BFFF846E60,electric_bike,2021-08-31 14:17:46,2021-08-31 14:41:31,Front St & Washington St,4936,Bushwick Ave & Powers St,5250,40.70255088,-73.98940236,40.71247661,-73.94100005,member
84451,197EE0B3599BA8C4,classic_bike,2021-08-26 11:43:51,2021-08-26 11:55:03,Metropolitan Ave & Bedford Ave,5308,Bushwick Ave & Powers St,5250,40.71534825,-73.96024116,40.71247661,-73.94100005,member
84452,139097B45C3A5EC7,classic_bike,2021-08-18 09:59:47,2021-08-18 10:10:15,Metropolitan Ave & Bedford Ave,5308,Bushwick Ave & Powers St,5250,40.71534825,-73.96024116,40.71247661,-73.94100005,member
84546,E3A8590AD2133F17,classic_bike,2021-08-10 17:35:32,2021-08-10 17:42:46,S 4 St & Rodney St,5156,Bushwick Ave & Powers St,5250,40.70934,-73.95608,40.71247661,-73.94100005,member
84648,FE6FA0D9B4F377F9,classic_bike,2021-08-15 16:12:05,2021-08-15 16:24:19,Harrison Pl & Porter Ave,5090,Bushwick Ave & Powers St,5250,40.70686,-73.92851,40.71247661,-73.94100005,member
84650,E11A30ABE9FBAD54,electric_bike,2021-08-12 07:58:12,2021-08-12 08:11:21,Madison St & Evergreen Ave,4560,Bushwick Ave & Powers St,5250,40.69122,-73.91693,40.71247661,-73.94100005,member
84682,2EBE2431F8DED299,classic_bike,2021-08-07 09:54:05,2021-08-07 10:09:35,Central Ave & Himrod St,4713,Bushwick Ave & Powers St,5250,40.69676,-73.92302,40.71247661,-73.94100005,casual
84712,4AE0A5ECA95E8A51,classic_bike,2021-08-17 18:37:49,2021-08-17 18:43:41,Humboldt St & Varet St,4956,Bushwick Ave & Powers St,5250,40.7031724,-73.940636,40.71247661,-73.94100005,member
84764,E19AF320D1676968,classic_bike,2021-08-21 17:09:55,2021-08-21 17:20:39,Scholes St & Manhattan Ave,5108,Bushwick Ave & Powers St,5250,40.70870368,-73.9448625,40.71247661,-73.94100005,member
84974,641F6AA6688E0D69,electric_bike,2021-08-04 00:19:50,2021-08-04 00:27:02,Wilson Ave & Troutman St,4864,Bushwick Ave & Powers St,5250,40.70166,-73.92754,40.71247661,-73.94100005,member
128268,5E15A2C957659C83,classic_bike,2021-08-25 17:13:36,2021-08-25 17:22:14,Bushwick Ave & Powers St,5250,S 5 Pl & S 5 St,5125,40.71247661,-73.94100005,40.710451,-73.960876,member
128288,D1628EC79DD805FA,classic_bike,2021-08-19 14:54:05,2021-08-19 15:15:19,Bushwick Ave & Powers St,5250,Clinton Ave & Myrtle Ave,4651,40.71247661,-73.94100005,40.693261,-73.968896,casual
128291,43C19538A146B995,classic_bike,2021-08-06 18:48:01,2021-08-06 18:58:53,Bushwick Ave & Powers St,5250,Division Ave & Hooper St,5045,40.71247661,-73.94100005,40.70684203101325,-73.9544353965357,casual
130206,CB074D38FD89FA27,electric_bike,2021-08-14 18:04:17,2021-08-14 18:07:47,Bushwick Ave & Powers St,5250,Metropolitan Ave & Stewart Ave,5273,40.71247661,-73.94100005,40.71401,-73.92793,member
130225,9D4AB22BBAEA806F,classic_bike,2021-08-19 08:37:17,2021-08-19 08:42:21,Bushwick Ave & Powers St,5250,Metropolitan Ave & Stewart Ave,5273,40.71247661,-73.94100005,40.71401,-73.92793,member
164245,D77BB53981BFCA74,classic_bike,2021-08-13 23:38:25,2021-08-14 00:05:06,Bushwick Ave & Powers St,5250,Metropolitan Ave & Bedford Ave,5308,40.71247661,-73.94100005,40.71534825,-73.96024116,member
164255,45D7FA66A45EB8E5,classic_bike,2021-08-02 06:11:49,2021-08-02 06:26:26,Bushwick Ave & Powers St,5250,Metropolitan Ave & Bedford Ave,5308,40.71247661,-73.94100005,40.71534825,-73.96024116,casual
164257,CA3AE6A9D780F13B,electric_bike,2021-08-12 19:09:08,2021-08-12 19:16:43,Bushwick Ave & Powers St,5250,Metropolitan Ave & Bedford Ave,5308,40.71247661,-73.94100005,40.71534825,-73.96024116,casual
169371,28B852B951B032F7,classic_bike,2021-08-19 14:12:15,2021-08-19 14:19:48,Bushwick Ave & Powers St,5250,Central Ave & Flushing Ave,4947,40.71247661,-73.94100005,40.702831,-73.9333,member
170324,AC8562984977B0DF,classic_bike,2021-08-20 13:06:18,2021-08-20 13:18:38,Bushwick Ave & Powers St,5250,Central Ave & Flushing Ave,4947,40.71247661,-73.94100005,40.702831,-73.9333,casual
170327,A409267D6294679E,classic_bike,2021-08-14 09:41:26,2021-08-14 10:25:48,Bushwick Ave & Powers St,5250,Bayard St & Baxter St,5351,40.71247661,-73.94100005,40.71602118,-73.99974372,casual
193928,F8922A42CAA09D37,classic_bike,2021-08-24 20:03:22,2021-08-24 20:25:04,Bushwick Ave & Powers St,5250,Putnam Ave & Throop Ave,4392,40.71247661,-73.94100005,40.6851532,-73.94111,casual
196867,C335DCF28572D1BA,electric_bike,2021-08-08 01:45:16,2021-08-08 03:03:47,E 56 St & 3 Ave,6691,Bushwick Ave & Powers St,5250,40.75934501,-73.96759673,40.71247661,-73.94100005,member
196886,B67DD6491152F01E,classic_bike,2021-08-25 23:42:56,2021-08-25 23:46:16,Devoe St & Lorimer St,5259,Bushwick Ave & Powers St,5250,40.71335226222875,-73.9491033554077,40.71247661,-73.94100005,member
196887,67FA2B63DBEA374F,classic_bike,2021-08-04 07:30:26,2021-08-04 07:35:08,Beaver St & Fayette St,4840,Bushwick Ave & Powers St,5250,40.70099,-73.93921,40.71247661,-73.94100005,member
196891,352A178AEDB4A311,classic_bike,2021-08-22 10:52:27,2021-08-22 11:00:29,Beaver St & Fayette St,4840,Bushwick Ave & Powers St,5250,40.70099,-73.93921,40.71247661,-73.94100005,member
196925,8B4A7A022F61B131,classic_bike,2021-08-10 14:00:41,2021-08-10 14:29:38,Hicks St & Montague St,4645,Bushwick Ave & Powers St,5250,40.69512845,-73.99595065,40.71247661,-73.94100005,member
196946,3F344EF67D7D38D6,classic_bike,2021-08-04 16:46:04,2021-08-04 17:07:06,Lafayette Ave & Classon Ave,4452,Bushwick Ave & Powers St,5250,40.68900443,-73.96023854,40.71247661,-73.94100005,member
197055,1315F32DDFAF063E,electric_bike,2021-08-05 20:41:45,2021-08-05 21:01:25,Rockaway Ave & Bainbridge St,4285,Bushwick Ave & Powers St,5250,40.68319988172761,-73.91166642308235,40.71247661,-73.94100005,member
197064,CEBCF2333364F215,classic_bike,2021-08-07 22:52:39,2021-08-07 23:00:09,Metropolitan Ave & Meeker Ave,5300,Bushwick Ave & Powers St,5250,40.71413311,-73.95234386,40.71247661,-73.94100005,casual
197084,59F6E0B34245AB50,classic_bike,2021-08-13 16:22:38,2021-08-13 16:27:03,Devoe St & Lorimer St,5259,Bushwick Ave & Powers St,5250,40.71335226222875,-73.9491033554077,40.71247661,-73.94100005,member
197086,333AD4BE4DA5E83D,classic_bike,2021-08-01 13:18:44,2021-08-01 13:26:46,Driggs Ave & N 9 St,5411,Bushwick Ave & Powers St,5250,40.71816969454208,-73.95520135760307,40.71247661,-73.94100005,casual
197120,C3DA55C870C16405,classic_bike,2021-08-03 18:44:51,2021-08-03 18:50:01,Powers St & Olive St,5210,Bushwick Ave & Powers St,5250,40.71323,-73.93894,40.71247661,-73.94100005,member
197159,DBEE20BDF5E3F30C,classic_bike,2021-08-31 22:55:15,2021-08-31 23:19:29,Central Ave & Covert St,4550,Bushwick Ave & Powers St,5250,40.68929,-73.90951,40.71247661,-73.94100005,casual
197190,39EE68EA9E213371,classic_bike,2021-08-03 21:38:35,2021-08-03 21:52:20,Greenpoint Ave & Manhattan Ave,5785,Bushwick Ave & Powers St,5250,40.73026,-73.95394,40.71247661,-73.94100005,member
197264,CB84140DC2315387,classic_bike,2021-08-17 08:41:28,2021-08-17 08:43:40,Graham Ave & Conselyea St,5291,Bushwick Ave & Powers St,5250,40.715143,-73.944507,40.71247661,-73.94100005,member
197270,4E2B9EC815FBD71D,classic_bike,2021-08-06 20:27:39,2021-08-06 20:31:34,Stagg St & Morgan Ave,5170,Bushwick Ave & Powers St,5250,40.710681,-73.93372,40.71247661,-73.94100005,member
197271,E619DA65C37910D3,electric_bike,2021-08-17 20:08:43,2021-08-17 20:11:16,Stagg St & Morgan Ave,5170,Bushwick Ave & Powers St,5250,40.710681,-73.93372,40.71247661,-73.94100005,member
197299,6EE12A004FEBD73F,classic_bike,2021-08-01 10:40:24,2021-08-01 11:08:38,Nassau Ave & Russell St,5581,Bushwick Ave & Powers St,5250,40.72557,-73.94434,40.71247661,-73.94100005,casual
197300,7C26578D2D47AFDC,classic_bike,2021-08-01 16:06:39,2021-08-01 16:18:53,Bedford Ave & S 9 St,5093,Bushwick Ave & Powers St,5250,40.70853074,-73.96408963,40.71247661,-73.94100005,casual
197338,91366897FFABAFE1,electric_bike,2021-08-09 20:04:52,2021-08-09 20:12:09,Suydam St & Knickerbocker Ave,4939,Bushwick Ave & Powers St,5250,40.702013,-73.923769,40.71247661,-73.94100005,member
197346,CE576AE53BB23E1B,electric_bike,2021-08-04 18:11:48,2021-08-04 18:19:53,Suydam St & Knickerbocker Ave,4939,Bushwick Ave & Powers St,5250,40.702013,-73.923769,40.71247661,-73.94100005,casual
197349,A9609A9F9DE2EFAC,electric_bike,2021-08-03 12:29:20,2021-08-03 12:52:57,Carmine St & 6 Ave,5763,Bushwick Ave & Powers St,5250,40.73038599,-74.00214988,40.71247661,-73.94100005,member
197378,79D255672AA3CDA9,classic_bike,2021-08-01 02:12:21,2021-08-01 02:21:32,Metropolitan Ave & Stewart Ave,5273,Bushwick Ave & Powers St,5250,40.71401,-73.92793,40.71247661,-73.94100005,casual
197395,BD22CC18061EC341,classic_bike,2021-08-13 00:30:24,2021-08-13 00:32:01,Powers St & Olive St,5210,Bushwick Ave & Powers St,5250,40.71323,-73.93894,40.71247661,-73.94100005,member
197492,4C56F5706B5D5D53,classic_bike,2021-08-15 08:25:45,2021-08-15 08:30:48,Devoe St & Lorimer St,5259,Bushwick Ave & Powers St,5250,40.71335226222875,-73.9491033554077,40.71247661,-73.94100005,member
197496,B76B5BA424B67569,classic_bike,2021-08-01 13:52:50,2021-08-01 13:55:55,Powers St & Olive St,5210,Bushwick Ave & Powers St,5250,40.71323,-73.93894,40.71247661,-73.94100005,member
197611,1C47BB322D0A494C,classic_bike,2021-08-09 01:49:22,2021-08-09 02:01:37,Central Ave & Starr Street,4792,Bushwick Ave & Powers St,5250,40.700003,-73.92834,40.71247661,-73.94100005,casual
197617,B2BE4264C31CE60E,classic_bike,2021-08-21 18:28:48,2021-08-21 19:15:36,Bedford Ave & Montgomery St,3736,Bushwick Ave & Powers St,5250,40.665816,-73.956934,40.71247661,-73.94100005,casual
197627,B1C9D192E91E441F,classic_bike,2021-08-01 20:26:53,2021-08-01 20:37:28,Central Ave & Starr Street,4792,Bushwick Ave & Powers St,5250,40.700003,-73.92834,40.71247661,-73.94100005,casual
197687,4953C0C25C2FBA12,electric_bike,2021-08-09 21:01:58,2021-08-09 21:36:08,Sharon St & Olive St,5323,Bushwick Ave & Powers St,5250,40.715353,-73.93856,40.71247661,-73.94100005,member
197696,600DBD88FBC224F9,classic_bike,2021-08-16 11:46:08,2021-08-16 12:04:57,Wyckoff Av & Jefferson St,5051,Bushwick Ave & Powers St,5250,40.707165,-73.923711,40.71247661,-73.94100005,member
197716,567F251F118FEA8B,classic_bike,2021-08-23 14:38:30,2021-08-23 14:44:52,Union Ave & Jackson St,5300,Bushwick Ave & Powers St,5250,40.7160751,-73.952029,40.71247661,-73.94100005,member
197725,6ED1D1B53072B82F,classic_bike,2021-08-16 14:36:27,2021-08-16 15:14:01,S 4 St & Wythe Ave,5204,Bushwick Ave & Powers St,5250,40.71285887,-73.96590294,40.71247661,-73.94100005,casual
197949,C1F41627407CA628,classic_bike,2021-08-11 18:51:57,2021-08-11 19:01:38,Driggs Ave & Lorimer St,5481,Bushwick Ave & Powers St,5250,40.72179134,-73.9504154,40.71247661,-73.94100005,member
197959,FAD144701C72F048,electric_bike,2021-08-08 11:33:37,2021-08-08 11:44:14,Central Ave & Starr Street,4792,Bushwick Ave & Powers St,5250,40.700003,-73.92834,40.71247661,-73.94100005,casual
198043,445F79AA0231E288,electric_bike,2021-08-21 15:45:58,2021-08-21 16:00:40,Driggs Ave & N 9 St,5411,Bushwick Ave & Powers St,5250,40.71816969454208,-73.95520135760307,40.71247661,-73.94100005,casual
198061,0571C1EC74432FA0,classic_bike,2021-08-18 17:57:04,2021-08-18 18:06:54,Lorimer St & Broadway,4965,Bushwick Ave & Powers St,5250,40.70411791,-73.94818595,40.71247661,-73.94100005,member
198081,E8BEFA1FBD4D3B0C,classic_bike,2021-08-10 15:52:04,2021-08-10 16:12:01,Clinton St & Grand St,5303,Bushwick Ave & Powers St,5250,40.71559509,-73.9870295,40.71247661,-73.94100005,member
198096,88489676F0F5E43A,classic_bike,2021-08-14 18:23:46,2021-08-14 18:29:52,Hope St & Union Ave,5187,Bushwick Ave & Powers St,5250,40.71167351,-73.95141312,40.71247661,-73.94100005,casual
198338,AF2BAEB03984328D,classic_bike,2021-08-08 13:14:41,2021-08-08 13:48:03,Greene Ave & Nostrand Ave,4519,Bushwick Ave & Powers St,5250,40.6883337,-73.950916,40.71247661,-73.94100005,casual
198385,29AD4587A6C4A23E,electric_bike,2021-08-06 23:09:24,2021-08-06 23:23:16,Lafayette Ave & St James Pl,4494,Bushwick Ave & Powers St,5250,40.68851534,-73.9647628,40.71247661,-73.94100005,member
198428,3C788629A9960CDF,classic_bike,2021-08-01 11:26:05,2021-08-01 11:29:27,Leonard St & Maujer St,5148,Bushwick Ave & Powers St,5250,40.7103685423523,-73.94705951213837,40.71247661,-73.94100005,member
198533,05CBB24E1589BC68,classic_bike,2021-08-02 13:21:07,2021-08-02 14:00:10,Barclay St & Church St,5216,Bushwick Ave & Powers St,5250,40.71291224,-74.01020234,40.71247661,-73.94100005,member
198564,678CB14D8F7EC12C,classic_bike,2021-08-11 22:20:19,2021-08-11 22:28:05,Division Ave & Hooper St,5045,Bushwick Ave & Powers St,5250,40.70684203101325,-73.9544353965357,40.71247661,-73.94100005,casual
198623,9E1322205ACD9117,classic_bike,2021-08-04 20:41:51,2021-08-04 20:48:25,Roebling St & N 4 St,5267,Bushwick Ave & Powers St,5250,40.71469,-73.95739,40.71247661,-73.94100005,member
198630,AAE429CDC427A152,electric_bike,2021-08-01 09:38:22,2021-08-01 10:25:45,Hicks St & Montague St,4645,Bushwick Ave & Powers St,5250,40.69512845,-73.99595065,40.71247661,-73.94100005,casual
198641,DA3BD4007DF22E42,electric_bike,2021-08-08 20:48:04,2021-08-08 21:01:58,Lewis Ave & Madison St,4425,Bushwick Ave & Powers St,5250,40.686312,-73.935775,40.71247661,-73.94100005,casual
198649,AD833A7B8F03FBD4,classic_bike,2021-08-20 15:28:08,2021-08-20 15:53:19,Willoughby St & Fleet St,4628,Bushwick Ave & Powers St,5250,40.69196566,-73.9813018,40.71247661,-73.94100005,member
198684,4FC9CAF84ECD144F,classic_bike,2021-08-19 01:25:47,2021-08-19 01:35:27,N 6 St & Bedford Ave,5379,Bushwick Ave & Powers St,5250,40.71745169,-73.95850939,40.71247661,-73.94100005,member
198690,7657CB2F7ED0DAC7,classic_bike,2021-08-07 22:42:45,2021-08-07 22:52:46,N 6 St & Bedford Ave,5379,Bushwick Ave & Powers St,5250,40.71745169,-73.95850939,40.71247661,-73.94100005,member
198764,2A29AE39A01B636A,classic_bike,2021-08-08 17:34:16,2021-08-08 17:50:45,Central Ave & Flushing Ave,4947,Bushwick Ave & Powers St,5250,40.702831,-73.9333,40.71247661,-73.94100005,member
198766,51C593CBD4DCEF8A,classic_bike,2021-08-21 18:19:38,2021-08-21 18:26:08,Beaver St & Fayette St,4840,Bushwick Ave & Powers St,5250,40.70099,-73.93921,40.71247661,-73.94100005,member
198906,EA3FA8D69681E08F,classic_bike,2021-08-19 16:35:32,2021-08-19 16:39:33,Humboldt St & Varet St,4956,Bushwick Ave & Powers St,5250,40.7031724,-73.940636,40.71247661,-73.94100005,member
198959,2888E68D6A26F0E5,classic_bike,2021-08-18 14:28:33,2021-08-18 14:36:25,Boerum St & Broadway,5004,Bushwick Ave & Powers St,5250,40.70538077,-73.94976519,40.71247661,-73.94100005,member
199016,FC6D032397F09293,classic_bike,2021-08-03 17:06:46,2021-08-03 17:13:05,Devoe St & Morgan Ave,5282,Bushwick Ave & Powers St,5250,40.713811,-73.93515,40.71247661,-73.94100005,member
199031,E01CA59F6E3A1D93,electric_bike,2021-08-08 14:53:59,2021-08-08 15:17:54,Reade St & Broadway,5247,Bushwick Ave & Powers St,5250,40.71450451,-74.00562789,40.71247661,-73.94100005,member
199096,10994533B79FD1AE,classic_bike,2021-08-05 19:36:25,2021-08-05 19:40:37,Bushwick Ave & Powers St,5250,Devoe St & Morgan Ave,5282,40.71247661,-73.94100005,40.713811,-73.93515,casual
199114,239CFD3209326D76,classic_bike,2021-08-04 12:24:43,2021-08-04 12:26:26,Bushwick Ave & Powers St,5250,Bushwick Ave & Powers St,5250,40.71247661,-73.94100005,40.71247661,-73.94100005,casual
199172,02EE1201F42FCF9E,classic_bike,2021-08-06 22:32:16,2021-08-06 22:32:53,Bushwick Ave & Powers St,5250,Bushwick Ave & Powers St,5250,40.71247661,-73.94100005,40.71247661,-73.94100005,member
199174,2E84B5544F923CA3,classic_bike,2021-08-12 09:20:50,2021-08-12 09:59:40,Bushwick Ave & Powers St,5250,Bushwick Ave & Powers St,5250,40.71247661,-73.94100005,40.71247661,-73.94100005,casual
199258,D33AA5CFB4159F5C,classic_bike,2021-08-03 20:33:58,2021-08-03 20:59:52,Norfolk St & Broome St,5374,Bushwick Ave & Powers St,5250,40.7172274,-73.98802084,40.71247661,-73.94100005,member
199269,1A5ACC5EC869D895,classic_bike,2021-08-17 23:14:41,2021-08-17 23:38:43,St Marks Pl & 2 Ave,5669,Bushwick Ave & Powers St,5250,40.7284186,-73.98713956,40.71247661,-73.94100005,member
199327,DD305D728C59F085,docked_bike,2021-08-09 16:39:25,2021-08-09 16:57:37,Kent Ave & N 7 St,5489,Bushwick Ave & Powers St,5250,40.720368,-73.961651,40.712477,-73.941,casual
199371,D8253781DE487175,electric_bike,2021-08-16 20:32:51,2021-08-16 21:03:07,W 29 St & 9 Ave,6416,Bushwick Ave & Powers St,5250,40.7500727,-73.99839279,40.71247661,-73.94100005,member
199418,CC3B54322249CD27,classic_bike,2021-08-15 22:18:22,2021-08-15 22:33:43,Milton St & Franklin St,5752,Bushwick Ave & Powers St,5250,40.72906,-73.95779,40.71247661,-73.94100005,casual
199435,41192C004B395AA9,electric_bike,2021-08-03 19:57:01,2021-08-03 20:21:37,E 11 St & Avenue B,5659,Bushwick Ave & Powers St,5250,40.72746420692392,-73.97950418293476,40.71247661,-73.94100005,member
199467,73E5F3FED9EE9D08,classic_bike,2021-08-17 00:09:43,2021-08-17 00:20:46,Wyckoff Av & Stanhope St,4931,Bushwick Ave & Powers St,5250,40.703545,-73.917775,40.71247661,-73.94100005,casual
199524,63A3918494D6AAEE,classic_bike,2021-08-15 18:28:54,2021-08-15 18:51:18,Madison St & Woodward Ave,4954,Bushwick Ave & Powers St,5250,40.70408,-73.90408,40.71247661,-73.94100005,member
199555,E0D600699018B805,electric_bike,2021-08-01 18:41:03,2021-08-01 18:56:35,Clinton St & Grand St,5303,Bushwick Ave & Powers St,5250,40.71559509,-73.9870295,40.71247661,-73.94100005,member
199573,7C207574ADABA07E,classic_bike,2021-08-02 21:31:05,2021-08-02 21:42:58,Bedford Ave & Nassau Ave,5550,Bushwick Ave & Powers St,5250,40.72311651,-73.95212324,40.71247661,-73.94100005,member
199596,F623973804A308CD,electric_bike,2021-08-09 19:37:26,2021-08-09 20:20:38,E 7 St & Avenue A,5626,Bushwick Ave & Powers St,5250,40.72621788,-73.98379855,40.71247661,-73.94100005,member
199621,9DBBAEF7DB041191,classic_bike,2021-08-16 08:38:34,2021-08-16 09:06:27,36 Ave & 31 St,6572,Bushwick Ave & Powers St,5250,40.75651272984955,-73.92957486212252,40.71247661,-73.94100005,member
199663,F717D518A0AB912A,classic_bike,2021-08-15 13:53:54,2021-08-15 14:31:11,Flushing Ave & Woodward Ave,5225,Bushwick Ave & Powers St,5250,40.71246,-73.91873,40.71247661,-73.94100005,member
199664,341117410460035A,electric_bike,2021-08-19 18:03:26,2021-08-19 18:06:36,Sharon St & Olive St,5323,Bushwick Ave & Powers St,5250,40.715353,-73.93856,40.71247661,-73.94100005,member
199746,93E19429712FF662,classic_bike,2021-08-31 09:42:39,2021-08-31 09:47:57,Devoe St & Morgan Ave,5282,Bushwick Ave & Powers St,5250,40.713811,-73.93515,40.71247661,-73.94100005,casual
199818,F1BD6F0C43779DAE,electric_bike,2021-08-11 15:45:40,2021-08-11 15:49:09,Devoe St & Morgan Ave,5282,Bushwick Ave & Powers St,5250,40.713811,-73.93515,40.71247661,-73.94100005,casual
199821,5BD3CFFAE3F8E0C2,electric_bike,2021-08-13 22:01:34,2021-08-13 22:01:38,Bushwick Ave & Powers St,5250,Bushwick Ave & Powers St,5250,40.71247661,-73.94100005,40.71247661,-73.94100005,casual
199822,B5BDBDB7457238AB,classic_bike,2021-08-13 22:03:09,2021-08-13 22:03:14,Bushwick Ave & Powers St,5250,Bushwick Ave & Powers St,5250,40.71247661,-73.94100005,40.71247661,-73.94100005,casual
199978,C7E4319D6BCFC72F,docked_bike,2021-08-26 12:09:11,2021-08-26 12:39:36,Norfolk St & Broome St,5374,Bushwick Ave & Powers St,5250,40.717227,-73.988021,40.712477,-73.941,casual
199984,F7B99DA8F973C735,classic_bike,2021-08-04 21:04:33,2021-08-04 21:26:56,Norfolk St & Broome St,5374,Bushwick Ave & Powers St,5250,40.7172274,-73.98802084,40.71247661,-73.94100005,member
199988,08250A4575A60A9F,classic_bike,2021-08-15 01:13:44,2021-08-15 01:40:35,Stanton St & Norfolk St,5445,Bushwick Ave & Powers St,5250,40.720747,-73.986274,40.71247661,-73.94100005,casual
200004,A9DD75E37A552620,classic_bike,2021-08-11 19:05:01,2021-08-11 19:14:28,S 3 St & Bedford Ave,5235,Bushwick Ave & Powers St,5250,40.71260486,-73.96264403,40.71247661,-73.94100005,member
200038,3D352CEBDFCA667D,electric_bike,2021-08-07 20:48:18,2021-08-07 21:01:15,Stanton St & Norfolk St,5445,Bushwick Ave & Powers St,5250,40.720747,-73.986274,40.71247661,-73.94100005,member
200112,86B5133A54217F2F,electric_bike,2021-08-04 13:23:19,2021-08-04 13:48:18,38 Ave & 29 St,6538,Bushwick Ave & Powers St,5250,40.75473,-73.93367,40.71247661,-73.94100005,casual
200192,E617CD762CAA13F3,classic_bike,2021-08-31 19:31:08,2021-08-31 20:33:54,W 36 St & 7 Ave,6483,Bushwick Ave & Powers St,5250,40.752149,-73.989539,40.71247661,-73.94100005,member
200216,D2857050132C72C3,classic_bike,2021-08-01 16:19:58,2021-08-01 16:24:35,Scholes St & Manhattan Ave,5108,Bushwick Ave & Powers St,5250,40.70870368,-73.9448625,40.71247661,-73.94100005,casual
200234,7ECEC1E77C430FC9,classic_bike,2021-08-21 15:30:23,2021-08-21 15:36:40,Hope St & Union Ave,5187,Bushwick Ave & Powers St,5250,40.71167351,-73.95141312,40.71247661,-73.94100005,member
200240,96254D137C46C2C7,classic_bike,2021-08-11 18:16:55,2021-08-11 18:24:54,Graham Ave & Withers St,5403,Bushwick Ave & Powers St,5250,40.7169811,-73.94485918,40.71247661,-73.94100005,member
200307,7C96017BB0EB85CF,electric_bike,2021-08-15 20:47:00,2021-08-15 20:48:42,Waterbury St & Stagg St,5099,Bushwick Ave & Powers St,5250,40.71019,-73.93734,40.71247661,-73.94100005,member
200384,A35346A2B38BEB5C,classic_bike,2021-08-18 21:36:03,2021-08-18 21:45:17,Knickerbocker Ave & George St,4979,Bushwick Ave & Powers St,5250,40.704425,-73.92836,40.71247661,-73.94100005,member
200503,84A9281A8904C9D7,electric_bike,2021-08-02 09:44:28,2021-08-02 10:06:20,Monroe St & Bedford Ave,4368,Bushwick Ave & Powers St,5250,40.6851443,-73.95380904,40.71247661,-73.94100005,casual
200608,770B89CC52B7918E,classic_bike,2021-08-17 21:48:50,2021-08-17 21:50:38,Graham Ave & Grand St,5178,Bushwick Ave & Powers St,5250,40.711863,-73.944024,40.71247661,-73.94100005,member
200616,5222D613EB8B0426,classic_bike,2021-08-09 19:53:33,2021-08-09 20:03:08,McKibbin St & Bogart St,5059,Bushwick Ave & Powers St,5250,40.706237,-73.933871,40.71247661,-73.94100005,casual
200639,A351E15C0A98F32C,classic_bike,2021-08-05 21:37:58,2021-08-05 21:44:06,Roebling St & N 4 St,5267,Bushwick Ave & Powers St,5250,40.71469,-73.95739,40.71247661,-73.94100005,member
200677,872E834F0A48EC50,classic_bike,2021-08-31 12:09:02,2021-08-31 12:19:16,Roebling St & N 4 St,5267,Bushwick Ave & Powers St,5250,40.71469,-73.95739,40.71247661,-73.94100005,casual
200861,032EF22E3A09DF91,classic_bike,2021-08-14 18:22:48,2021-08-14 18:28:47,Metropolitan Ave & Meeker Ave,5300,Bushwick Ave & Powers St,5250,40.71413311,-73.95234386,40.71247661,-73.94100005,member
201558,14DA0B0CE3F4C2CE,electric_bike,2021-08-12 18:30:20,2021-08-12 18:52:59,Bergen St & 4 Ave,4322,Bushwick Ave & Powers St,5250,40.68256425759694,-73.9798977971077,40.71247661,-73.94100005,member
211364,440AA5FAF96F3411,electric_bike,2021-08-04 06:34:55,2021-08-04 06:47:29,Bushwick Ave & Powers St,5250,Irving Ave & Palmetto St,4775,40.71247661,-73.94100005,40.698,-73.9127,casual
214746,C1EED2F016464C3C,classic_bike,2021-08-14 02:49:39,2021-08-14 02:57:01,Bushwick Ave & Powers St,5250,Bushwick Ave & Forrest St,4914,40.71247661,-73.94100005,40.70076,-73.93641,casual
216685,BAE7EE3AFB931E44,classic_bike,2021-08-31 14:20:50,2021-08-31 14:25:24,Bushwick Ave & Powers St,5250,Leonard St & Maujer St,5148,40.71247661,-73.94100005,40.7103685423523,-73.94705951213837,member
216686,EA5267185CB61B81,classic_bike,2021-08-20 14:46:38,2021-08-20 14:52:51,Bushwick Ave & Powers St,5250,Leonard St & Maujer St,5148,40.71247661,-73.94100005,40.7103685423523,-73.94705951213837,member
216689,274F970923CB7800,classic_bike,2021-08-05 07:57:39,2021-08-05 08:07:59,Bushwick Ave & Powers St,5250,Driggs Ave & N Henry St,5542,40.71247661,-73.94100005,40.72325,-73.94308,casual
216693,CC384692564FF856,classic_bike,2021-08-04 20:11:15,2021-08-04 20:22:05,Bushwick Ave & Powers St,5250,Driggs Ave & N Henry St,5542,40.71247661,-73.94100005,40.72325,-73.94308,casual
216698,E6E3D7452F889B29,electric_bike,2021-08-11 15:52:18,2021-08-11 16:05:15,Bushwick Ave & Powers St,5250,Driggs Ave & N Henry St,5542,40.71247661,-73.94100005,40.72325,-73.94308,casual
216699,E4D828747AD27A32,classic_bike,2021-08-06 20:45:23,2021-08-06 21:09:30,Bushwick Ave & Powers St,5250,Bushwick Ave & Linden St,4600,40.71247661,-73.94100005,40.69146,-73.92146,casual
220589,7A8E8C4290135223,classic_bike,2021-08-21 12:04:36,2021-08-21 12:08:18,Bushwick Ave & Powers St,5250,Hope St & Union Ave,5187,40.71247661,-73.94100005,40.71167351,-73.95141312,member
236890,B6BD0E93040D2A5E,electric_bike,2021-08-16 22:24:06,2021-08-16 23:01:03,Bushwick Ave & Powers St,5250,Graham Ave & Conselyea St,5291,40.71247661,-73.94100005,40.715143,-73.944507,casual
236897,6C3F4779800FDCEC,classic_bike,2021-08-20 16:39:59,2021-08-20 16:51:05,Bushwick Ave & Powers St,5250,Irving Ave & Jefferson St,5051,40.71247661,-73.94100005,40.70538,-73.92535,casual
236898,EC8F609F0A83ABF2,electric_bike,2021-08-16 22:23:42,2021-08-16 22:33:19,Bushwick Ave & Powers St,5250,Central Ave & Melrose St,4832,40.71247661,-73.94100005,40.70112,-73.93039,casual
247029,B3C11AE0477CA943,classic_bike,2021-08-20 19:49:45,2021-08-20 20:45:51,Bushwick Ave & Powers St,5250,,nan,40.71247661,-73.94100005,,,casual
281375,244339486BE4B373,electric_bike,2021-08-14 12:22:54,2021-08-14 12:50:54,Bushwick Ave & Powers St,5250,E 7 St & Avenue A,5626,40.71247661,-73.94100005,40.72621788,-73.98379855,casual
293270,A3EF307C4DCC5D33,classic_bike,2021-08-08 17:20:58,2021-08-08 17:45:17,Bushwick Ave & Powers St,5250,Huron St & Franklin St,5869,40.71247661,-73.94100005,40.73266,-73.95826,casual
294297,8359E156403EC0B9,electric_bike,2021-08-18 17:15:54,2021-08-18 17:48:54,Bushwick Ave & Powers St,5250,Front St & Washington St,4936,40.71247661,-73.94100005,40.70255088,-73.98940236,casual
296675,D57992BB1A1E772D,classic_bike,2021-08-06 20:21:12,2021-08-06 20:41:09,Bushwick Ave & Powers St,5250,Bushwick Ave & Harman St,4640,40.71247661,-73.94100005,40.69356,-73.92524,casual
296677,CAE17C633ED49153,classic_bike,2021-08-06 20:21:22,2021-08-06 20:41:17,Bushwick Ave & Powers St,5250,Bushwick Ave & Harman St,4640,40.71247661,-73.94100005,40.69356,-73.92524,casual
296920,174A6242B0048894,electric_bike,2021-08-13 22:10:15,2021-08-13 22:24:44,Bushwick Ave & Powers St,5250,Jefferson St & Cypress Ave,5082,40.71247661,-73.94100005,40.70907,-73.92157,casual
298484,CDDACCDEE24DA858,classic_bike,2021-08-10 18:35:56,2021-08-10 18:44:55,Bushwick Ave & Powers St,5250,S 5 Pl & S 5 St,5125,40.71247661,-73.94100005,40.710451,-73.960876,casual
298487,B248257AC0FF2378,classic_bike,2021-08-21 01:13:55,2021-08-21 01:24:21,Bushwick Ave & Powers St,5250,S 5 Pl & S 5 St,5125,40.71247661,-73.94100005,40.710451,-73.960876,casual
298490,D90FE45562DD3A37,classic_bike,2021-08-09 11:25:55,2021-08-09 11:35:46,Bushwick Ave & Powers St,5250,S 5 Pl & S 5 St,5125,40.71247661,-73.94100005,40.710451,-73.960876,casual
298497,D48458528EAE9104,electric_bike,2021-08-15 10:36:14,2021-08-15 10:44:31,Bushwick Ave & Powers St,5250,S 5 Pl & S 5 St,5125,40.71247661,-73.94100005,40.710451,-73.960876,casual
298498,3024DDA9A48FF2A3,classic_bike,2021-08-30 09:42:07,2021-08-30 09:50:03,Bushwick Ave & Powers St,5250,S 5 Pl & S 5 St,5125,40.71247661,-73.94100005,40.710451,-73.960876,casual
318337,3B641C63E2E261D2,electric_bike,2021-08-02 15:34:48,2021-08-02 15:50:26,Bushwick Ave & Powers St,5250,Cedar St & Myrtle Ave,4751,40.71247661,-73.94100005,40.697842,-73.926241,member
331942,8E34A4FF66C5DE8B,classic_bike,2021-08-10 18:09:47,2021-08-10 18:15:53,Bushwick Ave & Powers St,5250,Driggs Ave & Lorimer St,5481,40.71247661,-73.94100005,40.72179134,-73.9504154,casual
331949,4DC2AC05360D14AC,classic_bike,2021-08-04 18:22:42,2021-08-04 18:33:46,Bushwick Ave & Powers St,5250,Driggs Ave & Lorimer St,5481,40.71247661,-73.94100005,40.72179134,-73.9504154,casual
336924,108682C384B34FF8,electric_bike,2021-08-02 17:39:33,2021-08-02 17:49:40,Bushwick Ave & Powers St,5250,Bushwick Ave & McKibbin St,5027,40.71247661,-73.94100005,40.705517,-73.93936,casual
337083,2FCDA557625DFC78,classic_bike,2021-08-20 17:59:30,2021-08-20 18:19:45,Bushwick Ave & Powers St,5250,Lewis Ave & Decatur St,4237,40.71247661,-73.94100005,40.6814598,-73.934903,casual
345778,DA113FC3FA238770,classic_bike,2021-08-18 19:39:46,2021-08-18 19:53:46,Bushwick Ave & Powers St,5250,India St & Manhattan Ave,5826,40.71247661,-73.94100005,40.73232194,-73.9550858,casual
345789,E34AE6637713CC11,classic_bike,2021-08-08 10:21:14,2021-08-08 10:34:03,Bushwick Ave & Powers St,5250,India St & Manhattan Ave,5826,40.71247661,-73.94100005,40.73232194,-73.9550858,casual
345805,9CE18E6D4430A35F,electric_bike,2021-08-21 16:13:54,2021-08-21 16:38:13,Bushwick Ave & Powers St,5250,Market St & Cherry St,5198,40.71247661,-73.94100005,40.71076228,-73.99400398,casual
345811,87E6F37FF82383E2,classic_bike,2021-08-31 11:23:08,2021-08-31 11:33:58,Bushwick Ave & Powers St,5250,Suydam St & Knickerbocker Ave,4939,40.71247661,-73.94100005,40.702013,-73.923769,casual
354821,F5BF1B7CE0F5FD61,electric_bike,2021-08-21 03:04:00,2021-08-21 04:30:26,Bushwick Ave & Powers St,5250,S 4 St & Wythe Ave,5204,40.71247661,-73.94100005,40.71285887,-73.96590294,casual
354823,89AE0E4C4884093F,classic_bike,2021-08-13 22:03:39,2021-08-14 01:03:49,Bushwick Ave & Powers St,5250,Wyckoff Av & Jefferson St,5051,40.71247661,-73.94100005,40.707165,-73.923711,casual
354825,E31AB3DAF9557CE8,electric_bike,2021-08-15 00:25:00,2021-08-15 00:44:43,Bushwick Ave & Powers St,5250,S 4 St & Wythe Ave,5204,40.71247661,-73.94100005,40.71285887,-73.96590294,casual
354826,52CC73C93FE26987,electric_bike,2021-08-07 22:40:14,2021-08-07 22:55:39,Bushwick Ave & Powers St,5250,Monroe St & Tompkins Ave,4434,40.71247661,-73.94100005,40.686203,-73.944694,casual
355823,1FEFD87BDBCEE82C,electric_bike,2021-08-04 00:15:56,2021-08-04 00:24:58,Bushwick Ave & Powers St,5250,S 4 St & Wythe Ave,5204,40.71247661,-73.94100005,40.71285887,-73.96590294,casual
355829,89AC3D3B63914D09,classic_bike,2021-08-14 19:23:27,2021-08-14 19:32:10,Bushwick Ave & Powers St,5250,Union Ave & Jackson St,5300,40.71247661,-73.94100005,40.7160751,-73.952029,casual
355830,C6819C2D8B3F5C88,electric_bike,2021-08-03 21:47:55,2021-08-03 21:52:57,Bushwick Ave & Powers St,5250,Union Ave & Jackson St,5300,40.71247661,-73.94100005,40.7160751,-73.952029,casual
355833,99F604340D33FEA8,classic_bike,2021-08-08 01:43:01,2021-08-08 01:57:36,Bushwick Ave & Powers St,5250,Monroe St & Tompkins Ave,4434,40.71247661,-73.94100005,40.686203,-73.944694,casual
355836,C3CE22E0CBF72EB3,classic_bike,2021-08-17 13:53:42,2021-08-17 14:11:46,Bushwick Ave & Powers St,5250,S 4 St & Wythe Ave,5204,40.71247661,-73.94100005,40.71285887,-73.96590294,member
356061,E185776627C69418,classic_bike,2021-08-08 11:35:49,2021-08-08 11:43:04,Bushwick Ave & Powers St,5250,S 4 St & Wythe Ave,5204,40.71247661,-73.94100005,40.71285887,-73.96590294,casual
356063,281AC0C5925A072A,classic_bike,2021-08-14 08:24:11,2021-08-14 08:35:21,Bushwick Ave & Powers St,5250,Union Ave & Jackson St,5300,40.71247661,-73.94100005,40.7160751,-73.952029,casual
356065,E5CE5F42D96C6A22,classic_bike,2021-08-16 13:30:02,2021-08-16 13:39:50,Bushwick Ave & Powers St,5250,S 4 St & Wythe Ave,5204,40.71247661,-73.94100005,40.71285887,-73.96590294,casual
356802,77FADC3AB9D5B71A,classic_bike,2021-08-01 19:24:36,2021-08-01 19:34:07,Bushwick Ave & Powers St,5250,S 4 St & Wythe Ave,5204,40.71247661,-73.94100005,40.71285887,-73.96590294,member
356816,A8303CC5B0BDC073,classic_bike,2021-08-18 21:31:47,2021-08-18 22:01:28,Bushwick Ave & Powers St,5250,Grove St & Broadway,4526,40.71247661,-73.94100005,40.69047,-73.923511,member
356817,40DBDEEDC392E5BA,classic_bike,2021-08-15 00:27:33,2021-08-15 00:44:55,Bushwick Ave & Powers St,5250,S 4 St & Wythe Ave,5204,40.71247661,-73.94100005,40.71285887,-73.96590294,casual
371621,5BAB38010E7CC6CB,classic_bike,2021-08-05 18:47:05,2021-08-05 18:57:01,Bushwick Ave & Powers St,5250,Union Ave & Wallabout St,4818,40.71247661,-73.94100005,40.70029511,-73.95032283,casual
371625,96716AA28A484F00,classic_bike,2021-08-16 20:28:27,2021-08-16 20:35:31,Bushwick Ave & Powers St,5250,Lorimer St & Broadway,4965,40.71247661,-73.94100005,40.70411791,-73.94818595,casual
372959,9F6AD1E691A7C42E,electric_bike,2021-08-23 17:04:24,2021-08-23 17:15:20,Bushwick Ave & Powers St,5250,Stockholm St & Wilson Ave,4824,40.71247661,-73.94100005,40.699304,-73.923044,casual
372960,E0C85F4B92671B16,electric_bike,2021-08-10 00:42:40,2021-08-10 00:51:58,Bushwick Ave & Powers St,5250,Stockholm St & Wilson Ave,4824,40.71247661,-73.94100005,40.699304,-73.923044,casual
379956,8D8FD25C88352659,classic_bike,2021-08-11 14:46:04,2021-08-11 14:56:24,Bushwick Ave & Powers St,5250,Scholes St & Manhattan Ave,5108,40.71247661,-73.94100005,40.70870368,-73.9448625,member
379958,6C8DC67DD6DC6848,electric_bike,2021-08-07 00:28:59,2021-08-07 00:33:08,Bushwick Ave & Powers St,5250,Scholes St & Manhattan Ave,5108,40.71247661,-73.94100005,40.70870368,-73.9448625,casual
447158,CBFB7CB87780DA8B,classic_bike,2021-08-07 19:16:22,2021-08-07 19:26:43,Bushwick Ave & Powers St,5250,Union Ave & N 12 St,5411,40.71247661,-73.94100005,40.71924,-73.95242,casual
447160,7F6592E33A3C7915,classic_bike,2021-08-01 02:46:43,2021-08-01 02:56:07,Bushwick Ave & Powers St,5250,Union Ave & N 12 St,5411,40.71247661,-73.94100005,40.71924,-73.95242,casual
448429,5C0896A688AF351A,classic_bike,2021-08-17 19:11:48,2021-08-17 19:17:46,Bushwick Ave & Powers St,5250,S 4 St & Rodney St,5156,40.71247661,-73.94100005,40.70934,-73.95608,member
448440,B13B181FBFC9A5CA,classic_bike,2021-08-16 10:14:56,2021-08-16 10:20:51,Bushwick Ave & Powers St,5250,S 4 St & Rodney St,5156,40.71247661,-73.94100005,40.70934,-73.95608,casual
459102,DD831D98E902C70B,electric_bike,2021-08-04 23:28:47,2021-08-04 23:35:27,Bushwick Ave & Powers St,5250,Park Ave & Marcus Garvey Blvd,4768,40.71247661,-73.94100005,40.698617,-73.941342,casual
459104,A594BAE578122390,electric_bike,2021-08-09 20:51:17,2021-08-09 20:58:00,Bushwick Ave & Powers St,5250,Metropolitan Ave & Meeker Ave,5300,40.71247661,-73.94100005,40.71413311,-73.95234386,casual
459127,A49BF09CD5CF8A78,classic_bike,2021-08-05 17:46:40,2021-08-05 17:53:28,Bushwick Ave & Powers St,5250,Metropolitan Ave & Meeker Ave,5300,40.71247661,-73.94100005,40.71413311,-73.95234386,casual
461029,C88994444643E177,classic_bike,2021-08-05 15:04:32,2021-08-05 15:19:27,Bushwick Ave & Powers St,5250,Park Ave & Marcus Garvey Blvd,4768,40.71247661,-73.94100005,40.698617,-73.941342,member
461031,C4D3FAF7341DA0C4,classic_bike,2021-08-23 12:17:41,2021-08-23 12:24:23,Bushwick Ave & Powers St,5250,Metropolitan Ave & Meeker Ave,5300,40.71247661,-73.94100005,40.71413311,-73.95234386,casual
464722,570165CB81A1E619,classic_bike,2021-08-17 16:41:56,2021-08-17 17:08:29,Bushwick Ave & Powers St,5250,Nassau St\t& Duffield St,4781,40.71247661,-73.94100005,40.698477,-73.98384,casual
465568,98E40CB05D3804B7,classic_bike,2021-08-17 16:42:50,2021-08-17 17:08:24,Bushwick Ave & Powers St,5250,Nassau St\t& Duffield St,4781,40.71247661,-73.94100005,40.698477,-73.98384,casual
483530,76709463164D47EF,electric_bike,2021-08-06 23:55:25,2021-08-07 00:01:23,Bushwick Ave & Powers St,5250,Grand St & Havemeyer St,5267,40.71247661,-73.94100005,40.71286844,-73.95698119,casual
484557,C4114253EBAB1FA2,classic_bike,2021-08-19 10:40:06,2021-08-19 10:49:56,Bushwick Ave & Powers St,5250,Grand St & Havemeyer St,5267,40.71247661,-73.94100005,40.71286844,-73.95698119,casual
485065,77AE070BA4D5FCA8,classic_bike,2021-08-23 19:59:07,2021-08-23 20:10:47,Bushwick Ave & Powers St,5250,Grand St & Havemeyer St,5267,40.71247661,-73.94100005,40.71286844,-73.95698119,casual
485322,5E8D81E7CB29169F,classic_bike,2021-08-15 16:31:39,2021-08-15 16:39:28,Bushwick Ave & Powers St,5250,Grand St & Havemeyer St,5267,40.71247661,-73.94100005,40.71286844,-73.95698119,casual
485323,656EC8B1F6EF2C26,electric_bike,2021-08-17 20:02:06,2021-08-17 20:08:50,Bushwick Ave & Powers St,5250,Stewart Ave & Johnson Ave,5123,40.71247661,-73.94100005,40.70869,-73.92587,casual
485329,2170194356920683,classic_bike,2021-08-03 11:47:46,2021-08-03 11:55:07,Bushwick Ave & Powers St,5250,Grand St & Havemeyer St,5267,40.71247661,-73.94100005,40.71286844,-73.95698119,casual
485421,BFB8237A08B85DEB,classic_bike,2021-08-05 22:50:06,2021-08-05 22:53:35,Bushwick Ave & Powers St,5250,Frost St & Meeker Ave,5371,40.71247661,-73.94100005,40.71766197083994,-73.94880026578903,member
486695,0516788020F276D5,classic_bike,2021-08-04 14:00:11,2021-08-04 14:06:28,Bushwick Ave & Powers St,5250,Frost St & Meeker Ave,5371,40.71247661,-73.94100005,40.71766197083994,-73.94880026578903,member
486710,6F1C2499A05017A9,classic_bike,2021-08-20 20:32:00,2021-08-20 20:36:46,Bushwick Ave & Powers St,5250,Frost St & Meeker Ave,5371,40.71247661,-73.94100005,40.71766197083994,-73.94880026578903,member
486713,D091E314DC7B118C,classic_bike,2021-08-31 19:45:41,2021-08-31 19:51:53,Bushwick Ave & Powers St,5250,Stewart Ave & Johnson Ave,5123,40.71247661,-73.94100005,40.70869,-73.92587,casual
486718,EBC72E8D56090307,classic_bike,2021-08-20 20:16:36,2021-08-20 20:23:01,Bushwick Ave & Powers St,5250,Grand St & Havemeyer St,5267,40.71247661,-73.94100005,40.71286844,-73.95698119,member
486723,0AB79217812ED30F,classic_bike,2021-08-01 22:35:40,2021-08-01 22:45:39,Bushwick Ave & Powers St,5250,Stewart Ave & Johnson Ave,5123,40.71247661,-73.94100005,40.70869,-73.92587,member
486980,DB779481B5FFD5D6,classic_bike,2021-08-12 18:13:52,2021-08-12 18:25:02,Bushwick Ave & Powers St,5250,Grand St & Havemeyer St,5267,40.71247661,-73.94100005,40.71286844,-73.95698119,member
488072,3AECE811AFF11073,classic_bike,2021-08-31 18:53:07,2021-08-31 19:02:27,Bushwick Ave & Powers St,5250,Grand St & Havemeyer St,5267,40.71247661,-73.94100005,40.71286844,-73.95698119,member
488847,BB67629A3ABDC222,classic_bike,2021-08-04 18:52:08,2021-08-04 19:02:47,Bushwick Ave & Powers St,5250,Stewart Ave & Johnson Ave,5123,40.71247661,-73.94100005,40.70869,-73.92587,member
488853,86050C8B0D170011,classic_bike,2021-08-12 12:14:28,2021-08-12 12:23:10,Bushwick Ave & Powers St,5250,Frost St & Meeker Ave,5371,40.71247661,-73.94100005,40.71766197083994,-73.94880026578903,casual
488855,3C2E25E4D5196945,classic_bike,2021-08-02 18:28:37,2021-08-02 18:36:49,Bushwick Ave & Powers St,5250,Grand St & Havemeyer St,5267,40.71247661,-73.94100005,40.71286844,-73.95698119,casual
488857,51E349109D5ABBB3,classic_bike,2021-08-14 20:27:32,2021-08-14 20:32:26,Bushwick Ave & Powers St,5250,Frost St & Meeker Ave,5371,40.71247661,-73.94100005,40.71766197083994,-73.94880026578903,member
488862,35B1609D5CD7E011,classic_bike,2021-08-11 08:51:54,2021-08-11 08:59:43,Bushwick Ave & Powers St,5250,Grand St & Havemeyer St,5267,40.71247661,-73.94100005,40.71286844,-73.95698119,casual
488866,EAF06B1992E9DE5E,classic_bike,2021-08-15 22:27:56,2021-08-15 22:32:33,Bushwick Ave & Powers St,5250,Frost St & Meeker Ave,5371,40.71247661,-73.94100005,40.71766197083994,-73.94880026578903,member
488873,1A55F4AAE8749BCB,classic_bike,2021-08-03 17:52:17,2021-08-03 18:14:48,Bushwick Ave & Powers St,5250,Frost St & Meeker Ave,5371,40.71247661,-73.94100005,40.71766197083994,-73.94880026578903,member
488874,88F2B12EDEF08B2A,electric_bike,2021-08-14 17:00:56,2021-08-14 17:18:59,Bushwick Ave & Powers St,5250,Grand St & Havemeyer St,5267,40.71247661,-73.94100005,40.71286844,-73.95698119,member
488880,3E881EF10C164632,classic_bike,2021-08-20 20:32:01,2021-08-20 20:36:49,Bushwick Ave & Powers St,5250,Frost St & Meeker Ave,5371,40.71247661,-73.94100005,40.71766197083994,-73.94880026578903,member
489805,0A6E48B399B36663,classic_bike,2021-08-04 18:52:05,2021-08-04 19:03:01,Bushwick Ave & Powers St,5250,Stewart Ave & Johnson Ave,5123,40.71247661,-73.94100005,40.70869,-73.92587,casual
489806,B215B63BE66C1376,classic_bike,2021-08-15 10:24:15,2021-08-15 10:30:54,Bushwick Ave & Powers St,5250,Grand St & Havemeyer St,5267,40.71247661,-73.94100005,40.71286844,-73.95698119,casual
491084,652C8E28958C53B8,classic_bike,2021-08-13 20:06:09,2021-08-13 20:11:16,Bushwick Ave & Powers St,5250,Frost St & Meeker Ave,5371,40.71247661,-73.94100005,40.71766197083994,-73.94880026578903,member
492486,5031628F98FC0030,classic_bike,2021-08-18 18:43:09,2021-08-18 18:53:40,Bushwick Ave & Powers St,5250,Grand St & Havemeyer St,5267,40.71247661,-73.94100005,40.71286844,-73.95698119,member
492541,42C8E70963A11F0D,classic_bike,2021-08-04 15:22:06,2021-08-04 15:29:02,Bushwick Ave & Powers St,5250,Frost St & Meeker Ave,5371,40.71247661,-73.94100005,40.71766197083994,-73.94880026578903,member
492788,9CF9160DDAB6E710,classic_bike,2021-08-07 19:12:43,2021-08-07 19:28:27,Bushwick Ave & Powers St,5250,Stewart Ave & Johnson Ave,5123,40.71247661,-73.94100005,40.70869,-73.92587,casual
492789,774616AD214AF305,classic_bike,2021-08-19 18:30:39,2021-08-19 18:41:17,Bushwick Ave & Powers St,5250,Grand St & Havemeyer St,5267,40.71247661,-73.94100005,40.71286844,-73.95698119,member
494412,F53CB02A82B263D7,classic_bike,2021-08-02 17:42:12,2021-08-02 18:08:58,Bushwick Ave & Powers St,5250,Nassau St\t& Duffield St,4781,40.71247661,-73.94100005,40.698477,-73.98384,casual
496306,BE5AE2D99C0742A6,classic_bike,2021-08-17 16:43:09,2021-08-17 17:08:22,Bushwick Ave & Powers St,5250,Nassau St\t& Duffield St,4781,40.71247661,-73.94100005,40.698477,-73.98384,casual
497063,207093CC4C910733,classic_bike,2021-08-17 16:43:48,2021-08-17 17:08:25,Bushwick Ave & Powers St,5250,Nassau St\t& Duffield St,4781,40.71247661,-73.94100005,40.698477,-73.98384,casual
507434,4A16E3C3E8F62598,classic_bike,2021-08-12 00:03:33,2021-08-12 00:30:03,Bushwick Ave & Powers St,5250,Vernon Blvd & 50 Ave,6170,40.71247661,-73.94100005,40.74232744,-73.95411749,member
512013,030D262195A87A0C,electric_bike,2021-08-11 22:25:19,2021-08-11 22:33:14,Bushwick Ave & Powers St,5250,Stockholm St & Wilson Ave,4824,40.71247661,-73.94100005,40.699304,-73.923044,casual
516317,904E30A3917A289B,classic_bike,2021-08-21 15:32:31,2021-08-21 15:44:21,Bushwick Ave & Powers St,5250,Stockholm St & Wilson Ave,4824,40.71247661,-73.94100005,40.699304,-73.923044,member
517378,F4C74165CAD87CF5,electric_bike,2021-08-19 21:22:34,2021-08-19 21:28:47,Bushwick Ave & Powers St,5250,Union Ave & Wallabout St,4818,40.71247661,-73.94100005,40.70029511,-73.95032283,member
517400,A463E292F98ED7E4,electric_bike,2021-08-12 22:37:02,2021-08-12 22:43:05,Bushwick Ave & Powers St,5250,Union Ave & Wallabout St,4818,40.71247661,-73.94100005,40.70029511,-73.95032283,member
528263,0953902C93DAE8F6,classic_bike,2021-08-15 23:39:06,2021-08-15 23:52:38,Bushwick Ave & Powers St,5250,Menahan St & Wyckoff Ave,4890,40.71247661,-73.94100005,40.70113,-73.91422,casual
548264,077650801F761D9B,electric_bike,2021-08-08 23:07:37,2021-08-08 23:25:39,Bushwick Ave & Powers St,5250,E 11 St & 3 Ave,5788,40.71247661,-73.94100005,40.73127,-73.98849,member
558405,01F1A11BB3DDC777,electric_bike,2021-08-17 20:32:28,2021-08-17 20:53:58,Bushwick Ave & Powers St,5250,E 11 St & 3 Ave,5788,40.71247661,-73.94100005,40.73127,-73.98849,member
569454,852888A381917DD8,classic_bike,2021-08-10 10:46:01,2021-08-10 11:22:46,Bushwick Ave & Powers St,5250,MacDougal St & Washington Sq,5797,40.71247661,-73.94100005,40.73226398,-73.99852205,member
569472,A9B53E1B9F101EB9,electric_bike,2021-08-19 19:16:56,2021-08-19 19:30:06,Bushwick Ave & Powers St,5250,Emerson Pl & Myrtle Ave,4683,40.71247661,-73.94100005,40.69363137,-73.96223558,member
573287,CD6F73602F662ED8,electric_bike,2021-08-31 08:51:37,2021-08-31 09:15:58,Bushwick Ave & Powers St,5250,MacDougal St & Washington Sq,5797,40.71247661,-73.94100005,40.73226398,-73.99852205,member
593166,3ED931BDE63E7037,electric_bike,2021-08-23 16:29:05,2021-08-23 17:01:35,Bushwick Ave & Powers St,5250,St Johns Pl & Washington Ave,4001,40.71247661,-73.94100005,40.6737236,-73.9631611,casual
601611,1FA4A8B88A4ACA44,electric_bike,2021-08-10 08:57:20,2021-08-10 09:25:01,Bushwick Ave & Powers St,5250,St Johns Pl & Washington Ave,4001,40.71247661,-73.94100005,40.6737236,-73.9631611,member
603798,2A5F9BF45A9EF90C,classic_bike,2021-08-17 18:47:57,2021-08-17 19:11:02,Bushwick Ave & Powers St,5250,Allen St & Stanton St,5484,40.71247661,-73.94100005,40.722055,-73.989111,member
607421,2ABDB869F8BA7636,classic_bike,2021-08-14 19:53:23,2021-08-14 20:22:20,Bushwick Ave & Powers St,5250,Allen St & Stanton St,5484,40.71247661,-73.94100005,40.722055,-73.989111,casual
615991,C3C3B57C35DF6D3F,electric_bike,2021-08-31 20:08:14,2021-08-31 20:20:51,Bushwick Ave & Powers St,5250,Nassau Ave & Newell St,5623,40.71247661,-73.94100005,40.724812564400175,-73.94752621650696,casual
616002,8E55BC71CFF7F4A8,electric_bike,2021-08-02 19:04:47,2021-08-02 19:30:50,Bushwick Ave & Powers St,5250,Dean St & Hoyt St,4446,40.71247661,-73.94100005,40.6864442,-73.98759104,member
616010,59C2046363363E35,classic_bike,2021-08-19 21:45:08,2021-08-19 21:52:24,Bushwick Ave & Powers St,5250,Nassau Ave & Newell St,5623,40.71247661,-73.94100005,40.724812564400175,-73.94752621650696,casual
616031,6D917EECFA658BFA,classic_bike,2021-08-10 18:46:49,2021-08-10 19:05:28,Bushwick Ave & Powers St,5250,Nassau Ave & Newell St,5623,40.71247661,-73.94100005,40.724812564400175,-73.94752621650696,member
616047,68872A567CBE934A,classic_bike,2021-08-20 13:15:27,2021-08-20 13:58:05,Bushwick Ave & Powers St,5250,Union St & 4 Ave,4175,40.71247661,-73.94100005,40.6772744,-73.98282002,member
616810,A50A46EF56409DE6,classic_bike,2021-08-14 18:25:45,2021-08-14 18:49:44,Bushwick Ave & Powers St,5250,45 Rd & 11 St,6319,40.71247661,-73.94100005,40.74708586,-73.94977234,member
623983,AD8C52A87DC77B95,classic_bike,2021-08-12 22:44:15,2021-08-12 23:01:19,Bushwick Ave & Powers St,5250,Nassau Ave & Newell St,5623,40.71247661,-73.94100005,40.724812564400175,-73.94752621650696,member
625778,9D55BE971B1F192E,classic_bike,2021-08-06 19:58:45,2021-08-06 20:15:26,Bushwick Ave & Powers St,5250,Nassau Ave & Newell St,5623,40.71247661,-73.94100005,40.724812564400175,-73.94752621650696,casual
625779,FE4B989333DD6B10,classic_bike,2021-08-18 19:31:37,2021-08-18 19:43:39,Bushwick Ave & Powers St,5250,Nassau Ave & Newell St,5623,40.71247661,-73.94100005,40.724812564400175,-73.94752621650696,casual
630811,D9375A1335764E80,classic_bike,2021-08-12 22:52:31,2021-08-12 23:01:24,Bushwick Ave & Powers St,5250,Nassau Ave & Newell St,5623,40.71247661,-73.94100005,40.724812564400175,-73.94752621650696,casual
630813,F89F5390E5C5C1EA,electric_bike,2021-08-14 02:31:24,2021-08-14 02:58:18,Bushwick Ave & Powers St,5250,Christopher St & Greenwich St,5847,40.71247661,-73.94100005,40.73291553,-74.00711384,casual
635197,BBD931A1ABB0EF0C,electric_bike,2021-08-05 17:12:24,2021-08-05 18:07:07,Bushwick Ave & Powers St,5250,Sharon St & Olive St,5323,40.71247661,-73.94100005,40.715353,-73.93856,casual
640401,E33E8A5AD9897DB5,classic_bike,2021-08-18 13:38:04,2021-08-18 13:40:44,Bushwick Ave & Powers St,5250,Sharon St & Olive St,5323,40.71247661,-73.94100005,40.715353,-73.93856,member
640961,3220B0F0698C00D7,classic_bike,2021-08-21 15:40:10,2021-08-21 15:50:21,Bushwick Ave & Powers St,5250,Flushing Ave & Woodward Ave,5225,40.71247661,-73.94100005,40.71246,-73.91873,member
640978,CBD5ACA6EA438521,classic_bike,2021-08-11 20:56:34,2021-08-11 20:59:55,Bushwick Ave & Powers St,5250,Sharon St & Olive St,5323,40.71247661,-73.94100005,40.715353,-73.93856,member
642751,78C8426A74E9F756,classic_bike,2021-08-31 18:50:55,2021-08-31 18:53:21,Bushwick Ave & Powers St,5250,Sharon St & Olive St,5323,40.71247661,-73.94100005,40.715353,-73.93856,member
642914,B82AB0D142C38519,classic_bike,2021-08-15 13:14:27,2021-08-15 13:51:38,Bushwick Ave & Powers St,5250,Flushing Ave & Woodward Ave,5225,40.71247661,-73.94100005,40.71246,-73.91873,member
643000,402D8B0B4D9912E2,classic_bike,2021-08-04 17:43:06,2021-08-04 17:45:40,Bushwick Ave & Powers St,5250,Sharon St & Olive St,5323,40.71247661,-73.94100005,40.715353,-73.93856,member
643001,5069BF4CF5CF43D8,classic_bike,2021-08-12 22:18:30,2021-08-12 22:29:34,Bushwick Ave & Powers St,5250,Flushing Ave & Woodward Ave,5225,40.71247661,-73.94100005,40.71246,-73.91873,member
644229,05256A09E8A5C429,classic_bike,2021-08-06 20:42:37,2021-08-06 21:04:35,Bushwick Ave & Powers St,5250,Sharon St & Olive St,5323,40.71247661,-73.94100005,40.715353,-73.93856,member
644246,3A77627A73E4196E,electric_bike,2021-08-09 18:15:14,2021-08-09 18:22:27,Bushwick Ave & Powers St,5250,Flushing Ave & Woodward Ave,5225,40.71247661,-73.94100005,40.71246,-73.91873,member
645493,92C891D3D245BB5E,classic_bike,2021-08-23 17:25:08,2021-08-23 17:29:48,Bushwick Ave & Powers St,5250,Sharon St & Olive St,5323,40.71247661,-73.94100005,40.715353,-73.93856,member
646879,3A08DB5BDCCAAC88,classic_bike,2021-08-20 16:53:05,2021-08-20 17:01:34,Bushwick Ave & Powers St,5250,Flushing Ave & Woodward Ave,5225,40.71247661,-73.94100005,40.71246,-73.91873,member
646881,9911DE328FAD895E,electric_bike,2021-08-01 17:16:25,2021-08-01 17:26:23,Bushwick Ave & Powers St,5250,Sharon St & Olive St,5323,40.71247661,-73.94100005,40.715353,-73.93856,member
649935,880DAC2A1BC7E3B6,classic_bike,2021-08-07 17:06:58,2021-08-07 17:14:28,Bushwick Ave & Powers St,5250,Flushing Ave & Woodward Ave,5225,40.71247661,-73.94100005,40.71246,-73.91873,member
649939,9377870A46829C15,classic_bike,2021-08-23 21:15:57,2021-08-23 21:21:22,Bushwick Ave & Powers St,5250,Sharon St & Olive St,5323,40.71247661,-73.94100005,40.715353,-73.93856,member
650057,34F7848E3F766115,classic_bike,2021-08-21 16:41:54,2021-08-21 16:50:36,Bushwick Ave & Powers St,5250,Flushing Ave & Woodward Ave,5225,40.71247661,-73.94100005,40.71246,-73.91873,casual
652922,6E0035DC41029401,classic_bike,2021-08-05 10:40:48,2021-08-05 11:09:16,Bushwick Ave & Powers St,5250,DeKalb Ave & Hudson Ave,4513,40.71247661,-73.94100005,40.689888,-73.981013,member
652924,EDF184C21582E68B,classic_bike,2021-08-23 16:57:17,2021-08-23 17:03:55,Bushwick Ave & Powers St,5250,Driggs Ave & N Henry St,5542,40.71247661,-73.94100005,40.72325,-73.94308,casual
653485,3D691DF1989F0224,classic_bike,2021-08-20 10:39:29,2021-08-20 11:01:43,Bushwick Ave & Powers St,5250,Driggs Ave & N Henry St,5542,40.71247661,-73.94100005,40.72325,-73.94308,member
654767,D1A210C407C10EAA,electric_bike,2021-08-11 07:56:45,2021-08-11 08:02:19,Bushwick Ave & Powers St,5250,Driggs Ave & N Henry St,5542,40.71247661,-73.94100005,40.72325,-73.94308,casual
654769,D0072E155347019B,classic_bike,2021-08-04 12:13:49,2021-08-04 12:19:47,Bushwick Ave & Powers St,5250,Leonard St & Maujer St,5148,40.71247661,-73.94100005,40.7103685423523,-73.94705951213837,member
654802,E86610647272F260,classic_bike,2021-08-15 11:11:01,2021-08-15 11:13:37,Bushwick Ave & Powers St,5250,Leonard St & Maujer St,5148,40.71247661,-73.94100005,40.7103685423523,-73.94705951213837,member
656443,ABDF8E0C7A96C3D1,classic_bike,2021-08-09 13:35:43,2021-08-09 13:43:10,Bushwick Ave & Powers St,5250,Driggs Ave & N Henry St,5542,40.71247661,-73.94100005,40.72325,-73.94308,member
656675,423215B69FD19667,electric_bike,2021-08-20 19:31:32,2021-08-20 19:37:22,Bushwick Ave & Powers St,5250,Driggs Ave & N Henry St,5542,40.71247661,-73.94100005,40.72325,-73.94308,member
657962,CC500D669EF12FDB,classic_bike,2021-08-17 22:26:35,2021-08-17 22:29:48,Bushwick Ave & Powers St,5250,Leonard St & Maujer St,5148,40.71247661,-73.94100005,40.7103685423523,-73.94705951213837,member
659894,8614898FD4066E8F,classic_bike,2021-08-17 21:16:45,2021-08-17 21:19:34,Bushwick Ave & Powers St,5250,Leonard St & Maujer St,5148,40.71247661,-73.94100005,40.7103685423523,-73.94705951213837,member
659922,4A9A3E715355BA57,classic_bike,2021-08-03 17:32:33,2021-08-03 17:36:21,Bushwick Ave & Powers St,5250,Leonard St & Maujer St,5148,40.71247661,-73.94100005,40.7103685423523,-73.94705951213837,member
660074,4225871841346758,classic_bike,2021-08-03 11:26:52,2021-08-03 11:30:26,Bushwick Ave & Powers St,5250,Leonard St & Maujer St,5148,40.71247661,-73.94100005,40.7103685423523,-73.94705951213837,member
660075,90B71F4D3DE0ABAF,classic_bike,2021-08-11 20:54:41,2021-08-11 21:03:46,Bushwick Ave & Powers St,5250,Leonard St & Maujer St,5148,40.71247661,-73.94100005,40.7103685423523,-73.94705951213837,member
660076,825B6709535B4E0C,classic_bike,2021-08-11 18:55:51,2021-08-11 18:59:21,Bushwick Ave & Powers St,5250,Leonard St & Maujer St,5148,40.71247661,-73.94100005,40.7103685423523,-73.94705951213837,member
660077,4CA2FF5350292B48,classic_bike,2021-08-21 11:47:37,2021-08-21 11:52:36,Bushwick Ave & Powers St,5250,Leonard St & Maujer St,5148,40.71247661,-73.94100005,40.7103685423523,-73.94705951213837,member
660272,83105F62B0FE1BF8,classic_bike,2021-08-11 08:52:22,2021-08-11 09:11:17,Bushwick Ave & Powers St,5250,Driggs Ave & N Henry St,5542,40.71247661,-73.94100005,40.72325,-73.94308,member
662222,152E9F633AD86DB5,classic_bike,2021-08-19 16:40:18,2021-08-19 16:42:41,Bushwick Ave & Powers St,5250,Leonard St & Maujer St,5148,40.71247661,-73.94100005,40.7103685423523,-73.94705951213837,member
662224,A1ECE7E48936C95B,classic_bike,2021-08-21 16:16:40,2021-08-21 16:19:29,Bushwick Ave & Powers St,5250,Leonard St & Maujer St,5148,40.71247661,-73.94100005,40.7103685423523,-73.94705951213837,member
662229,308DE86F878C10AD,classic_bike,2021-08-04 10:18:34,2021-08-04 10:21:08,Bushwick Ave & Powers St,5250,Leonard St & Maujer St,5148,40.71247661,-73.94100005,40.7103685423523,-73.94705951213837,member
662254,FD4ACF711B46FD15,classic_bike,2021-08-21 11:47:51,2021-08-21 11:52:39,Bushwick Ave & Powers St,5250,Leonard St & Maujer St,5148,40.71247661,-73.94100005,40.7103685423523,-73.94705951213837,member
672704,C33F39A550011A4D,electric_bike,2021-08-07 19:08:49,2021-08-07 19:34:07,Bushwick Ave & Powers St,5250,1 St & 6 Ave,3946,40.71247661,-73.94100005,40.672784,-73.979826,casual
674123,FBF627594B9F4CE7,classic_bike,2021-08-08 13:43:30,2021-08-08 14:09:51,Bushwick Ave & Powers St,5250,Mott St & Prince St,5561,40.71247661,-73.94100005,40.72317958,-73.99480012,casual
675378,41E70D3B1EAEBD8C,classic_bike,2021-08-19 19:54:57,2021-08-19 20:30:19,Bushwick Ave & Powers St,5250,E 25 St & 1 Ave,6004,40.71247661,-73.94100005,40.7381765,-73.97738662,member
678571,A69613D45B091EFC,classic_bike,2021-08-08 05:37:24,2021-08-08 06:04:28,Bushwick Ave & Powers St,5250,Mott St & Prince St,5561,40.71247661,-73.94100005,40.72317958,-73.99480012,member
693750,0FEFDCF47EF1547B,classic_bike,2021-08-20 13:16:28,2021-08-20 13:42:33,Bushwick Ave & Powers St,5250,Jay St & York St,4895,40.71247661,-73.94100005,40.70140317257725,-73.98672670125961,casual
704591,5640E8C2841C6769,electric_bike,2021-08-14 12:29:12,2021-08-14 13:05:33,Bushwick Ave & Powers St,5250,Atlantic Ave & Furman St,4614,40.71247661,-73.94100005,40.69165183,-73.9999786,member
708427,625B5AB2F7B076E0,classic_bike,2021-08-07 19:09:22,2021-08-07 19:30:21,Bushwick Ave & Powers St,5250,Myrtle Ave & Lewis Ave,4729,40.71247661,-73.94100005,40.69681963,-73.93756926,member
715305,029899B3D399E11E,electric_bike,2021-08-12 10:25:27,2021-08-12 11:08:46,Bushwick Ave & Powers St,5250,Atlantic Ave & Furman St,4614,40.71247661,-73.94100005,40.69165183,-73.9999786,member
718240,84C2DD9E482223A5,classic_bike,2021-08-03 17:48:16,2021-08-03 18:10:08,Bushwick Ave & Powers St,5250,Canal St & Rutgers St,5303,40.71247661,-73.94100005,40.71427487,-73.98990025,member
719120,750CB8F84814BD3C,electric_bike,2021-08-19 00:43:10,2021-08-19 00:59:57,Bushwick Ave & Powers St,5250,Bushwick Ave & Dekalb Ave,4680,40.71247661,-73.94100005,40.69502,-73.92825,casual
727486,61C9C3AC19E6AC32,classic_bike,2021-08-07 11:23:01,2021-08-07 11:49:13,Bushwick Ave & Powers St,5250,Canal St & Rutgers St,5303,40.71247661,-73.94100005,40.71427487,-73.98990025,casual
727501,1A7DA12E9D888464,electric_bike,2021-08-19 18:07:37,2021-08-19 18:22:59,Bushwick Ave & Powers St,5250,Canal St & Rutgers St,5303,40.71247661,-73.94100005,40.71427487,-73.98990025,member
727518,925A682437ED0CFC,classic_bike,2021-08-07 19:08:54,2021-08-07 19:30:12,Bushwick Ave & Powers St,5250,Myrtle Ave & Lewis Ave,4729,40.71247661,-73.94100005,40.69681963,-73.93756926,member
734149,1ED072E227A9161B,electric_bike,2021-08-14 21:40:40,2021-08-14 21:54:29,Bushwick Ave & Powers St,5250,Canal St & Rutgers St,5303,40.71247661,-73.94100005,40.71427487,-73.98990025,member
739502,D7EAEE332E9A0C26,classic_bike,2021-08-09 08:07:58,2021-08-09 08:21:56,Bushwick Ave & Powers St,5250,Franklin St & Dupont St,5944,40.71247661,-73.94100005,40.73564,-73.95866,casual
739614,F8FDEBDA25BE43C2,classic_bike,2021-08-18 04:39:47,2021-08-18 04:45:53,Bushwick Ave & Powers St,5250,Bayard St & Leonard St,5442,40.71247661,-73.94100005,40.71915571696044,-73.94885390996933,member
739617,D0D9F513C1535483,electric_bike,2021-08-09 16:39:02,2021-08-09 16:54:33,Bushwick Ave & Powers St,5250,Franklin St & Dupont St,5944,40.71247661,-73.94100005,40.73564,-73.95866,casual
739621,E10B254ED587DF64,classic_bike,2021-08-26 06:17:55,2021-08-26 06:25:39,Bushwick Ave & Powers St,5250,Bayard St & Leonard St,5442,40.71247661,-73.94100005,40.71915571696044,-73.94885390996933,casual
739626,98210C7AF7296FFF,classic_bike,2021-08-09 19:12:00,2021-08-09 19:52:07,Bushwick Ave & Powers St,5250,Allen St & Rivington St,5414,40.71247661,-73.94100005,40.72019576,-73.98997825,casual
739634,4344E302D8BE5F83,electric_bike,2021-08-19 20:08:08,2021-08-19 20:19:44,Bushwick Ave & Powers St,5250,Bayard St & Leonard St,5442,40.71247661,-73.94100005,40.71915571696044,-73.94885390996933,casual
739639,B702E5CC784D5B29,electric_bike,2021-08-07 21:25:22,2021-08-07 21:34:29,Bushwick Ave & Powers St,5250,Broadway & Berry St,5164,40.71247661,-73.94100005,40.71044554,-73.96525063,casual
739642,BFC04C2E8A978A36,classic_bike,2021-08-31 19:57:43,2021-08-31 20:03:18,Bushwick Ave & Powers St,5250,Bayard St & Leonard St,5442,40.71247661,-73.94100005,40.71915571696044,-73.94885390996933,member
739671,FFABFDBAD9D94568,classic_bike,2021-08-30 10:23:32,2021-08-30 10:29:19,Bushwick Ave & Powers St,5250,Bayard St & Leonard St,5442,40.71247661,-73.94100005,40.71915571696044,-73.94885390996933,member
739681,0FAA4303BC46EB2D,classic_bike,2021-08-07 21:52:50,2021-08-07 21:59:20,Bushwick Ave & Powers St,5250,Bayard St & Leonard St,5442,40.71247661,-73.94100005,40.71915571696044,-73.94885390996933,member
739682,C72FAACA7BFDCDFC,classic_bike,2021-08-15 11:27:03,2021-08-15 11:35:31,Bushwick Ave & Powers St,5250,Broadway & Berry St,5164,40.71247661,-73.94100005,40.71044554,-73.96525063,member
739687,4B262CD00122662A,classic_bike,2021-08-09 10:10:48,2021-08-09 10:17:38,Bushwick Ave & Powers St,5250,Bayard St & Leonard St,5442,40.71247661,-73.94100005,40.71915571696044,-73.94885390996933,member
739694,6ABF14707C15B746,classic_bike,2021-08-23 17:32:04,2021-08-23 17:39:16,Bushwick Ave & Powers St,5250,Bayard St & Leonard St,5442,40.71247661,-73.94100005,40.71915571696044,-73.94885390996933,member
739870,A76F35366927A1F6,classic_bike,2021-08-17 16:38:02,2021-08-17 16:48:22,Bushwick Ave & Powers St,5250,Broadway & Berry St,5164,40.71247661,-73.94100005,40.71044554,-73.96525063,member
739872,9683EC74B8CB27B8,classic_bike,2021-08-24 18:00:41,2021-08-24 18:07:02,Bushwick Ave & Powers St,5250,Bayard St & Leonard St,5442,40.71247661,-73.94100005,40.71915571696044,-73.94885390996933,member
740777,E5FED6D15CF8CBD9,classic_bike,2021-08-19 11:46:53,2021-08-19 11:56:13,Bushwick Ave & Powers St,5250,Broadway & Berry St,5164,40.71247661,-73.94100005,40.71044554,-73.96525063,casual
740782,AC1F5CF5AAB2BD13,classic_bike,2021-08-08 15:46:46,2021-08-08 15:54:59,Bushwick Ave & Powers St,5250,Bayard St & Leonard St,5442,40.71247661,-73.94100005,40.71915571696044,-73.94885390996933,casual
740981,CB7033F187F8411E,classic_bike,2021-08-17 09:11:58,2021-08-17 09:20:18,Bushwick Ave & Powers St,5250,Bayard St & Leonard St,5442,40.71247661,-73.94100005,40.71915571696044,-73.94885390996933,member
746986,437CEEE16CA1EFE8,electric_bike,2021-08-07 18:36:31,2021-08-07 19:04:20,Bushwick Ave & Powers St,5250,Allen St & Rivington St,5414,40.71247661,-73.94100005,40.72019576,-73.98997825,casual
747004,6039E18E3A0B3A17,classic_bike,2021-08-26 08:32:38,2021-08-26 08:50:38,Bushwick Ave & Powers St,5250,Franklin St & Dupont St,5944,40.71247661,-73.94100005,40.73564,-73.95866,member
747018,FBC5ECBDE92128C5,classic_bike,2021-08-20 17:56:06,2021-08-20 18:03:14,Bushwick Ave & Powers St,5250,Bayard St & Leonard St,5442,40.71247661,-73.94100005,40.71915571696044,-73.94885390996933,member
747080,5CEC9BA66E9491CF,classic_bike,2021-08-09 08:09:29,2021-08-09 08:32:39,Bushwick Ave & Powers St,5250,Franklin St & Dupont St,5944,40.71247661,-73.94100005,40.73564,-73.95866,member
747081,50B18DDBD2E04D9F,classic_bike,2021-08-20 08:13:26,2021-08-20 08:32:39,Bushwick Ave & Powers St,5250,Franklin St & Dupont St,5944,40.71247661,-73.94100005,40.73564,-73.95866,member
753274,F53AE93858A4D636,classic_bike,2021-08-24 04:37:32,2021-08-24 04:45:24,Bushwick Ave & Powers St,5250,Bayard St & Leonard St,5442,40.71247661,-73.94100005,40.71915571696044,-73.94885390996933,member
753518,3587D6318016980A,classic_bike,2021-08-14 09:38:29,2021-08-14 09:45:48,Bushwick Ave & Powers St,5250,Bayard St & Leonard St,5442,40.71247661,-73.94100005,40.71915571696044,-73.94885390996933,member
753519,49120E1376622146,classic_bike,2021-08-08 10:41:09,2021-08-08 10:49:23,Bushwick Ave & Powers St,5250,Bayard St & Leonard St,5442,40.71247661,-73.94100005,40.71915571696044,-73.94885390996933,member
753524,F9C097CB4C1EBE14,electric_bike,2021-08-13 23:38:41,2021-08-13 23:53:41,Bushwick Ave & Powers St,5250,Broadway & Berry St,5164,40.71247661,-73.94100005,40.71044554,-73.96525063,casual
753530,2E1D4E419F4E6AC5,classic_bike,2021-08-11 07:46:02,2021-08-11 07:54:45,Bushwick Ave & Powers St,5250,Bayard St & Leonard St,5442,40.71247661,-73.94100005,40.71915571696044,-73.94885390996933,casual
753549,3FD423680EE0DF35,classic_bike,2021-08-07 10:46:49,2021-08-07 10:59:01,Bushwick Ave & Powers St,5250,Franklin St & Dupont St,5944,40.71247661,-73.94100005,40.73564,-73.95866,member
754440,6DAEB8851933A0B8,classic_bike,2021-08-18 08:23:28,2021-08-18 08:40:10,Bushwick Ave & Powers St,5250,Franklin St & Dupont St,5944,40.71247661,-73.94100005,40.73564,-73.95866,member
754442,C5AAD988197EA3CC,classic_bike,2021-08-25 06:45:59,2021-08-25 06:53:21,Bushwick Ave & Powers St,5250,Bayard St & Leonard St,5442,40.71247661,-73.94100005,40.71915571696044,-73.94885390996933,member
754443,8A5F430A12AE8615,classic_bike,2021-08-25 08:25:46,2021-08-25 08:33:28,Bushwick Ave & Powers St,5250,Bayard St & Leonard St,5442,40.71247661,-73.94100005,40.71915571696044,-73.94885390996933,member
754445,C91A8DC0F30E07BD,classic_bike,2021-08-20 04:44:23,2021-08-20 04:50:50,Bushwick Ave & Powers St,5250,Bayard St & Leonard St,5442,40.71247661,-73.94100005,40.71915571696044,-73.94885390996933,member
754446,4E61075E9D457F29,classic_bike,2021-08-09 04:47:28,2021-08-09 04:55:05,Bushwick Ave & Powers St,5250,Bayard St & Leonard St,5442,40.71247661,-73.94100005,40.71915571696044,-73.94885390996933,member
754453,88F1701701DB71FB,classic_bike,2021-08-26 07:41:35,2021-08-26 07:51:38,Bushwick Ave & Powers St,5250,Bayard St & Leonard St,5442,40.71247661,-73.94100005,40.71915571696044,-73.94885390996933,member
754461,01A45B3FF19CFF06,classic_bike,2021-08-19 08:20:58,2021-08-19 08:39:05,Bushwick Ave & Powers St,5250,Franklin St & Dupont St,5944,40.71247661,-73.94100005,40.73564,-73.95866,member
754462,4C56EC640B0AF075,classic_bike,2021-08-17 08:11:08,2021-08-17 08:30:11,Bushwick Ave & Powers St,5250,Franklin St & Dupont St,5944,40.71247661,-73.94100005,40.73564,-73.95866,member
754988,5E86257BBFEBEAED,classic_bike,2021-08-25 08:19:33,2021-08-25 08:36:01,Bushwick Ave & Powers St,5250,Franklin St & Dupont St,5944,40.71247661,-73.94100005,40.73564,-73.95866,member
760335,CDCF712032A5F57C,classic_bike,2021-08-19 09:50:16,2021-08-19 09:58:04,Bushwick Ave & Powers St,5250,Bayard St & Leonard St,5442,40.71247661,-73.94100005,40.71915571696044,-73.94885390996933,member
760342,5676C19856AFAFE8,classic_bike,2021-08-14 08:04:51,2021-08-14 08:12:10,Bushwick Ave & Powers St,5250,Bayard St & Leonard St,5442,40.71247661,-73.94100005,40.71915571696044,-73.94885390996933,member
760344,7970AEF55E356134,classic_bike,2021-08-24 08:08:41,2021-08-24 08:26:50,Bushwick Ave & Powers St,5250,Franklin St & Dupont St,5944,40.71247661,-73.94100005,40.73564,-73.95866,member
760348,F6DE216ACF427E1A,classic_bike,2021-08-08 15:48:18,2021-08-08 15:55:02,Bushwick Ave & Powers St,5250,Bayard St & Leonard St,5442,40.71247661,-73.94100005,40.71915571696044,-73.94885390996933,member
760349,1AADE1FA7EEB7797,classic_bike,2021-08-16 08:13:00,2021-08-16 08:30:25,Bushwick Ave & Powers St,5250,Franklin St & Dupont St,5944,40.71247661,-73.94100005,40.73564,-73.95866,member
760366,F91CD7194C23526C,classic_bike,2021-08-10 16:12:30,2021-08-10 16:22:30,Bushwick Ave & Powers St,5250,Broadway & Berry St,5164,40.71247661,-73.94100005,40.71044554,-73.96525063,member
762187,058153EB33E9917B,electric_bike,2021-08-30 10:09:04,2021-08-30 10:18:26,Bushwick Ave & Powers St,5250,Melrose St & Broadway,4801,40.71247661,-73.94100005,40.697481,-73.935877,casual
771087,019B8790124ABAD3,classic_bike,2021-08-09 01:26:16,2021-08-09 01:46:21,Bushwick Ave & Powers St,5250,Melrose St & Broadway,4801,40.71247661,-73.94100005,40.697481,-73.935877,casual
773274,98CFA3B8FF20C676,classic_bike,2021-08-03 16:14:56,2021-08-03 16:25:03,Bushwick Ave & Powers St,5250,Melrose St & Broadway,4801,40.71247661,-73.94100005,40.697481,-73.935877,casual
773418,387CEB4978BF6307,classic_bike,2021-08-20 04:30:24,2021-08-20 04:40:32,Bushwick Ave & Powers St,5250,Melrose St & Broadway,4801,40.71247661,-73.94100005,40.697481,-73.935877,member
774556,2C37D1FBDB1B2D6C,classic_bike,2021-08-16 14:20:41,2021-08-16 14:36:46,Bushwick Ave & Powers St,5250,Melrose St & Broadway,4801,40.71247661,-73.94100005,40.697481,-73.935877,member
795919,3FC654890A3A6D55,electric_bike,2021-08-19 18:09:20,2021-08-19 18:29:26,Bushwick Ave & Powers St,5250,Spruce St & Gold St,5137,40.71247661,-73.94100005,40.7103231,-74.0043228,member
810602,89024C60D13EAB31,classic_bike,2021-08-07 19:16:18,2021-08-07 19:36:02,Bushwick Ave & Powers St,5250,Menahan St & Central Ave,4672,40.71247661,-73.94100005,40.69543,-73.9196,casual
815885,32886682D54DE87E,electric_bike,2021-08-02 19:26:04,2021-08-02 19:41:17,Bushwick Ave & Powers St,5250,Menahan St & Central Ave,4672,40.71247661,-73.94100005,40.69543,-73.9196,member
819291,A75AFAC1FE843CBD,classic_bike,2021-08-14 20:39:34,2021-08-14 21:00:50,Bushwick Ave & Powers St,5250,Adelphi St & Myrtle Ave,4620,40.71247661,-73.94100005,40.69308257,-73.97178913,member
823768,70087D53932081EB,electric_bike,2021-08-22 18:56:49,2021-08-22 19:13:41,Bushwick Ave & Powers St,5250,Menahan St & Central Ave,4672,40.71247661,-73.94100005,40.69543,-73.9196,casual
825838,F6397E3E952D0AFF,electric_bike,2021-08-01 19:13:19,2021-08-01 19:24:24,Bushwick Ave & Powers St,5250,Menahan St & Central Ave,4672,40.71247661,-73.94100005,40.69543,-73.9196,member
825863,16F6DDE57BDD3D70,electric_bike,2021-08-08 12:32:23,2021-08-08 12:50:43,Bushwick Ave & Powers St,5250,Forsyth St & Broome St,5453,40.71247661,-73.94100005,40.71893904,-73.99266288,member
833576,A9D3A007E3899097,classic_bike,2021-08-31 18:16:12,2021-08-31 18:22:53,Bushwick Ave & Powers St,5250,Frost St & Debevoise Ave,5433,40.71247661,-73.94100005,40.71882,-73.93948,member
833618,825190E899ECDD5D,classic_bike,2021-08-23 20:23:47,2021-08-23 20:32:28,Bushwick Ave & Powers St,5250,Frost St & Debevoise Ave,5433,40.71247661,-73.94100005,40.71882,-73.93948,member
833628,76A5101366DAD727,classic_bike,2021-08-03 19:30:14,2021-08-03 19:37:18,Bushwick Ave & Powers St,5250,Frost St & Debevoise Ave,5433,40.71247661,-73.94100005,40.71882,-73.93948,member
833645,3DB74C4BE07A477D,classic_bike,2021-08-21 17:45:45,2021-08-21 17:50:50,Bushwick Ave & Powers St,5250,Frost St & Debevoise Ave,5433,40.71247661,-73.94100005,40.71882,-73.93948,member
834528,181BAE4D8B29503D,electric_bike,2021-08-21 10:53:14,2021-08-21 10:59:14,Bushwick Ave & Powers St,5250,Frost St & Debevoise Ave,5433,40.71247661,-73.94100005,40.71882,-73.93948,casual
834560,9B30DC9B7ACAF8C2,classic_bike,2021-08-04 18:17:49,2021-08-04 18:22:16,Bushwick Ave & Powers St,5250,Frost St & Debevoise Ave,5433,40.71247661,-73.94100005,40.71882,-73.93948,member
836826,76564EFF47940B9E,classic_bike,2021-08-02 15:25:07,2021-08-02 15:30:48,Bushwick Ave & Powers St,5250,Frost St & Debevoise Ave,5433,40.71247661,-73.94100005,40.71882,-73.93948,member
840459,A12A19D585CB9DB4,classic_bike,2021-08-21 15:32:46,2021-08-21 15:47:51,Bushwick Ave & Powers St,5250,Suydam St & Knickerbocker Ave,4939,40.71247661,-73.94100005,40.702013,-73.923769,casual
841005,E59FA3CA3CC22EAF,classic_bike,2021-08-16 20:01:15,2021-08-16 20:06:19,Bushwick Ave & Powers St,5250,Frost St & Debevoise Ave,5433,40.71247661,-73.94100005,40.71882,-73.93948,member
842220,D0A362C6840062B4,docked_bike,2021-08-08 10:22:53,2021-08-08 10:34:04,Bushwick Ave & Powers St,5250,India St & Manhattan Ave,5826,40.712477,-73.941,40.732322,-73.955086,casual
842230,92F70A76F8FC7029,electric_bike,2021-08-01 16:01:36,2021-08-01 16:14:10,Bushwick Ave & Powers St,5250,Suydam St & Knickerbocker Ave,4939,40.71247661,-73.94100005,40.702013,-73.923769,casual
842238,E30BBD392A5BB8B1,classic_bike,2021-08-06 17:47:32,2021-08-06 18:10:43,Bushwick Ave & Powers St,5250,Cypress Ave & George St,4765,40.71247661,-73.94100005,40.69812,-73.90271,casual
842241,36C31A08439CF748,classic_bike,2021-08-08 22:38:46,2021-08-08 22:55:17,Bushwick Ave & Powers St,5250,Suydam St & Knickerbocker Ave,4939,40.71247661,-73.94100005,40.702013,-73.923769,casual
842656,8F73C845F5F32A54,classic_bike,2021-08-18 23:32:21,2021-08-18 23:37:38,Bushwick Ave & Powers St,5250,Frost St & Debevoise Ave,5433,40.71247661,-73.94100005,40.71882,-73.93948,member
846224,9F0CFA96BFEC6C8B,electric_bike,2021-08-18 21:03:47,2021-08-18 21:19:43,Bushwick Ave & Powers St,5250,Market St & Cherry St,5198,40.71247661,-73.94100005,40.71076228,-73.99400398,casual
846225,A006C26FC7714510,classic_bike,2021-08-04 19:56:10,2021-08-04 20:08:06,Bushwick Ave & Powers St,5250,Suydam St & Knickerbocker Ave,4939,40.71247661,-73.94100005,40.702013,-73.923769,casual
846373,5D7E342E9C803B52,classic_bike,2021-08-21 15:32:43,2021-08-21 15:47:41,Bushwick Ave & Powers St,5250,Suydam St & Knickerbocker Ave,4939,40.71247661,-73.94100005,40.702013,-73.923769,casual
850075,D2D208B9F6CDDE30,classic_bike,2021-08-13 20:29:31,2021-08-13 20:36:29,Bushwick Ave & Powers St,5250,Frost St & Debevoise Ave,5433,40.71247661,-73.94100005,40.71882,-73.93948,member
850090,F054E0C88899B4A3,classic_bike,2021-08-15 04:46:16,2021-08-15 05:01:13,Bushwick Ave & Powers St,5250,Suydam St & Knickerbocker Ave,4939,40.71247661,-73.94100005,40.702013,-73.923769,member
850167,87DECC9F413CF705,electric_bike,2021-08-17 12:05:25,2021-08-17 12:23:04,Bushwick Ave & Powers St,5250,Suydam St & Knickerbocker Ave,4939,40.71247661,-73.94100005,40.702013,-73.923769,member
851031,175EAC64A22CCA2E,classic_bike,2021-08-04 19:33:25,2021-08-04 19:37:54,Bushwick Ave & Powers St,5250,Frost St & Debevoise Ave,5433,40.71247661,-73.94100005,40.71882,-73.93948,member
851032,FC9C7F7DA04609EB,classic_bike,2021-08-17 23:25:35,2021-08-17 23:30:19,Bushwick Ave & Powers St,5250,Frost St & Debevoise Ave,5433,40.71247661,-73.94100005,40.71882,-73.93948,member
854754,DEB4188852C4E702,classic_bike,2021-08-09 16:15:14,2021-08-09 16:29:30,Bushwick Ave & Powers St,5250,Leonard St & Boerum St,5036,40.71247661,-73.94100005,40.70583339,-73.94644578,casual
854763,3B2F80060D07A22D,electric_bike,2021-08-24 18:14:08,2021-08-24 18:40:45,Bushwick Ave & Powers St,5250,Leonard St & Boerum St,5036,40.71247661,-73.94100005,40.70583339,-73.94644578,casual
854766,E37796AD400018D1,electric_bike,2021-08-13 19:08:52,2021-08-13 19:47:14,Bushwick Ave & Powers St,5250,Sullivan Pl & Franklin Ave,3704,40.71247661,-73.94100005,40.66407983678161,-73.96025128666679,casual
854771,8EBFDCF429BE1041,classic_bike,2021-08-21 17:50:59,2021-08-21 18:32:12,Bushwick Ave & Powers St,5250,Sullivan Pl & Franklin Ave,3704,40.71247661,-73.94100005,40.66407983678161,-73.96025128666679,casual
862968,857BAB068F5503C0,electric_bike,2021-08-17 18:55:05,2021-08-17 20:15:08,Bushwick Ave & Powers St,5250,Leonard St & Boerum St,5036,40.71247661,-73.94100005,40.70583339,-73.94644578,casual
863855,FF2ADF8D3B97A823,classic_bike,2021-08-14 00:22:03,2021-08-14 00:25:37,Bushwick Ave & Powers St,5250,White St & Moore St,4987,40.71247661,-73.94100005,40.704508,-73.9351,member
865348,68F04FE126B5BA30,classic_bike,2021-08-17 18:53:35,2021-08-17 20:20:07,Bushwick Ave & Powers St,5250,Leonard St & Boerum St,5036,40.71247661,-73.94100005,40.70583339,-73.94644578,casual
865352,CACD376759F0B473,classic_bike,2021-08-03 19:04:09,2021-08-03 19:09:35,Bushwick Ave & Powers St,5250,White St & Moore St,4987,40.71247661,-73.94100005,40.704508,-73.9351,member
865416,315E5A6AFCE0DAE8,docked_bike,2021-08-06 10:49:02,2021-08-06 10:56:21,Bushwick Ave & Powers St,5250,White St & Moore St,4987,40.712477,-73.941,40.704508,-73.9351,casual
865420,FCC1004F82E414F8,electric_bike,2021-08-03 19:27:38,2021-08-03 19:33:47,Bushwick Ave & Powers St,5250,White St & Moore St,4987,40.71247661,-73.94100005,40.704508,-73.9351,casual
865765,2A6791E9D6C648E6,electric_bike,2021-08-13 18:51:12,2021-08-13 19:10:45,Bushwick Ave & Powers St,5250,Allen St & Hester St,5342,40.71247661,-73.94100005,40.71605866,-73.99190759,member
865767,634D12E50BE14C88,classic_bike,2021-08-17 08:45:57,2021-08-17 08:52:59,Bushwick Ave & Powers St,5250,Leonard St & Boerum St,5036,40.71247661,-73.94100005,40.70583339,-73.94644578,member
868121,0431183699BFC324,classic_bike,2021-08-21 15:48:08,2021-08-21 15:54:27,Bushwick Ave & Powers St,5250,White St & Moore St,4987,40.71247661,-73.94100005,40.704508,-73.9351,member
868901,36434D6450A51511,classic_bike,2021-08-12 10:21:28,2021-08-12 10:51:06,Bushwick Ave & Powers St,5250,E 23 St & 1 Ave,5929,40.71247661,-73.94100005,40.736502,-73.97809472,casual
889711,4591DE957475EE96,classic_bike,2021-08-10 23:05:10,2021-08-10 23:15:06,Bushwick Ave & Powers St,5250,S 5 Pl & S 5 St,5125,40.71247661,-73.94100005,40.710451,-73.960876,member
895488,5AA90C289A1BDC71,classic_bike,2021-08-11 11:29:08,2021-08-11 11:42:38,Bushwick Ave & Powers St,5250,S 5 Pl & S 5 St,5125,40.71247661,-73.94100005,40.710451,-73.960876,casual
898182,C2C18D4F6D22A4E3,classic_bike,2021-08-13 00:08:58,2021-08-13 00:17:43,Bushwick Ave & Powers St,5250,S 5 Pl & S 5 St,5125,40.71247661,-73.94100005,40.710451,-73.960876,member
901289,9EE10CF914BF05B5,classic_bike,2021-08-18 22:51:35,2021-08-18 23:12:47,Bushwick Ave & Powers St,5250,Clinton Ave & Myrtle Ave,4651,40.71247661,-73.94100005,40.693261,-73.968896,casual
902635,6096452124199452,classic_bike,2021-08-15 11:09:23,2021-08-15 11:18:42,Bushwick Ave & Powers St,5250,S 5 Pl & S 5 St,5125,40.71247661,-73.94100005,40.710451,-73.960876,casual
902636,3A974500AAEDA753,classic_bike,2021-08-07 08:42:00,2021-08-07 08:51:06,Bushwick Ave & Powers St,5250,S 5 Pl & S 5 St,5125,40.71247661,-73.94100005,40.710451,-73.960876,casual
902655,1ED70D1A6A369C73,classic_bike,2021-08-17 18:40:51,2021-08-17 18:48:18,Bushwick Ave & Powers St,5250,S 5 Pl & S 5 St,5125,40.71247661,-73.94100005,40.710451,-73.960876,member
902660,75A8DC5B8A83BF49,classic_bike,2021-08-15 04:25:29,2021-08-15 04:41:14,Bushwick Ave & Powers St,5250,S 5 Pl & S 5 St,5125,40.71247661,-73.94100005,40.710451,-73.960876,member
902675,E72BAA7BAB9777CF,classic_bike,2021-08-04 22:46:20,2021-08-04 23:04:41,Bushwick Ave & Powers St,5250,Clinton Ave & Myrtle Ave,4651,40.71247661,-73.94100005,40.693261,-73.968896,member
902819,178798EA614F2A06,classic_bike,2021-08-13 18:37:56,2021-08-13 18:49:07,Bushwick Ave & Powers St,5250,Division Ave & Hooper St,5045,40.71247661,-73.94100005,40.70684203101325,-73.9544353965357,member
902920,8C2F8B0F30CF43CD,classic_bike,2021-08-18 03:12:50,2021-08-18 03:20:55,Bushwick Ave & Powers St,5250,S 5 Pl & S 5 St,5125,40.71247661,-73.94100005,40.710451,-73.960876,member
903534,0DD6568CF86B3B3E,classic_bike,2021-08-21 01:14:18,2021-08-21 01:24:15,Bushwick Ave & Powers St,5250,S 5 Pl & S 5 St,5125,40.71247661,-73.94100005,40.710451,-73.960876,member
903540,A561ED337F5344A1,electric_bike,2021-08-13 00:32:54,2021-08-13 00:39:41,Bushwick Ave & Powers St,5250,Division Ave & Hooper St,5045,40.71247661,-73.94100005,40.70684203101325,-73.9544353965357,member
903543,F3145C8188F7E27B,classic_bike,2021-08-03 11:05:33,2021-08-03 11:29:38,Bushwick Ave & Powers St,5250,Clinton Ave & Myrtle Ave,4651,40.71247661,-73.94100005,40.693261,-73.968896,member
903558,5345FB99048CAE78,classic_bike,2021-08-18 22:51:11,2021-08-18 23:12:44,Bushwick Ave & Powers St,5250,Clinton Ave & Myrtle Ave,4651,40.71247661,-73.94100005,40.693261,-73.968896,member
904132,FDD3B66F20FC675D,classic_bike,2021-08-03 17:48:12,2021-08-03 17:56:27,Bushwick Ave & Powers St,5250,Division Ave & Hooper St,5045,40.71247661,-73.94100005,40.70684203101325,-73.9544353965357,member
908118,BCFE079563634FEC,classic_bike,2021-08-17 08:37:27,2021-08-17 08:45:41,Bushwick Ave & Powers St,5250,S 5 Pl & S 5 St,5125,40.71247661,-73.94100005,40.710451,-73.960876,member
909025,C887D08957C43916,classic_bike,2021-08-17 16:44:45,2021-08-17 16:52:34,Bushwick Ave & Powers St,5250,S 5 Pl & S 5 St,5125,40.71247661,-73.94100005,40.710451,-73.960876,member
909036,ECB4BE743CBB04E5,classic_bike,2021-08-16 18:15:37,2021-08-16 18:23:47,Bushwick Ave & Powers St,5250,S 5 Pl & S 5 St,5125,40.71247661,-73.94100005,40.710451,-73.960876,member
932772,47E00B5A715EC780,classic_bike,2021-08-03 21:54:04,2021-08-03 22:01:25,Bushwick Ave & Powers St,5250,George St & Wilson Ave,4906,40.71247661,-73.94100005,40.702997,-73.92997,casual
934143,6C208DB9D0397166,electric_bike,2021-08-20 01:25:07,2021-08-20 01:32:05,Bushwick Ave & Powers St,5250,George St & Wilson Ave,4906,40.71247661,-73.94100005,40.702997,-73.92997,casual
934667,0A5FF3236C8DD438,classic_bike,2021-08-15 15:13:42,2021-08-15 15:39:47,Bushwick Ave & Powers St,5250,Old Slip & South St,4993,40.71247661,-73.94100005,40.70336686695866,-74.007867872715,member
937424,C3777253F453C3E5,electric_bike,2021-08-31 18:36:35,2021-08-31 19:12:16,Bushwick Ave & Powers St,5250,W 41 St & 8 Ave,6602,40.71247661,-73.94100005,40.75640548,-73.9900262,member
937439,7DF4BDA182053C35,classic_bike,2021-08-03 18:47:28,2021-08-03 18:55:26,Bushwick Ave & Powers St,5250,Central Ave & Flushing Ave,4947,40.71247661,-73.94100005,40.702831,-73.9333,casual
943180,BFF0B01FDD4A1DD3,classic_bike,2021-08-24 21:48:28,2021-08-24 21:56:44,Bushwick Ave & Powers St,5250,George St & Wilson Ave,4906,40.71247661,-73.94100005,40.702997,-73.92997,member
943335,62B0966554684B5C,classic_bike,2021-08-15 14:37:17,2021-08-15 14:51:39,Bushwick Ave & Powers St,5250,Central Ave & Flushing Ave,4947,40.71247661,-73.94100005,40.702831,-73.9333,casual
943336,0B3592A77315E678,classic_bike,2021-08-07 08:44:32,2021-08-07 09:19:13,Bushwick Ave & Powers St,5250,Bayard St & Baxter St,5351,40.71247661,-73.94100005,40.71602118,-73.99974372,casual
945090,32F5874B0615C87E,classic_bike,2021-08-01 15:24:46,2021-08-01 15:40:55,Bushwick Ave & Powers St,5250,Willoughby Ave & Tompkins Ave,4665,40.71247661,-73.94100005,40.69425403,-73.94626915,casual
948887,DC0751EE44391314,classic_bike,2021-08-15 18:18:08,2021-08-15 18:30:19,Bushwick Ave & Powers St,5250,George St & Wilson Ave,4906,40.71247661,-73.94100005,40.702997,-73.92997,casual
948929,73A9154CE87F46C9,classic_bike,2021-08-12 23:52:17,2021-08-13 00:00:33,Bushwick Ave & Powers St,5250,George St & Wilson Ave,4906,40.71247661,-73.94100005,40.702997,-73.92997,casual
948933,0E01C8737AD25CF5,electric_bike,2021-08-04 13:57:00,2021-08-04 14:09:40,Bushwick Ave & Powers St,5250,George St & Wilson Ave,4906,40.71247661,-73.94100005,40.702997,-73.92997,casual
948990,AC1DCF3292D347CB,electric_bike,2021-08-07 10:59:49,2021-08-07 11:19:43,Bushwick Ave & Powers St,5250,Bayard St & Baxter St,5351,40.71247661,-73.94100005,40.71602118,-73.99974372,member
952870,BEC43C68F39A56D3,classic_bike,2021-08-25 12:22:30,2021-08-25 12:54:18,Bushwick Ave & Powers St,5250,Old Slip & South St,4993,40.71247661,-73.94100005,40.70336686695866,-74.007867872715,member
954889,6BEF61AB93EA9425,classic_bike,2021-08-15 18:17:38,2021-08-15 18:30:17,Bushwick Ave & Powers St,5250,George St & Wilson Ave,4906,40.71247661,-73.94100005,40.702997,-73.92997,casual
957157,FDD2E8A203663DD8,electric_bike,2021-08-24 20:46:06,2021-08-24 20:53:59,Bushwick Ave & Powers St,5250,Stagg St & Union Ave,5117,40.71247661,-73.94100005,40.70877084,-73.95095259,casual
957336,4E816E75776116BE,classic_bike,2021-08-20 16:28:34,2021-08-20 16:36:22,Bushwick Ave & Powers St,5250,Stagg St & Union Ave,5117,40.71247661,-73.94100005,40.70877084,-73.95095259,member
961582,C2123C23C1108749,classic_bike,2021-08-12 07:44:36,2021-08-12 08:09:46,Bushwick Ave & Powers St,5250,Spruce St & Nassau St,5137,40.71247661,-73.94100005,40.71146364,-74.00552427,member
965047,E5141B2DBDCC449E,classic_bike,2021-08-20 16:29:15,2021-08-20 16:36:20,Bushwick Ave & Powers St,5250,Stagg St & Union Ave,5117,40.71247661,-73.94100005,40.70877084,-73.95095259,member
965079,2BDD7BB6C1EC2D49,classic_bike,2021-08-14 20:26:36,2021-08-14 20:32:30,Bushwick Ave & Powers St,5250,Stagg St & Union Ave,5117,40.71247661,-73.94100005,40.70877084,-73.95095259,member
965731,D436882C6169D813,classic_bike,2021-08-07 16:53:36,2021-08-07 16:59:25,Bushwick Ave & Powers St,5250,Stagg St & Union Ave,5117,40.71247661,-73.94100005,40.70877084,-73.95095259,member
966546,B6E84809FBF1425D,classic_bike,2021-08-21 14:44:33,2021-08-21 15:02:04,Bushwick Ave & Powers St,5250,Stagg St & Union Ave,5117,40.71247661,-73.94100005,40.70877084,-73.95095259,casual
966548,3A6E26D4495D5536,classic_bike,2021-08-18 22:06:55,2021-08-18 22:13:44,Bushwick Ave & Powers St,5250,Stagg St & Union Ave,5117,40.71247661,-73.94100005,40.70877084,-73.95095259,casual
966744,CDED7EC6F555F3EE,electric_bike,2021-08-19 18:08:08,2021-08-19 18:15:00,Bushwick Ave & Powers St,5250,Stagg St & Union Ave,5117,40.71247661,-73.94100005,40.70877084,-73.95095259,member
966754,EFDE629FBA2386A2,classic_bike,2021-08-24 22:00:31,2021-08-24 22:06:07,Bushwick Ave & Powers St,5250,Stagg St & Union Ave,5117,40.71247661,-73.94100005,40.70877084,-73.95095259,casual
978021,02CB0443BBAAF3DD,classic_bike,2021-08-04 19:40:08,2021-08-04 19:54:01,Bushwick Ave & Powers St,5250,Driggs Ave & N 9 St,5411,40.71247661,-73.94100005,40.71816969454208,-73.95520135760307,casual
978030,F9D2E9318565CF20,classic_bike,2021-08-06 21:38:27,2021-08-06 21:42:01,Bushwick Ave & Powers St,5250,Devoe St & Lorimer St,5259,40.71247661,-73.94100005,40.71335226222875,-73.9491033554077,casual
978032,314EB00BB1A7276D,classic_bike,2021-08-21 12:19:13,2021-08-21 13:07:17,Bushwick Ave & Powers St,5250,Fulton St & Waverly Ave,4345,40.71247661,-73.94100005,40.68323865460341,-73.96599590778351,casual
978034,F41D3A00FD9DB914,classic_bike,2021-08-01 10:20:18,2021-08-01 10:23:56,Bushwick Ave & Powers St,5250,Devoe St & Lorimer St,5259,40.71247661,-73.94100005,40.71335226222875,-73.9491033554077,casual
978057,70B7905792BF9896,electric_bike,2021-08-19 16:16:37,2021-08-19 16:28:50,Bushwick Ave & Powers St,5250,Driggs Ave & N 9 St,5411,40.71247661,-73.94100005,40.71816969454208,-73.95520135760307,member
978079,177E31942035628E,classic_bike,2021-08-25 21:19:37,2021-08-25 21:22:29,Bushwick Ave & Powers St,5250,Devoe St & Lorimer St,5259,40.71247661,-73.94100005,40.71335226222875,-73.9491033554077,member
978080,5F4A2F17C3C311D7,classic_bike,2021-08-04 20:10:11,2021-08-04 20:13:43,Bushwick Ave & Powers St,5250,Devoe St & Lorimer St,5259,40.71247661,-73.94100005,40.71335226222875,-73.9491033554077,member
978081,913190393390EC66,classic_bike,2021-08-04 20:15:05,2021-08-04 20:18:15,Bushwick Ave & Powers St,5250,Devoe St & Lorimer St,5259,40.71247661,-73.94100005,40.71335226222875,-73.9491033554077,member
978089,D2D034B75EFAE97B,classic_bike,2021-08-04 17:23:08,2021-08-04 17:41:20,Bushwick Ave & Powers St,5250,Driggs Ave & N 9 St,5411,40.71247661,-73.94100005,40.71816969454208,-73.95520135760307,member
978103,7E0085FCC9603EEC,classic_bike,2021-08-04 20:13:30,2021-08-04 20:16:15,Bushwick Ave & Powers St,5250,Devoe St & Lorimer St,5259,40.71247661,-73.94100005,40.71335226222875,-73.9491033554077,member
978106,ED36EE46B94337C7,electric_bike,2021-08-04 13:53:43,2021-08-04 14:02:30,Bushwick Ave & Powers St,5250,Driggs Ave & N 9 St,5411,40.71247661,-73.94100005,40.71816969454208,-73.95520135760307,member
978874,4F89266816CB4EAA,classic_bike,2021-08-10 18:25:02,2021-08-10 18:28:56,Bushwick Ave & Powers St,5250,Devoe St & Lorimer St,5259,40.71247661,-73.94100005,40.71335226222875,-73.9491033554077,member
980556,ADC22C0463BA95AD,classic_bike,2021-08-11 17:54:51,2021-08-11 17:59:02,Bushwick Ave & Powers St,5250,Devoe St & Lorimer St,5259,40.71247661,-73.94100005,40.71335226222875,-73.9491033554077,member
980559,67BBE9AD796FC0EC,classic_bike,2021-08-12 20:31:57,2021-08-12 20:35:05,Bushwick Ave & Powers St,5250,Devoe St & Lorimer St,5259,40.71247661,-73.94100005,40.71335226222875,-73.9491033554077,member
980561,2E3C4BC8388CE056,classic_bike,2021-08-14 01:30:17,2021-08-14 01:33:21,Bushwick Ave & Powers St,5250,Devoe St & Lorimer St,5259,40.71247661,-73.94100005,40.71335226222875,-73.9491033554077,member
980562,B421D5F42D42C394,classic_bike,2021-08-13 20:13:59,2021-08-13 20:17:45,Bushwick Ave & Powers St,5250,Devoe St & Lorimer St,5259,40.71247661,-73.94100005,40.71335226222875,-73.9491033554077,member
980563,88FCB7BDD6FD99FD,classic_bike,2021-08-13 20:06:30,2021-08-13 20:09:21,Bushwick Ave & Powers St,5250,Devoe St & Lorimer St,5259,40.71247661,-73.94100005,40.71335226222875,-73.9491033554077,member
981255,700EED09FCA90B6E,electric_bike,2021-08-17 19:56:54,2021-08-17 20:10:18,Bushwick Ave & Powers St,5250,Driggs Ave & N 9 St,5411,40.71247661,-73.94100005,40.71816969454208,-73.95520135760307,casual
981263,11020C96E0B81E0C,classic_bike,2021-08-06 01:09:00,2021-08-06 01:11:47,Bushwick Ave & Powers St,5250,Devoe St & Lorimer St,5259,40.71247661,-73.94100005,40.71335226222875,-73.9491033554077,member
981264,3E3C909B70268146,classic_bike,2021-08-21 18:36:58,2021-08-21 18:40:40,Bushwick Ave & Powers St,5250,Devoe St & Lorimer St,5259,40.71247661,-73.94100005,40.71335226222875,-73.9491033554077,member
981267,B7DEF2DFB36E0A35,classic_bike,2021-08-14 22:23:26,2021-08-14 22:28:41,Bushwick Ave & Powers St,5250,Devoe St & Lorimer St,5259,40.71247661,-73.94100005,40.71335226222875,-73.9491033554077,member
981282,587FE5645E76A3AF,electric_bike,2021-08-03 22:40:06,2021-08-03 22:43:01,Bushwick Ave & Powers St,5250,Devoe St & Lorimer St,5259,40.71247661,-73.94100005,40.71335226222875,-73.9491033554077,member
981283,3036FBBFC27FF021,classic_bike,2021-08-03 23:40:33,2021-08-03 23:43:51,Bushwick Ave & Powers St,5250,Devoe St & Lorimer St,5259,40.71247661,-73.94100005,40.71335226222875,-73.9491033554077,member
981371,A7EBDE6AF50AD700,electric_bike,2021-08-19 15:58:47,2021-08-19 16:04:32,Bushwick Ave & Powers St,5250,Driggs Ave & N 9 St,5411,40.71247661,-73.94100005,40.71816969454208,-73.95520135760307,member
981386,69C13FFE118986DF,classic_bike,2021-08-15 15:03:25,2021-08-15 15:15:23,Bushwick Ave & Powers St,5250,Driggs Ave & N 9 St,5411,40.71247661,-73.94100005,40.71816969454208,-73.95520135760307,member
982372,E20C71DBC2FF4F9A,classic_bike,2021-08-21 18:37:10,2021-08-21 18:40:47,Bushwick Ave & Powers St,5250,Devoe St & Lorimer St,5259,40.71247661,-73.94100005,40.71335226222875,-73.9491033554077,member
982685,41D854B3745A9B6E,classic_bike,2021-08-11 19:02:01,2021-08-11 19:12:18,Bushwick Ave & Powers St,5250,Driggs Ave & N 9 St,5411,40.71247661,-73.94100005,40.71816969454208,-73.95520135760307,casual
983215,C565CAC192BE9C3C,classic_bike,2021-08-14 18:07:52,2021-08-14 18:19:01,Bushwick Ave & Powers St,5250,Driggs Ave & N 9 St,5411,40.71247661,-73.94100005,40.71816969454208,-73.95520135760307,casual
983292,ED654DD0ABC15654,classic_bike,2021-08-18 22:10:19,2021-08-18 22:13:55,Bushwick Ave & Powers St,5250,Devoe St & Lorimer St,5259,40.71247661,-73.94100005,40.71335226222875,-73.9491033554077,member
983293,D284CB270B0BE29B,classic_bike,2021-08-19 19:23:15,2021-08-19 19:27:00,Bushwick Ave & Powers St,5250,Devoe St & Lorimer St,5259,40.71247661,-73.94100005,40.71335226222875,-73.9491033554077,member
983299,CA50E20A0678040E,classic_bike,2021-08-20 12:24:04,2021-08-20 12:29:25,Bushwick Ave & Powers St,5250,Devoe St & Lorimer St,5259,40.71247661,-73.94100005,40.71335226222875,-73.9491033554077,member
985094,8EB4CD096A166C22,classic_bike,2021-08-23 21:28:46,2021-08-23 21:32:11,Bushwick Ave & Powers St,5250,Devoe St & Lorimer St,5259,40.71247661,-73.94100005,40.71335226222875,-73.9491033554077,member
990181,2DFB637BE413C11E,classic_bike,2021-08-19 19:37:52,2021-08-19 19:41:49,Bushwick Ave & Powers St,5250,Devoe St & Lorimer St,5259,40.71247661,-73.94100005,40.71335226222875,-73.9491033554077,member
990183,00C8419959ACC1FE,classic_bike,2021-08-04 17:22:51,2021-08-04 17:40:56,Bushwick Ave & Powers St,5250,Driggs Ave & N 9 St,5411,40.71247661,-73.94100005,40.71816969454208,-73.95520135760307,member
990187,3C89ACC1E335B0A2,classic_bike,2021-08-21 15:34:04,2021-08-21 18:19:25,Bushwick Ave & Powers St,5250,Driggs Ave & N 9 St,5411,40.71247661,-73.94100005,40.71816969454208,-73.95520135760307,casual
991518,EE2818D2E8C48C73,classic_bike,2021-08-02 20:09:32,2021-08-02 20:12:37,Bushwick Ave & Powers St,5250,Devoe St & Lorimer St,5259,40.71247661,-73.94100005,40.71335226222875,-73.9491033554077,member
994762,7F13395EA4DD5CD1,classic_bike,2021-08-31 09:49:07,2021-08-31 10:01:09,Bushwick Ave & Powers St,5250,Pulaski St & Marcus Garvey Blvd,4656,40.71247661,-73.94100005,40.6933982,-73.939877,casual
996980,D7947547CCF77EA5,classic_bike,2021-08-16 15:54:31,2021-08-16 16:05:57,Bushwick Ave & Powers St,5250,Tompkins Ave & Hopkins St,4850,40.71247661,-73.94100005,40.69957608,-73.94708417,casual
996981,0A0C0D80BBF1C69B,electric_bike,2021-08-10 23:00:50,2021-08-10 23:03:59,Bushwick Ave & Powers St,5250,Richardson St & N Henry St,5433,40.71247661,-73.94100005,40.71907891179564,-73.94223690032959,casual
996990,85E20EFCA17C68B3,classic_bike,2021-08-16 13:41:25,2021-08-16 13:48:27,Bushwick Ave & Powers St,5250,Richardson St & N Henry St,5433,40.71247661,-73.94100005,40.71907891179564,-73.94223690032959,member
996995,9B143096C11243B5,classic_bike,2021-08-24 23:22:24,2021-08-25 00:13:54,Bushwick Ave & Powers St,5250,11 Ave & W 59 St,7059,40.71247661,-73.94100005,40.77149671054441,-73.99046033620834,casual
996996,A0099217B5266C94,electric_bike,2021-08-10 23:26:12,2021-08-10 23:33:39,Bushwick Ave & Powers St,5250,Pulaski St & Marcus Garvey Blvd,4656,40.71247661,-73.94100005,40.6933982,-73.939877,casual
997001,C1F7F7E0447222DE,classic_bike,2021-08-09 16:07:25,2021-08-09 16:16:27,Bushwick Ave & Powers St,5250,Richardson St & N Henry St,5433,40.71247661,-73.94100005,40.71907891179564,-73.94223690032959,casual
997005,0C894EA2B651CB30,electric_bike,2021-08-08 00:23:59,2021-08-08 00:36:04,Bushwick Ave & Powers St,5250,Pulaski St & Marcus Garvey Blvd,4656,40.71247661,-73.94100005,40.6933982,-73.939877,casual
997007,AA0B6CAC0D4BA6E0,classic_bike,2021-08-12 20:11:44,2021-08-12 20:30:06,Bushwick Ave & Powers St,5250,Richardson St & N Henry St,5433,40.71247661,-73.94100005,40.71907891179564,-73.94223690032959,casual
1008161,FC1341EB578ABA4C,classic_bike,2021-08-12 20:12:28,2021-08-12 20:30:05,Bushwick Ave & Powers St,5250,Richardson St & N Henry St,5433,40.71247661,-73.94100005,40.71907891179564,-73.94223690032959,casual
1008275,D0DD0F2461BD9624,classic_bike,2021-08-20 13:15:53,2021-08-20 13:28:30,Bushwick Ave & Powers St,5250,Tompkins Ave & Hopkins St,4850,40.71247661,-73.94100005,40.69957608,-73.94708417,member
1008333,2F58396B88E722A0,classic_bike,2021-08-13 23:28:09,2021-08-13 23:37:38,Bushwick Ave & Powers St,5250,Tompkins Ave & Hopkins St,4850,40.71247661,-73.94100005,40.69957608,-73.94708417,member
1011119,DE4FA1BD2F064B52,classic_bike,2021-08-12 21:25:04,2021-08-12 21:29:53,Bushwick Ave & Powers St,5250,Richardson St & N Henry St,5433,40.71247661,-73.94100005,40.71907891179564,-73.94223690032959,member
1011122,99B81104B9A89E72,classic_bike,2021-08-12 20:10:05,2021-08-12 20:29:58,Bushwick Ave & Powers St,5250,Richardson St & N Henry St,5433,40.71247661,-73.94100005,40.71907891179564,-73.94223690032959,member
1011192,4B3779FFEC676C22,electric_bike,2021-08-17 08:12:52,2021-08-17 08:33:00,Bushwick Ave & Powers St,5250,Bedford Ave & Bergen St,4066,40.71247661,-73.94100005,40.676368,-73.952918,casual
1011193,B4E3E1A4A4B8E8F2,classic_bike,2021-08-25 23:46:32,2021-08-26 00:07:39,Bushwick Ave & Powers St,5250,Tompkins Ave & Hopkins St,4850,40.71247661,-73.94100005,40.69957608,-73.94708417,casual
1011211,2A3AE25B001D0D45,electric_bike,2021-08-20 22:19:42,2021-08-20 22:53:39,Bushwick Ave & Powers St,5250,8 Ave & W 16 St,6072,40.71247661,-73.94100005,40.740983,-74.001702,member
1012098,319A18877E25E608,classic_bike,2021-08-20 15:31:49,2021-08-20 17:22:47,Bushwick Ave & Powers St,5250,Pulaski St & Marcus Garvey Blvd,4656,40.71247661,-73.94100005,40.6933982,-73.939877,casual
1012589,B15E6B4607DCAC8C,classic_bike,2021-08-05 15:01:46,2021-08-05 15:13:15,Bushwick Ave & Powers St,5250,Pulaski St & Marcus Garvey Blvd,4656,40.71247661,-73.94100005,40.6933982,-73.939877,casual
