,ride_id,rideable_type,started_at,ended_at,start_station_name,start_station_id,end_station_name,end_station_id,start_lat,start_lng,end_lat,end_lng,member_casual
6938,49E09E2D07284B40,electric_bike,2021-08-08 16:32:37,2021-08-08 16:43:27,Underhill Ave & Lincoln Pl,4042,DeKalb Ave & Hudson Ave,4513,40.6740123,-73.9671457,40.689888,-73.981013,member
6946,A81F5BDC41518999,electric_bike,2021-08-18 14:15:39,2021-08-18 14:22:55,Clermont Ave & Park Ave,4692,DeKalb Ave & Hudson Ave,4513,40.69573398,-73.97129668,40.689888,-73.981013,member
6956,0944F336D6D73CF5,classic_bike,2021-08-07 17:12:35,2021-08-07 17:18:55,Park Ave & St Edwards St,4700,DeKalb Ave & Hudson Ave,4513,40.69608941,-73.97803415,40.689888,-73.981013,member
6974,A37DA92B005337A2,classic_bike,2021-08-09 19:34:00,2021-08-09 19:37:08,Atlantic Ave & Fort Greene Pl,4354,DeKalb Ave & Hudson Ave,4513,40.68382604,-73.97632328,40.689888,-73.981013,member
6984,B986D15C9F3A1B9B,classic_bike,2021-08-09 09:57:13,2021-08-09 10:12:08,Emerson Pl & Myrtle Ave,4683,DeKalb Ave & Hudson Ave,4513,40.69363137,-73.96223558,40.689888,-73.981013,casual
7000,65B150945201E2D5,electric_bike,2021-08-24 22:40:52,2021-08-24 23:00:00,S 4 St & Wythe Ave,5204,DeKalb Ave & Hudson Ave,4513,40.71285887,-73.96590294,40.689888,-73.981013,casual
7003,17EC70589D256DF8,electric_bike,2021-08-12 06:21:59,2021-08-12 06:32:39,Monroe St & Tompkins Ave,4434,DeKalb Ave & Hudson Ave,4513,40.686203,-73.944694,40.689888,-73.981013,casual
7005,5727D2108F33A92F,electric_bike,2021-08-09 10:11:40,2021-08-09 10:35:07,Wyckoff Av & Jefferson St,5051,DeKalb Ave & Hudson Ave,4513,40.707165,-73.923711,40.689888,-73.981013,casual
7017,2A22F2C159F797F8,classic_bike,2021-08-01 19:29:44,2021-08-01 20:15:16,Knickerbocker Ave & Cooper St,4582,DeKalb Ave & Hudson Ave,4513,40.69081,-73.90448,40.689888,-73.981013,casual
7021,D616798350830109,classic_bike,2021-08-01 19:23:37,2021-08-01 19:44:40,Carlton Ave & Dean St,4199,DeKalb Ave & Hudson Ave,4513,40.6809741,-73.9710097,40.689888,-73.981013,casual
7026,A9C0BE584B4B8F04,classic_bike,2021-08-09 12:25:01,2021-08-09 12:30:13,DeKalb Ave & Vanderbilt Ave,4461,DeKalb Ave & Hudson Ave,4513,40.68940747,-73.96885458,40.689888,-73.981013,member
7057,EEB4C7099DC829CF,classic_bike,2021-08-14 18:02:27,2021-08-14 18:28:40,Melrose St & Broadway,4801,DeKalb Ave & Hudson Ave,4513,40.697481,-73.935877,40.689888,-73.981013,casual
7077,566897035C81156D,classic_bike,2021-08-28 20:25:39,2021-08-28 21:10:11,Grand St & Greene St,5500,DeKalb Ave & Hudson Ave,4513,40.72170005235607,-74.00238141417502,40.689888,-73.981013,casual
7100,44B4CBD026CECCF0,electric_bike,2021-08-16 14:55:29,2021-08-16 15:03:13,Carlton Ave & Dean St,4199,DeKalb Ave & Hudson Ave,4513,40.6809741,-73.9710097,40.689888,-73.981013,member
7101,448206E366B26FDF,classic_bike,2021-08-03 17:36:41,2021-08-03 17:58:00,Albany Ave & Fulton St,4237,DeKalb Ave & Hudson Ave,4513,40.6800105,-73.938475,40.689888,-73.981013,casual
7105,27699681A4B0EAB2,classic_bike,2021-08-29 16:32:26,2021-08-29 17:02:19,Wyckoff Av & Stanhope St,4931,DeKalb Ave & Hudson Ave,4513,40.703545,-73.917775,40.689888,-73.981013,member
7119,28DF5CE34D6A3797,classic_bike,2021-08-31 23:43:01,2021-09-01 00:07:14,Wyckoff Av & Stanhope St,4931,DeKalb Ave & Hudson Ave,4513,40.703545,-73.917775,40.689888,-73.981013,casual
7125,33492D040F55CA98,electric_bike,2021-08-06 17:53:18,2021-08-06 18:05:07,Kosciuszko St & Tompkins Ave,4553,DeKalb Ave & Hudson Ave,4513,40.69128258,-73.9452416,40.689888,-73.981013,casual
7126,745A8C65B45FB59A,classic_bike,2021-08-09 12:57:11,2021-08-09 13:13:33,Kosciuszko St & Tompkins Ave,4553,DeKalb Ave & Hudson Ave,4513,40.69128258,-73.9452416,40.689888,-73.981013,casual
7129,97F731FAD2A51C64,electric_bike,2021-08-10 07:12:55,2021-08-10 07:17:01,DeKalb Ave & Vanderbilt Ave,4461,DeKalb Ave & Hudson Ave,4513,40.68940747,-73.96885458,40.689888,-73.981013,member
7131,C11D09E22F3D1EDB,classic_bike,2021-08-11 14:33:30,2021-08-11 14:37:52,Lafayette Ave & St James Pl,4494,DeKalb Ave & Hudson Ave,4513,40.68851534,-73.9647628,40.689888,-73.981013,member
7132,58A8B16B1D93A10B,classic_bike,2021-08-12 13:07:26,2021-08-12 13:13:37,Lafayette Ave & St James Pl,4494,DeKalb Ave & Hudson Ave,4513,40.68851534,-73.9647628,40.689888,-73.981013,member
7172,2B54376D2AD254BC,classic_bike,2021-08-27 11:35:49,2021-08-27 11:39:32,Hanson Pl & Ashland Pl,4395,DeKalb Ave & Hudson Ave,4513,40.68506807308177,-73.97790759801863,40.689888,-73.981013,member
7174,6CBA5A17ECEA6BC0,electric_bike,2021-08-26 08:42:20,2021-08-26 08:49:34,Douglass St & 3 Ave,4217,DeKalb Ave & Hudson Ave,4513,40.6802133,-73.98432695,40.689888,-73.981013,member
7197,E3F76A2A21BC631D,classic_bike,2021-08-30 17:47:41,2021-08-30 17:52:55,Clinton Ave & Myrtle Ave,4651,DeKalb Ave & Hudson Ave,4513,40.693261,-73.968896,40.689888,-73.981013,member
7199,782C214232365555,electric_bike,2021-08-11 22:49:04,2021-08-11 23:00:49,Kingston Ave & Herkimer St,4205,DeKalb Ave & Hudson Ave,4513,40.67890679,-73.94142771,40.689888,-73.981013,casual
7219,15611F6AA3FFFA03,electric_bike,2021-08-15 15:32:48,2021-08-15 15:40:12,Emerson Pl & Myrtle Ave,4683,DeKalb Ave & Hudson Ave,4513,40.69363137,-73.96223558,40.689888,-73.981013,member
7220,AA1D86ED63ED322A,classic_bike,2021-08-11 11:05:53,2021-08-11 11:14:44,Emerson Pl & Myrtle Ave,4683,DeKalb Ave & Hudson Ave,4513,40.69363137,-73.96223558,40.689888,-73.981013,member
7221,B5BAC6D1A6917E9C,classic_bike,2021-08-25 21:48:25,2021-08-25 22:14:01,Schermerhorn St & Court St,4565,DeKalb Ave & Hudson Ave,4513,40.69102925677968,-73.99183362722397,40.689888,-73.981013,member
7223,635B25DC77E02CAC,classic_bike,2021-08-18 10:39:13,2021-08-18 10:49:05,Emerson Pl & Myrtle Ave,4683,DeKalb Ave & Hudson Ave,4513,40.69363137,-73.96223558,40.689888,-73.981013,member
12195,9C4D11A6A6EEB7B0,classic_bike,2021-08-28 12:54:21,2021-08-28 13:15:44,S 4 St & Wythe Ave,5204,Ashland Pl & Dekalb Ave,4513,40.71285887,-73.96590294,40.690065,-73.978776,member
12243,7271D1103B4F6DE2,classic_bike,2021-08-20 14:45:22,2021-08-20 14:50:02,Concord St & Bridge St,4781,Ashland Pl & Dekalb Ave,4513,40.69766564,-73.98476437,40.690065,-73.978776,casual
13570,3387133E2E779740,classic_bike,2021-08-19 06:04:45,2021-08-19 06:17:15,Underhill Ave & Lincoln Pl,4042,Ashland Pl & Dekalb Ave,4513,40.6740123,-73.9671457,40.690065,-73.978776,member
14884,A88DD13104794448,classic_bike,2021-08-27 19:46:45,2021-08-27 19:51:36,DeKalb Ave & Hudson Ave,4513,Adelphi St & Myrtle Ave,4620,40.689888,-73.981013,40.69308257,-73.97178913,member
33940,304A39FDAED8C982,classic_bike,2021-08-19 08:00:19,2021-08-19 08:14:39,Monroe St & Classon Ave,4336,DeKalb Ave & Hudson Ave,4513,40.6845683,-73.95881081,40.689888,-73.981013,member
33946,6138EA940370115E,classic_bike,2021-08-28 20:24:36,2021-08-28 21:10:11,Grand St & Greene St,5500,DeKalb Ave & Hudson Ave,4513,40.72170005235607,-74.00238141417502,40.689888,-73.981013,casual
33951,10302705385EB4BC,classic_bike,2021-08-16 16:46:30,2021-08-16 17:20:40,Duffield St & Willoughby St,4596,DeKalb Ave & Hudson Ave,4513,40.69221589,-73.9842844,40.689888,-73.981013,member
33973,200E979092116188,classic_bike,2021-08-16 12:21:19,2021-08-16 12:30:55,Washington Park,4546,DeKalb Ave & Hudson Ave,4513,40.6917823,-73.9737299,40.689888,-73.981013,member
33974,618C916162888FB5,classic_bike,2021-08-29 19:40:52,2021-08-29 20:01:12,Washington Park,4546,DeKalb Ave & Hudson Ave,4513,40.6917823,-73.9737299,40.689888,-73.981013,member
34006,A0BED3937F203F44,electric_bike,2021-08-10 21:58:08,2021-08-10 22:29:17,E 74 St & 1 Ave,6953,DeKalb Ave & Hudson Ave,4513,40.7689738,-73.95482273,40.689888,-73.981013,member
34008,E8B02284C99E9D1F,classic_bike,2021-08-20 07:29:42,2021-08-20 07:35:37,Willoughby Ave & Hall St,4611,DeKalb Ave & Hudson Ave,4513,40.69196035,-73.96536851,40.689888,-73.981013,member
34009,4C2D2E5E943B313C,classic_bike,2021-08-15 09:51:47,2021-08-15 09:59:18,Willoughby Ave & Hall St,4611,DeKalb Ave & Hudson Ave,4513,40.69196035,-73.96536851,40.689888,-73.981013,casual
34010,590E45280D306F83,classic_bike,2021-08-04 18:34:44,2021-08-04 18:41:38,Willoughby Ave & Hall St,4611,DeKalb Ave & Hudson Ave,4513,40.69196035,-73.96536851,40.689888,-73.981013,casual
35301,23852BD8B8B8ED62,classic_bike,2021-08-14 11:42:51,2021-08-14 11:47:50,DeKalb Ave & Hudson Ave,4513,Willoughby St & Fleet St,4628,40.689888,-73.981013,40.69196566,-73.9813018,casual
37210,237C96289AA4BEF8,electric_bike,2021-08-18 06:58:32,2021-08-18 07:27:21,Pershing Square North,6432,Ashland Pl & Dekalb Ave,4513,40.751873,-73.977706,40.690065,-73.978776,member
37250,E4A1DB96ACC5B358,classic_bike,2021-08-18 18:38:06,2021-08-18 18:46:34,Front St & Jay St,4895,Ashland Pl & Dekalb Ave,4513,40.702461,-73.986842,40.690065,-73.978776,member
37285,80882AB64D6883AF,electric_bike,2021-08-30 12:39:11,2021-08-30 12:55:53,S 3 St & Bedford Ave,5235,Ashland Pl & Dekalb Ave,4513,40.71260486,-73.96264403,40.690065,-73.978776,member
37315,89A96683F0E1AADE,classic_bike,2021-08-24 18:13:39,2021-08-24 18:35:11,S 4 St & Wythe Ave,5204,Ashland Pl & Dekalb Ave,4513,40.71285887,-73.96590294,40.690065,-73.978776,casual
38979,42B80562FCDECA9E,classic_bike,2021-08-29 14:37:10,2021-08-29 14:59:04,Broadway & Berry St,5164,Ashland Pl & Dekalb Ave,4513,40.71044554,-73.96525063,40.690065,-73.978776,casual
42959,B89BD6A1BD8B2BB5,classic_bike,2021-08-06 16:49:54,2021-08-06 16:54:26,DeKalb Ave & Hudson Ave,4513,Atlantic Ave & Fort Greene Pl,4354,40.689888,-73.981013,40.68382604,-73.97632328,member
42961,A1C45742D573469F,electric_bike,2021-08-11 07:45:37,2021-08-11 07:59:43,DeKalb Ave & Hudson Ave,4513,Murray St & Greenwich St,5288,40.689888,-73.981013,40.71485150526252,-74.01122331619263,member
50731,383A16D40F82AE18,classic_bike,2021-08-13 23:06:53,2021-08-13 23:53:58,DeKalb Ave & Hudson Ave,4513,Barclay St & Church St,5216,40.689888,-73.981013,40.71291224,-74.01020234,member
53490,5DCE1BF8CBC37ED1,electric_bike,2021-08-20 06:51:47,2021-08-20 07:13:18,DeKalb Ave & Hudson Ave,4513,53 St & 5 Ave,3129,40.689888,-73.981013,40.643371,-74.011884,member
53887,A528FC899A2A0819,classic_bike,2021-08-17 17:52:46,2021-08-17 17:56:47,DeKalb Ave & Hudson Ave,4513,Johnson St & Gold St,4668,40.689888,-73.981013,40.69474881,-73.98362464,member
55561,2F9F0166EE173E46,classic_bike,2021-08-01 13:33:17,2021-08-01 13:53:19,Ashland Pl & Dekalb Ave,4513,Kent Ave & N 7 St,5489,40.690065,-73.978776,40.72036775298455,-73.96165072917938,member
55566,223658430AA55BEC,classic_bike,2021-08-14 23:54:51,2021-08-15 00:01:12,DeKalb Ave & Hudson Ave,4513,Pacific St & Nevins St,4362,40.689888,-73.981013,40.6853761,-73.98302136,casual
57761,C29789F2FF1BB12E,electric_bike,2021-08-17 10:43:33,2021-08-17 10:49:33,DeKalb Ave & Hudson Ave,4513,Henry St & Atlantic Ave,4531,40.689888,-73.981013,40.69089272,-73.99612349,member
58327,B8B1E8CD253789E6,electric_bike,2021-08-21 01:54:09,2021-08-21 02:11:05,S 4 St & Wythe Ave,5204,DeKalb Ave & Hudson Ave,4513,40.71285887,-73.96590294,40.689888,-73.981013,member
58330,975D2ED0F62A8D72,classic_bike,2021-08-01 02:20:18,2021-08-01 02:51:10,Union Ave & Jackson St,5300,DeKalb Ave & Hudson Ave,4513,40.7160751,-73.952029,40.689888,-73.981013,casual
58338,E93A71DE21B2BB3D,classic_bike,2021-08-01 12:20:26,2021-08-01 12:38:37,Lewis Ave & Madison St,4425,DeKalb Ave & Hudson Ave,4513,40.686312,-73.935775,40.689888,-73.981013,casual
58339,6635DB6381FDCA01,classic_bike,2021-08-06 06:24:53,2021-08-06 06:26:46,DeKalb Ave & S Portland Ave,4546,DeKalb Ave & Hudson Ave,4513,40.68981035,-73.97493121,40.689888,-73.981013,casual
58345,AFECD1D4F791E169,classic_bike,2021-08-05 06:27:33,2021-08-05 06:29:09,DeKalb Ave & S Portland Ave,4546,DeKalb Ave & Hudson Ave,4513,40.68981035,-73.97493121,40.689888,-73.981013,casual
58352,7A87F5BE6FCCC477,classic_bike,2021-08-24 07:41:46,2021-08-24 07:58:51,S 3 St & Bedford Ave,5235,DeKalb Ave & Hudson Ave,4513,40.71260486,-73.96264403,40.689888,-73.981013,member
58379,D5ABBEE345E3DF2F,classic_bike,2021-08-03 22:00:25,2021-08-03 22:05:21,DeKalb Ave & Vanderbilt Ave,4461,DeKalb Ave & Hudson Ave,4513,40.68940747,-73.96885458,40.689888,-73.981013,member
58380,082B19648835ED64,classic_bike,2021-08-28 22:22:59,2021-08-28 22:26:56,DeKalb Ave & Vanderbilt Ave,4461,DeKalb Ave & Hudson Ave,4513,40.68940747,-73.96885458,40.689888,-73.981013,member
58391,94EAD25A962BC809,classic_bike,2021-08-13 08:59:23,2021-08-13 09:03:50,DeKalb Ave & Vanderbilt Ave,4461,DeKalb Ave & Hudson Ave,4513,40.68940747,-73.96885458,40.689888,-73.981013,member
58392,2E9B2940A4581B2D,electric_bike,2021-08-19 08:06:57,2021-08-19 08:10:43,DeKalb Ave & Vanderbilt Ave,4461,DeKalb Ave & Hudson Ave,4513,40.68940747,-73.96885458,40.689888,-73.981013,member
58393,78016D0030CE06DE,classic_bike,2021-08-14 11:05:29,2021-08-14 11:08:53,DeKalb Ave & Vanderbilt Ave,4461,DeKalb Ave & Hudson Ave,4513,40.68940747,-73.96885458,40.689888,-73.981013,member
58395,0148555B78086173,classic_bike,2021-08-24 18:44:15,2021-08-24 18:47:57,DeKalb Ave & Vanderbilt Ave,4461,DeKalb Ave & Hudson Ave,4513,40.68940747,-73.96885458,40.689888,-73.981013,member
58397,B139B5FFB53AF8F3,classic_bike,2021-08-18 09:04:17,2021-08-18 09:09:16,DeKalb Ave & Vanderbilt Ave,4461,DeKalb Ave & Hudson Ave,4513,40.68940747,-73.96885458,40.689888,-73.981013,casual
58398,BA7C11635E9E2D28,classic_bike,2021-08-30 07:48:08,2021-08-30 07:52:26,DeKalb Ave & Vanderbilt Ave,4461,DeKalb Ave & Hudson Ave,4513,40.68940747,-73.96885458,40.689888,-73.981013,casual
58405,A6B109AC4E96644E,electric_bike,2021-08-10 18:50:48,2021-08-10 19:16:26,E 30 St & Park Ave S,6206,DeKalb Ave & Hudson Ave,4513,40.74444921,-73.98303529,40.689888,-73.981013,member
58406,4B88B9536CAA6C54,electric_bike,2021-08-13 07:33:02,2021-08-13 07:37:33,Clermont Ave & Park Ave,4692,DeKalb Ave & Hudson Ave,4513,40.69573398,-73.97129668,40.689888,-73.981013,member
58409,DCC3F38015254DF6,classic_bike,2021-08-03 17:56:19,2021-08-03 18:14:18,Greene Ave & Nostrand Ave,4519,DeKalb Ave & Hudson Ave,4513,40.6883337,-73.950916,40.689888,-73.981013,member
58430,1E6C66A1F906B6CD,classic_bike,2021-08-17 14:08:17,2021-08-17 14:20:39,Kosciuszko St & Tompkins Ave,4553,DeKalb Ave & Hudson Ave,4513,40.69128258,-73.9452416,40.689888,-73.981013,member
58433,82D2CF0E11E59C27,classic_bike,2021-08-26 23:03:54,2021-08-26 23:12:29,Johnson St & Gold St,4668,DeKalb Ave & Hudson Ave,4513,40.69474881,-73.98362464,40.689888,-73.981013,member
58441,079BA6934C0C1FAA,classic_bike,2021-08-29 15:47:31,2021-08-29 16:13:48,Commerce St & Van Brunt St,4243,DeKalb Ave & Hudson Ave,4513,40.6812117,-74.00860912,40.689888,-73.981013,casual
58451,C03CB9C9EBB9222B,classic_bike,2021-08-13 14:52:41,2021-08-13 15:00:54,Willoughby Ave & Hall St,4611,DeKalb Ave & Hudson Ave,4513,40.69196035,-73.96536851,40.689888,-73.981013,member
58452,CB300D7501BF9E4A,classic_bike,2021-08-13 12:51:51,2021-08-13 12:59:17,Willoughby Ave & Hall St,4611,DeKalb Ave & Hudson Ave,4513,40.69196035,-73.96536851,40.689888,-73.981013,member
58453,D2AD183288B7B44B,classic_bike,2021-08-30 17:32:32,2021-08-30 17:38:09,Willoughby Ave & Hall St,4611,DeKalb Ave & Hudson Ave,4513,40.69196035,-73.96536851,40.689888,-73.981013,member
58454,C68C67AAA4B255FB,classic_bike,2021-08-30 08:12:32,2021-08-30 08:19:21,Willoughby Ave & Hall St,4611,DeKalb Ave & Hudson Ave,4513,40.69196035,-73.96536851,40.689888,-73.981013,member
58455,F7A50065A7462013,classic_bike,2021-08-23 14:13:01,2021-08-23 14:21:27,Lafayette Ave & Classon Ave,4452,DeKalb Ave & Hudson Ave,4513,40.68900443,-73.96023854,40.689888,-73.981013,member
58474,73E5291146BBE588,electric_bike,2021-08-30 20:03:17,2021-08-30 20:37:00,Dock St & Front St,4903,DeKalb Ave & Hudson Ave,4513,40.702709,-73.99253,40.689888,-73.981013,casual
58497,24536F2580A919E8,classic_bike,2021-08-01 12:20:16,2021-08-01 12:27:42,Warren St & Smith St,4371,DeKalb Ave & Hudson Ave,4513,40.68542400997018,-73.99127773940563,40.689888,-73.981013,member
58498,75F0057E4BB03688,classic_bike,2021-08-04 15:43:05,2021-08-04 15:50:48,Baltic St & 5 Ave,4208,DeKalb Ave & Hudson Ave,4513,40.6795766,-73.97854971,40.689888,-73.981013,member
58507,9F5C2A10F1264F88,classic_bike,2021-08-13 06:32:54,2021-08-13 06:37:49,Montague St & Clinton St,4677,DeKalb Ave & Hudson Ave,4513,40.6942715,-73.9923272,40.689888,-73.981013,member
58519,938D3D4E3BD16458,classic_bike,2021-08-28 11:23:43,2021-08-28 11:26:41,S Portland Ave & Hanson Pl,4354,DeKalb Ave & Hudson Ave,4513,40.68539567,-73.97431458,40.689888,-73.981013,member
58525,B4513CF747D80579,classic_bike,2021-08-15 12:06:09,2021-08-15 12:14:49,Lexington Ave & Classon Ave,4452,DeKalb Ave & Hudson Ave,4513,40.68676793,-73.95928168,40.689888,-73.981013,member
58532,7CE129659C583F81,classic_bike,2021-08-10 17:45:03,2021-08-10 17:50:35,Carlton Ave & Park Ave,4732,DeKalb Ave & Hudson Ave,4513,40.69580705,-73.97355569,40.689888,-73.981013,member
58534,B12399161EB29DDF,classic_bike,2021-08-11 17:31:32,2021-08-11 17:40:59,Washington Ave & Park Ave,4724,DeKalb Ave & Hudson Ave,4513,40.69610226,-73.96751037,40.689888,-73.981013,member
58539,780BC5746222947A,classic_bike,2021-08-10 17:51:32,2021-08-10 18:01:00,Washington Ave & Park Ave,4724,DeKalb Ave & Hudson Ave,4513,40.69610226,-73.96751037,40.689888,-73.981013,casual
58540,4A018944005D458B,classic_bike,2021-08-21 18:30:49,2021-08-21 18:40:38,Washington Ave & Park Ave,4724,DeKalb Ave & Hudson Ave,4513,40.69610226,-73.96751037,40.689888,-73.981013,casual
58546,83672DFA56E504A1,classic_bike,2021-08-21 13:47:26,2021-08-21 14:25:37,Banker St & Meserole Ave,5633,DeKalb Ave & Hudson Ave,4513,40.72606,-73.95621,40.689888,-73.981013,casual
58548,FF44A52675716ADB,classic_bike,2021-08-28 13:31:21,2021-08-28 13:48:54,1 St & 6 Ave,3946,DeKalb Ave & Hudson Ave,4513,40.672784,-73.979826,40.689888,-73.981013,member
58590,7E711DF5F98BF916,classic_bike,2021-08-17 08:51:16,2021-08-17 08:57:56,Lafayette Ave & St James Pl,4494,DeKalb Ave & Hudson Ave,4513,40.68851534,-73.9647628,40.689888,-73.981013,member
58593,04EF07C7E17A5A06,classic_bike,2021-08-15 13:36:18,2021-08-15 13:44:20,Fulton St & Waverly Ave,4345,DeKalb Ave & Hudson Ave,4513,40.68323865460341,-73.96599590778351,40.689888,-73.981013,casual
58596,08BD31B9862BD7AD,classic_bike,2021-08-24 14:57:57,2021-08-24 15:31:00,Onderdonk Ave & Gates Ave,4994,DeKalb Ave & Hudson Ave,4513,40.70413,-73.90737,40.689888,-73.981013,member
58615,6E0B3EC3B931CD59,classic_bike,2021-08-12 17:38:00,2021-08-12 17:44:33,Nassau St\t& Duffield St,4781,DeKalb Ave & Hudson Ave,4513,40.698477,-73.98384,40.689888,-73.981013,member
58643,1A3EAA74DBA5DF78,electric_bike,2021-08-14 16:23:15,2021-08-14 17:09:05,Dahill Rd & 12 Ave,3208,DeKalb Ave & Hudson Ave,4513,40.646037,-73.980963,40.689888,-73.981013,casual
58661,80857DA7F17EE592,classic_bike,2021-08-04 16:45:34,2021-08-04 16:55:35,Henry St & Atlantic Ave,4531,DeKalb Ave & Hudson Ave,4513,40.69089272,-73.99612349,40.689888,-73.981013,member
58663,EF51B78F42051D4B,classic_bike,2021-08-26 09:07:26,2021-08-26 09:14:15,Willoughby Ave & Hall St,4611,DeKalb Ave & Hudson Ave,4513,40.69196035,-73.96536851,40.689888,-73.981013,member
58664,E71F9D4C572B835D,classic_bike,2021-08-17 10:05:14,2021-08-17 10:12:36,Willoughby Ave & Hall St,4611,DeKalb Ave & Hudson Ave,4513,40.69196035,-73.96536851,40.689888,-73.981013,casual
58665,69DECCFE35D1C93C,classic_bike,2021-08-08 13:46:35,2021-08-08 13:57:29,Willoughby Ave & Hall St,4611,DeKalb Ave & Hudson Ave,4513,40.69196035,-73.96536851,40.689888,-73.981013,casual
58667,FCA4199D2831A64B,classic_bike,2021-08-12 07:13:01,2021-08-12 07:19:51,Willoughby Ave & Hall St,4611,DeKalb Ave & Hudson Ave,4513,40.69196035,-73.96536851,40.689888,-73.981013,casual
58670,7A05ACDC3C7C065B,electric_bike,2021-08-13 17:24:06,2021-08-13 18:24:01,Rockaway Ave & Bainbridge St,4285,DeKalb Ave & Hudson Ave,4513,40.68319988172761,-73.91166642308235,40.689888,-73.981013,casual
58673,42D942E6F8BFE57A,classic_bike,2021-08-18 01:09:17,2021-08-18 01:13:06,DeKalb Ave & Vanderbilt Ave,4461,DeKalb Ave & Hudson Ave,4513,40.68940747,-73.96885458,40.689888,-73.981013,member
58690,3BB135E9A5AE08B0,classic_bike,2021-08-09 14:09:45,2021-08-09 14:13:53,Myrtle Ave & St Edwards St,4659,DeKalb Ave & Hudson Ave,4513,40.69327018,-73.97703874,40.689888,-73.981013,casual
58694,0D577FD38646533A,classic_bike,2021-08-21 13:23:58,2021-08-21 13:28:50,Lafayette Ave & St James Pl,4494,DeKalb Ave & Hudson Ave,4513,40.68851534,-73.9647628,40.689888,-73.981013,member
58705,A3FC0DB527F1080D,electric_bike,2021-08-16 15:06:07,2021-08-16 15:15:42,Dock 72 Way & Market St,4804,DeKalb Ave & Hudson Ave,4513,40.69985,-73.97141,40.689888,-73.981013,casual
58706,53754E913C570444,classic_bike,2021-08-14 01:54:47,2021-08-14 02:10:08,Nostrand Ave & Myrtle Ave,4707,DeKalb Ave & Hudson Ave,4513,40.69527008,-73.95238108,40.689888,-73.981013,casual
58707,0F45AF6248CE20BC,electric_bike,2021-08-17 23:36:50,2021-08-17 23:47:30,Eastern Pkwy & Washington Ave,3928,DeKalb Ave & Hudson Ave,4513,40.6716493,-73.9631145,40.689888,-73.981013,casual
58708,583368B57EBF79BE,classic_bike,2021-08-09 15:17:59,2021-08-09 15:25:07,Lafayette Ave & Classon Ave,4452,DeKalb Ave & Hudson Ave,4513,40.68900443,-73.96023854,40.689888,-73.981013,member
58711,361D5DFDF1C7C359,classic_bike,2021-08-07 13:32:46,2021-08-07 13:39:42,Lafayette Ave & Classon Ave,4452,DeKalb Ave & Hudson Ave,4513,40.68900443,-73.96023854,40.689888,-73.981013,member
58722,66E55381C8DE1D1C,electric_bike,2021-08-19 08:21:35,2021-08-19 08:41:28,Central Ave & Himrod St,4713,DeKalb Ave & Hudson Ave,4513,40.69676,-73.92302,40.689888,-73.981013,casual
58725,AD35EA9FE4CB9BB5,electric_bike,2021-08-01 15:31:14,2021-08-01 15:50:54,S 3 St & Bedford Ave,5235,DeKalb Ave & Hudson Ave,4513,40.71260486,-73.96264403,40.689888,-73.981013,casual
58727,CDAE0F630AA93E30,electric_bike,2021-08-30 19:24:00,2021-08-30 19:46:15,Suydam St & Broadway,4689,DeKalb Ave & Hudson Ave,4513,40.69544,-73.93223,40.689888,-73.981013,casual
58738,DAEBE02518925DDB,electric_bike,2021-08-30 17:20:51,2021-08-30 17:43:35,St Marks Pl & 2 Ave,5669,DeKalb Ave & Hudson Ave,4513,40.7284186,-73.98713956,40.689888,-73.981013,member
58744,886236B858A01880,electric_bike,2021-08-19 06:36:48,2021-08-19 06:59:06,Wilson Ave & Troutman St,4864,DeKalb Ave & Hudson Ave,4513,40.70166,-73.92754,40.689888,-73.981013,casual
58747,67C3A783B1771766,classic_bike,2021-08-15 13:55:11,2021-08-15 14:16:16,Suydam St & Broadway,4689,DeKalb Ave & Hudson Ave,4513,40.69544,-73.93223,40.689888,-73.981013,casual
58776,A1D703C68C7341D5,electric_bike,2021-08-19 06:37:31,2021-08-19 06:59:11,Wilson Ave & Troutman St,4864,DeKalb Ave & Hudson Ave,4513,40.70166,-73.92754,40.689888,-73.981013,member
58778,10F9887D340F586D,classic_bike,2021-08-15 13:55:19,2021-08-15 14:16:03,Suydam St & Broadway,4689,DeKalb Ave & Hudson Ave,4513,40.69544,-73.93223,40.689888,-73.981013,member
58782,BBF3342D8937A57F,classic_bike,2021-08-16 19:07:34,2021-08-16 19:17:09,Lafayette Ave & St James Pl,4494,DeKalb Ave & Hudson Ave,4513,40.68851534,-73.9647628,40.689888,-73.981013,member
58783,9351A26286F38C37,classic_bike,2021-08-25 12:02:14,2021-08-25 12:49:43,West St & Liberty St,5184,DeKalb Ave & Hudson Ave,4513,40.711444,-74.014847,40.689888,-73.981013,member
58787,CA5EA4665DF2B40A,electric_bike,2021-08-29 19:46:34,2021-08-29 19:58:14,Bedford Ave & Bergen St,4066,DeKalb Ave & Hudson Ave,4513,40.676368,-73.952918,40.689888,-73.981013,member
58788,55388B1033F04DF5,docked_bike,2021-08-28 08:18:41,2021-08-28 08:44:26,Pulaski St & Marcus Garvey Blvd,4656,DeKalb Ave & Hudson Ave,4513,40.693398,-73.939877,40.689888,-73.981013,casual
58800,5CD3B51C784B277D,classic_bike,2021-08-01 10:35:00,2021-08-01 10:40:15,Clermont Ave & Lafayette Ave,4461,DeKalb Ave & Hudson Ave,4513,40.68764484,-73.96968902,40.689888,-73.981013,member
58808,5CC1532C90DF9FF9,classic_bike,2021-08-19 17:39:49,2021-08-19 17:48:59,Lexington Ave & Classon Ave,4452,DeKalb Ave & Hudson Ave,4513,40.68676793,-73.95928168,40.689888,-73.981013,member
58811,181165F4AAA719CD,classic_bike,2021-08-30 13:34:42,2021-08-30 13:41:39,Lexington Ave & Classon Ave,4452,DeKalb Ave & Hudson Ave,4513,40.68676793,-73.95928168,40.689888,-73.981013,member
58815,518B6A7E6D95920B,electric_bike,2021-08-13 04:28:20,2021-08-13 04:42:02,Sterling St & Bedford Ave,3665,DeKalb Ave & Hudson Ave,4513,40.6627059,-73.9569115,40.689888,-73.981013,casual
58816,6AF49FDB7113A842,electric_bike,2021-08-19 23:36:21,2021-08-19 23:55:35,Sterling St & Bedford Ave,3665,DeKalb Ave & Hudson Ave,4513,40.6627059,-73.9569115,40.689888,-73.981013,casual
58819,542609F1678AD95D,classic_bike,2021-08-21 15:29:42,2021-08-21 15:50:57,Bushwick Ave & McKibbin St,5027,DeKalb Ave & Hudson Ave,4513,40.705517,-73.93936,40.689888,-73.981013,member
58820,A285D08C273CE8D7,classic_bike,2021-08-23 13:26:13,2021-08-23 13:34:25,Bergen St & Flatbush Ave,4281,DeKalb Ave & Hudson Ave,4513,40.680944723477296,-73.97567331790923,40.689888,-73.981013,casual
58825,F80EA7B9C4239455,classic_bike,2021-08-08 16:29:06,2021-08-08 16:30:33,Willoughby St & Fleet St,4628,DeKalb Ave & Hudson Ave,4513,40.69196566,-73.9813018,40.689888,-73.981013,member
58826,2D4262F66F928680,classic_bike,2021-08-08 16:22:41,2021-08-08 16:23:55,Willoughby St & Fleet St,4628,DeKalb Ave & Hudson Ave,4513,40.69196566,-73.9813018,40.689888,-73.981013,member
58827,EA353A70D24C1365,classic_bike,2021-08-08 16:16:07,2021-08-08 16:17:31,Willoughby St & Fleet St,4628,DeKalb Ave & Hudson Ave,4513,40.69196566,-73.9813018,40.689888,-73.981013,member
58829,4AAC809A28F4C1F5,classic_bike,2021-08-22 16:45:37,2021-08-22 16:47:05,Willoughby St & Fleet St,4628,DeKalb Ave & Hudson Ave,4513,40.69196566,-73.9813018,40.689888,-73.981013,member
58832,64EEF03A18EA6825,classic_bike,2021-08-15 22:58:01,2021-08-15 23:06:11,Sands St Gate,4812,DeKalb Ave & Hudson Ave,4513,40.699569,-73.979827,40.689888,-73.981013,casual
58833,616E74B62ABD1900,classic_bike,2021-08-15 23:09:46,2021-08-15 23:16:09,Sands St Gate,4812,DeKalb Ave & Hudson Ave,4513,40.699569,-73.979827,40.689888,-73.981013,casual
58857,3588B19B77CE4AC2,classic_bike,2021-08-01 11:09:39,2021-08-01 11:17:31,Clinton Ave & Myrtle Ave,4651,DeKalb Ave & Hudson Ave,4513,40.693261,-73.968896,40.689888,-73.981013,member
58858,54EB9A29BD0B09B4,electric_bike,2021-08-05 23:17:27,2021-08-05 23:38:58,Barclay St & Church St,5216,DeKalb Ave & Hudson Ave,4513,40.71291224,-74.01020234,40.689888,-73.981013,member
58859,88EE654769173DAF,classic_bike,2021-08-10 08:53:56,2021-08-10 09:01:12,Clinton Ave & Myrtle Ave,4651,DeKalb Ave & Hudson Ave,4513,40.693261,-73.968896,40.689888,-73.981013,member
58865,6A1372CF948DB637,classic_bike,2021-08-20 08:49:41,2021-08-20 08:56:54,Clinton Ave & Myrtle Ave,4651,DeKalb Ave & Hudson Ave,4513,40.693261,-73.968896,40.689888,-73.981013,member
58868,F7A0EC3246DB0F52,classic_bike,2021-08-04 07:39:51,2021-08-04 07:51:08,Clinton Ave & Myrtle Ave,4651,DeKalb Ave & Hudson Ave,4513,40.693261,-73.968896,40.689888,-73.981013,casual
58871,96988DEE303587E3,classic_bike,2021-08-28 10:40:43,2021-08-28 11:15:24,South St & Whitehall St,4846,DeKalb Ave & Hudson Ave,4513,40.70122128,-74.01234218,40.689888,-73.981013,member
58879,87D5940AD15EEF95,classic_bike,2021-08-01 07:08:48,2021-08-01 07:22:05,Bond St & Bergen St,4404,DeKalb Ave & Hudson Ave,4513,40.6849668,-73.98620772,40.689888,-73.981013,member
58901,389E717717A39B85,classic_bike,2021-08-30 15:48:25,2021-08-30 16:03:34,Broadway & Berry St,5164,DeKalb Ave & Hudson Ave,4513,40.71044554,-73.96525063,40.689888,-73.981013,member
58902,46884A62EAF60F5D,classic_bike,2021-08-11 19:44:52,2021-08-11 19:49:08,Duffield St & Willoughby St,4596,DeKalb Ave & Hudson Ave,4513,40.69221589,-73.9842844,40.689888,-73.981013,member
58907,0C739C08EDEEA1EB,electric_bike,2021-08-15 18:06:17,2021-08-15 18:18:03,Monroe St & Tompkins Ave,4434,DeKalb Ave & Hudson Ave,4513,40.686203,-73.944694,40.689888,-73.981013,member
58910,27B648CA6EC0B69B,electric_bike,2021-08-16 18:29:59,2021-08-16 18:54:53,3 St & Prospect Park West,3865,DeKalb Ave & Hudson Ave,4513,40.668132,-73.97363831,40.689888,-73.981013,member
58920,8E9B2BFF533F8862,classic_bike,2021-08-19 13:21:29,2021-08-19 13:32:34,Flushing Ave & Vanderbilt Ave,4762,DeKalb Ave & Hudson Ave,4513,40.69795031569544,-73.97077560424805,40.689888,-73.981013,casual
58932,7172721494FC73A2,classic_bike,2021-08-12 07:46:23,2021-08-12 07:49:03,Duffield St & Willoughby St,4596,DeKalb Ave & Hudson Ave,4513,40.69221589,-73.9842844,40.689888,-73.981013,casual
58933,E9008365EED3F081,classic_bike,2021-08-24 18:56:29,2021-08-24 20:26:37,Suydam St & Knickerbocker Ave,4939,DeKalb Ave & Hudson Ave,4513,40.702013,-73.923769,40.689888,-73.981013,casual
58939,79263DA442507682,classic_bike,2021-08-26 01:19:39,2021-08-26 01:24:02,Myrtle Ave & Fleet Pl,4628,DeKalb Ave & Hudson Ave,4513,40.693534,-73.981909,40.689888,-73.981013,member
58945,5127B2DA8235E795,classic_bike,2021-08-07 21:45:31,2021-08-07 22:51:29,Sullivan Pl & Franklin Ave,3704,DeKalb Ave & Hudson Ave,4513,40.66407983678161,-73.96025128666679,40.689888,-73.981013,casual
58950,9A2C41C25DE9348C,classic_bike,2021-08-23 08:33:53,2021-08-23 08:39:19,Adelphi St & Myrtle Ave,4620,DeKalb Ave & Hudson Ave,4513,40.69308257,-73.97178913,40.689888,-73.981013,member
58952,65287033E34C691B,electric_bike,2021-08-15 17:54:23,2021-08-15 18:19:28,Menahan St & Central Ave,4672,DeKalb Ave & Hudson Ave,4513,40.69543,-73.9196,40.689888,-73.981013,casual
58970,947E8D374A7620C9,classic_bike,2021-08-17 09:18:00,2021-08-17 09:33:52,Monroe St & Tompkins Ave,4434,DeKalb Ave & Hudson Ave,4513,40.686203,-73.944694,40.689888,-73.981013,casual
58978,BA865329AA9A2EBC,electric_bike,2021-08-12 21:46:44,2021-08-12 21:55:46,Degraw St & Hoyt St,4258,DeKalb Ave & Hudson Ave,4513,40.68199044270703,-73.99079024791718,40.689888,-73.981013,casual
58997,CFD2FCB2DD334D10,classic_bike,2021-08-05 21:38:43,2021-08-05 21:44:11,Duffield St & Willoughby St,4596,DeKalb Ave & Hudson Ave,4513,40.69221589,-73.9842844,40.689888,-73.981013,casual
59012,5DC34D7664FCCA36,classic_bike,2021-08-28 19:48:46,2021-08-28 20:18:39,Washington Pl & Broadway,5755,DeKalb Ave & Hudson Ave,4513,40.72903917,-73.99404649,40.689888,-73.981013,member
59075,92F72AAF61E899C4,classic_bike,2021-08-30 19:24:57,2021-08-30 19:31:03,Clinton Ave & Myrtle Ave,4651,DeKalb Ave & Hudson Ave,4513,40.693261,-73.968896,40.689888,-73.981013,casual
59076,69D448B70B317823,classic_bike,2021-08-04 19:46:07,2021-08-04 19:53:15,Clinton Ave & Myrtle Ave,4651,DeKalb Ave & Hudson Ave,4513,40.693261,-73.968896,40.689888,-73.981013,casual
61300,4DBDC6507BC38794,classic_bike,2021-08-16 17:12:16,2021-08-16 17:21:46,Dock 72 Way & Market St,4804,DeKalb Ave & Hudson Ave,4513,40.69985,-73.97141,40.689888,-73.981013,member
64314,D98B24FA1AFDDE35,classic_bike,2021-08-03 18:46:13,2021-08-03 19:01:09,Berkeley Pl & 7 Ave,4051,Ashland Pl & Dekalb Ave,4513,40.675146838709786,-73.97523209452629,40.690065,-73.978776,member
64315,392BF67B935292CE,classic_bike,2021-08-05 22:57:11,2021-08-05 23:13:03,Berkeley Pl & 7 Ave,4051,Ashland Pl & Dekalb Ave,4513,40.675146838709786,-73.97523209452629,40.690065,-73.978776,casual
64340,6DFA6E03ADEF38AF,electric_bike,2021-08-12 14:57:05,2021-08-12 15:13:15,S 3 St & Bedford Ave,5235,Ashland Pl & Dekalb Ave,4513,40.71260486,-73.96264403,40.690065,-73.978776,member
64384,2E30DED2333F97E9,classic_bike,2021-08-21 17:47:13,2021-08-21 18:04:31,S 4 St & Wythe Ave,5204,Ashland Pl & Dekalb Ave,4513,40.71285887,-73.96590294,40.690065,-73.978776,member
64385,AD6933594E27C259,classic_bike,2021-08-21 16:04:12,2021-08-21 16:23:25,Monroe St & Tompkins Ave,4434,Ashland Pl & Dekalb Ave,4513,40.686203,-73.944694,40.690065,-73.978776,casual
64387,97808E4F90847B21,classic_bike,2021-08-21 16:06:06,2021-08-21 16:23:21,Monroe St & Tompkins Ave,4434,Ashland Pl & Dekalb Ave,4513,40.686203,-73.944694,40.690065,-73.978776,casual
64413,0D02A3C332375E4B,classic_bike,2021-08-06 15:43:23,2021-08-06 15:59:42,St Johns Pl & Washington Ave,4001,Ashland Pl & Dekalb Ave,4513,40.6737236,-73.9631611,40.690065,-73.978776,casual
64435,E495C3B080065836,classic_bike,2021-08-05 15:21:43,2021-08-05 15:48:56,Fulton St & Utica Ave,4228,Ashland Pl & Dekalb Ave,4513,40.6794268,-73.9298911,40.690065,-73.978776,casual
64440,D3F0F81B5FD3F8F5,classic_bike,2021-08-12 22:05:18,2021-08-12 22:24:42,Forsyth St & Canal St,5270,Ashland Pl & Dekalb Ave,4513,40.7158155,-73.99422366,40.690065,-73.978776,member
64538,BC4685090ABE1246,classic_bike,2021-08-03 21:06:26,2021-08-03 21:16:05,7 Ave & Park Pl,4125,Ashland Pl & Dekalb Ave,4513,40.6776147,-73.97324283,40.690065,-73.978776,casual
64556,E654FB1CD8DB08F2,classic_bike,2021-08-30 17:08:17,2021-08-30 17:15:34,Park Ave & St Edwards St,4700,Ashland Pl & Dekalb Ave,4513,40.69608941,-73.97803415,40.690065,-73.978776,member
64572,9DA13E469DAA86A5,classic_bike,2021-08-31 08:26:14,2021-08-31 08:31:48,Willoughby Ave & Hall St,4611,Ashland Pl & Dekalb Ave,4513,40.69196035,-73.96536851,40.690065,-73.978776,member
64573,E3CDE052DA99846E,classic_bike,2021-08-04 13:18:27,2021-08-04 13:25:29,7 Ave & Park Pl,4125,Ashland Pl & Dekalb Ave,4513,40.6776147,-73.97324283,40.690065,-73.978776,member
64604,B39111B5F8D52C3D,classic_bike,2021-08-20 18:12:45,2021-08-20 18:19:57,Myrtle Ave & St Edwards St,4659,Ashland Pl & Dekalb Ave,4513,40.69327018,-73.97703874,40.690065,-73.978776,casual
64652,7DD2F8244811FE00,classic_bike,2021-08-04 18:53:39,2021-08-04 18:59:23,Front St & Gold St,4927,Ashland Pl & Dekalb Ave,4513,40.70224,-73.982578,40.690065,-73.978776,member
64707,95B731673EC26E45,classic_bike,2021-08-18 13:13:14,2021-08-18 13:23:30,Adams St & Prospect St,4821,Ashland Pl & Dekalb Ave,4513,40.70076308326151,-73.98869812488556,40.690065,-73.978776,casual
64737,CE6F0E41C6DA3932,electric_bike,2021-08-17 08:53:21,2021-08-17 09:07:10,Eastern Pkwy & Franklin Ave,3919,Ashland Pl & Dekalb Ave,4513,40.6707767,-73.9576801,40.690065,-73.978776,casual
64749,A6E55F2A668D8390,classic_bike,2021-08-02 11:59:43,2021-08-02 12:24:08,Schermerhorn St & Court St,4565,Ashland Pl & Dekalb Ave,4513,40.69102925677968,-73.99183362722397,40.690065,-73.978776,member
64756,FE2A434F6EC2D158,classic_bike,2021-08-12 15:39:01,2021-08-12 15:51:26,Willoughby Ave & Walworth St,4634,Ashland Pl & Dekalb Ave,4513,40.69331716,-73.95381995,40.690065,-73.978776,casual
64777,1A9D5909BD5D9946,classic_bike,2021-08-03 09:35:29,2021-08-03 09:40:44,Willoughby Ave & Hall St,4611,Ashland Pl & Dekalb Ave,4513,40.69196035,-73.96536851,40.690065,-73.978776,member
64779,B70581F533560767,classic_bike,2021-08-07 19:20:55,2021-08-07 19:29:56,Willoughby Ave & Hall St,4611,Ashland Pl & Dekalb Ave,4513,40.69196035,-73.96536851,40.690065,-73.978776,member
64840,1644124CA504231E,classic_bike,2021-08-26 19:39:59,2021-08-26 20:01:25,Howard St & Centre St,5422,Ashland Pl & Dekalb Ave,4513,40.71910537,-73.99973337,40.690065,-73.978776,member
64849,C8F90010278570B8,classic_bike,2021-08-26 17:30:11,2021-08-26 17:38:50,Flushing Ave & Vanderbilt Ave,4762,Ashland Pl & Dekalb Ave,4513,40.69795031569544,-73.97077560424805,40.690065,-73.978776,casual
64852,6CB8BC5DAC566317,classic_bike,2021-08-17 19:14:20,2021-08-17 19:36:15,Bedford Ave & Montgomery St,3736,Ashland Pl & Dekalb Ave,4513,40.665816,-73.956934,40.690065,-73.978776,casual
64862,ACF95A29871D972D,classic_bike,2021-08-15 01:02:32,2021-08-15 01:06:35,DeKalb Ave & S Portland Ave,4546,Ashland Pl & Dekalb Ave,4513,40.68981035,-73.97493121,40.690065,-73.978776,member
64864,6678888C43AE52C5,classic_bike,2021-08-24 09:28:01,2021-08-24 09:47:31,N 6 St & Bedford Ave,5379,Ashland Pl & Dekalb Ave,4513,40.71745169,-73.95850939,40.690065,-73.978776,casual
64933,F9E0CDD0A06A6953,classic_bike,2021-08-07 09:44:41,2021-08-07 09:50:30,Washington Park,4546,Ashland Pl & Dekalb Ave,4513,40.6917823,-73.9737299,40.690065,-73.978776,member
64955,0970CF5F76476840,classic_bike,2021-08-06 08:41:37,2021-08-06 08:43:20,DeKalb Ave & Hudson Ave,4513,Ashland Pl & Dekalb Ave,4513,40.689888,-73.981013,40.690065,-73.978776,member
64960,4D06ABFF761AB8F5,classic_bike,2021-08-30 15:39:35,2021-08-30 15:49:59,Clermont Ave & Lafayette Ave,4461,Ashland Pl & Dekalb Ave,4513,40.68764484,-73.96968902,40.690065,-73.978776,member
64963,FDA87D460301A148,classic_bike,2021-08-04 08:28:35,2021-08-04 08:33:59,Willoughby Ave & Hall St,4611,Ashland Pl & Dekalb Ave,4513,40.69196035,-73.96536851,40.690065,-73.978776,member
64988,E8611E7DC0BE8136,classic_bike,2021-08-18 16:44:13,2021-08-18 17:01:23,Boerum Pl\t& Pacific St,4488,Ashland Pl & Dekalb Ave,4513,40.68848905639242,-73.99116039276123,40.690065,-73.978776,member
64991,8019B83C640E50E6,electric_bike,2021-08-09 21:17:20,2021-08-09 21:40:39,14 St & 7 Ave,3731,Ashland Pl & Dekalb Ave,4513,40.663779,-73.98396846,40.690065,-73.978776,casual
65002,F88587F3CDD1C6BC,classic_bike,2021-08-02 06:34:02,2021-08-02 06:38:22,Washington Park,4546,Ashland Pl & Dekalb Ave,4513,40.6917823,-73.9737299,40.690065,-73.978776,casual
65015,18DEB4B6A0CB4A61,classic_bike,2021-08-08 04:17:05,2021-08-08 04:36:00,S 3 St & Bedford Ave,5235,Ashland Pl & Dekalb Ave,4513,40.71260486,-73.96264403,40.690065,-73.978776,casual
65053,66434DCADB75CBB3,classic_bike,2021-08-28 20:08:37,2021-08-28 20:33:35,Driggs Ave & N 9 St,5411,Ashland Pl & Dekalb Ave,4513,40.71816969454208,-73.95520135760307,40.690065,-73.978776,casual
65056,2857AE0E2BF91FFD,electric_bike,2021-08-31 09:44:47,2021-08-31 10:11:58,Driggs Ave & N 9 St,5411,Ashland Pl & Dekalb Ave,4513,40.71816969454208,-73.95520135760307,40.690065,-73.978776,casual
65082,166FFF007E84D12F,classic_bike,2021-08-03 19:29:43,2021-08-03 19:37:21,Sands St Gate,4812,Ashland Pl & Dekalb Ave,4513,40.699569,-73.979827,40.690065,-73.978776,member
65085,44AE7AB803412673,classic_bike,2021-08-03 18:52:17,2021-08-03 19:06:23,Sands St & Jay St,4821,Ashland Pl & Dekalb Ave,4513,40.700119,-73.9862,40.690065,-73.978776,member
65092,546FD395351AB441,classic_bike,2021-08-13 06:47:06,2021-08-13 06:55:15,Clinton St & Joralemon St,4605,Ashland Pl & Dekalb Ave,4513,40.69239502,-73.99337909,40.690065,-73.978776,casual
65125,B4851E9320C1AC18,classic_bike,2021-08-18 14:27:02,2021-08-18 14:32:05,Nassau St\t& Duffield St,4781,Ashland Pl & Dekalb Ave,4513,40.698477,-73.98384,40.690065,-73.978776,casual
65144,77D637CCEA2BE526,classic_bike,2021-08-05 18:35:05,2021-08-05 18:35:11,Ashland Pl & Dekalb Ave,4513,Ashland Pl & Dekalb Ave,4513,40.690065,-73.978776,40.690065,-73.978776,member
65158,D8F942B4268BD455,classic_bike,2021-08-13 15:09:24,2021-08-13 15:17:26,Clinton Ave & Myrtle Ave,4651,Ashland Pl & Dekalb Ave,4513,40.693261,-73.968896,40.690065,-73.978776,member
65184,5B271AD2D68EB808,electric_bike,2021-08-24 16:58:46,2021-08-24 17:06:26,Franklin Ave & Myrtle Ave,4715,Ashland Pl & Dekalb Ave,4513,40.694546087246025,-73.95801365375519,40.690065,-73.978776,member
65200,ACE58FC496DE7C46,electric_bike,2021-08-10 22:40:58,2021-08-10 23:01:28,Eastern Pkwy & Franklin Ave,3919,Ashland Pl & Dekalb Ave,4513,40.6707767,-73.9576801,40.690065,-73.978776,member
65965,E6CA69E41F9C9147,classic_bike,2021-08-15 12:34:56,2021-08-15 12:45:12,Clinton Ave & Myrtle Ave,4651,Ashland Pl & Dekalb Ave,4513,40.693261,-73.968896,40.690065,-73.978776,member
66143,F16AF18FB9147142,electric_bike,2021-08-26 10:36:11,2021-08-26 10:46:21,Adams St & Prospect St,4821,Ashland Pl & Dekalb Ave,4513,40.70076308326151,-73.98869812488556,40.690065,-73.978776,member
70980,AC36A6445E6649AE,electric_bike,2021-08-14 03:26:36,2021-08-14 03:40:27,DeKalb Ave & Hudson Ave,4513,Monroe St & Bedford Ave,4368,40.689888,-73.981013,40.6851443,-73.95380904,casual
73240,6AA92DCCFD7B5993,classic_bike,2021-08-12 17:45:47,2021-08-12 17:53:49,DeKalb Ave & Hudson Ave,4513,DeKalb Ave & Vanderbilt Ave,4461,40.689888,-73.981013,40.68940747,-73.96885458,member
75715,AA5371F9CA10CEC4,classic_bike,2021-08-01 01:30:03,2021-08-01 01:47:27,DeKalb Ave & Hudson Ave,4513,10 St & 5 Ave,3842,40.689888,-73.981013,40.6686273,-73.98700053,casual
76857,93191569B7889B9D,classic_bike,2021-08-07 19:00:44,2021-08-07 19:23:06,Ashland Pl & Dekalb Ave,4513,Old Fulton St,4903,40.690065,-73.978776,40.70277159,-73.99383605,member
78410,6296B9254579128E,classic_bike,2021-08-12 15:27:59,2021-08-12 15:31:54,DeKalb Ave & Hudson Ave,4513,3 Ave & Schermerhorn St,4437,40.689888,-73.981013,40.68683208,-73.9796772,member
108236,BB9DD39D07930787,classic_bike,2021-08-11 18:58:39,2021-08-11 19:03:14,DeKalb Ave & Hudson Ave,4513,Myrtle Ave & Fleet Pl,4628,40.689888,-73.981013,40.693534,-73.981909,member
109096,3F771466CAE28D24,classic_bike,2021-08-30 13:05:23,2021-08-30 13:10:31,Ashland Pl & Dekalb Ave,4513,Myrtle Ave & Fleet Pl,4628,40.690065,-73.978776,40.693534,-73.981909,member
111239,E4FD62C3889B6C72,classic_bike,2021-08-05 14:28:37,2021-08-05 14:34:40,DeKalb Ave & Hudson Ave,4513,Lafayette Ave & St James Pl,4494,40.689888,-73.981013,40.68851534,-73.9647628,member
111240,3BF468597F9C45E9,electric_bike,2021-08-16 21:11:42,2021-08-16 21:22:15,DeKalb Ave & Hudson Ave,4513,Classon Ave & St Marks Ave,4074,40.689888,-73.981013,40.6765198,-73.9596082,member
120766,8F9A10A7DD744198,classic_bike,2021-08-11 14:42:12,2021-08-11 15:04:03,DeKalb Ave & Hudson Ave,4513,Clermont Ave & Park Ave,4692,40.689888,-73.981013,40.69573398,-73.97129668,member
122285,F30D92070D100F62,classic_bike,2021-08-20 18:37:29,2021-08-20 18:54:03,DeKalb Ave & Hudson Ave,4513,Pioneer St & Richards St,4128,40.689888,-73.981013,40.6777748,-74.0094613,member
122287,C9BC68E5E65C6B80,electric_bike,2021-08-26 19:05:07,2021-08-26 19:12:15,DeKalb Ave & Hudson Ave,4513,Clermont Ave & Park Ave,4692,40.689888,-73.981013,40.69573398,-73.97129668,member
122291,F071573F64406018,classic_bike,2021-08-16 20:33:53,2021-08-16 20:42:50,DeKalb Ave & Hudson Ave,4513,Clermont Ave & Park Ave,4692,40.689888,-73.981013,40.69573398,-73.97129668,casual
122295,A833199A90324410,classic_bike,2021-08-15 18:53:17,2021-08-15 19:03:40,DeKalb Ave & Hudson Ave,4513,Clermont Ave & Park Ave,4692,40.689888,-73.981013,40.69573398,-73.97129668,member
127438,2326BC300B1B2F38,classic_bike,2021-08-01 16:54:20,2021-08-01 17:11:26,DeKalb Ave & Hudson Ave,4513,Clinton Ave & Myrtle Ave,4651,40.689888,-73.981013,40.693261,-73.968896,casual
127439,E46B56C102FF0657,electric_bike,2021-08-19 20:21:52,2021-08-19 20:45:09,DeKalb Ave & Hudson Ave,4513,E 2 St & Avenue B,5515,40.689888,-73.981013,40.72217444,-73.98368779,casual
127440,E41B35C8244FEB45,electric_bike,2021-08-19 18:45:21,2021-08-19 18:59:40,DeKalb Ave & Hudson Ave,4513,S 5 Pl & S 5 St,5125,40.689888,-73.981013,40.710451,-73.960876,casual
132297,B5E579AA794FAC37,classic_bike,2021-08-26 17:30:32,2021-08-26 17:38:46,Flushing Ave & Vanderbilt Ave,4762,Ashland Pl & Dekalb Ave,4513,40.69795031569544,-73.97077560424805,40.690065,-73.978776,casual
132310,8E7B13A4F5F5212D,classic_bike,2021-08-20 11:10:23,2021-08-20 11:39:47,Central Ave & Starr Street,4792,Ashland Pl & Dekalb Ave,4513,40.700003,-73.92834,40.690065,-73.978776,casual
132314,B4DFA7ED53B1473A,electric_bike,2021-08-10 08:08:01,2021-08-10 08:15:06,Dock 72 Way & Market St,4804,Ashland Pl & Dekalb Ave,4513,40.69985,-73.97141,40.690065,-73.978776,member
132320,438E8F70FD21F44A,classic_bike,2021-08-09 08:13:23,2021-08-09 08:26:27,Congress St & Clinton St,4455,Ashland Pl & Dekalb Ave,4513,40.68825516598005,-73.99545192718506,40.690065,-73.978776,casual
132374,253D43F4B6FD6090,classic_bike,2021-08-03 08:41:16,2021-08-03 08:45:18,DeKalb Ave & Vanderbilt Ave,4461,Ashland Pl & Dekalb Ave,4513,40.68940747,-73.96885458,40.690065,-73.978776,member
132375,09F71E7810E013EB,electric_bike,2021-08-14 04:18:27,2021-08-14 04:21:26,DeKalb Ave & Vanderbilt Ave,4461,Ashland Pl & Dekalb Ave,4513,40.68940747,-73.96885458,40.690065,-73.978776,member
132456,24AFC87667495A9D,electric_bike,2021-08-19 07:37:01,2021-08-19 08:06:24,Pershing Square North,6432,Ashland Pl & Dekalb Ave,4513,40.751873,-73.977706,40.690065,-73.978776,member
132457,47AF5DF5292D8F47,electric_bike,2021-08-07 01:17:29,2021-08-07 01:44:21,Pershing Square North,6432,Ashland Pl & Dekalb Ave,4513,40.751873,-73.977706,40.690065,-73.978776,casual
132463,4CDBF2442B8F075F,classic_bike,2021-08-28 18:48:08,2021-08-28 19:00:19,Sands St & Jay St,4821,Ashland Pl & Dekalb Ave,4513,40.700119,-73.9862,40.690065,-73.978776,member
132502,ACAFB7EBAE7E7688,classic_bike,2021-08-06 19:03:42,2021-08-06 19:37:33,Bond St & Fulton St,4479,Ashland Pl & Dekalb Ave,4513,40.68962188790333,-73.98304268717766,40.690065,-73.978776,member
132503,06440D39945728A6,classic_bike,2021-08-06 20:13:14,2021-08-06 20:28:09,Division St & Bowery,5270,Ashland Pl & Dekalb Ave,4513,40.714193,-73.996732,40.690065,-73.978776,member
132528,17A9AB54395CCBBC,classic_bike,2021-08-06 12:01:14,2021-08-06 12:10:50,Sands St Gate,4812,Ashland Pl & Dekalb Ave,4513,40.699569,-73.979827,40.690065,-73.978776,casual
132599,B55DFA47ECFC96E2,classic_bike,2021-08-04 21:17:14,2021-08-04 21:25:31,Front St & Jay St,4895,Ashland Pl & Dekalb Ave,4513,40.702461,-73.986842,40.690065,-73.978776,member
132600,6E2E86519BDA9CF5,classic_bike,2021-08-02 04:27:28,2021-08-02 04:35:41,Front St & Jay St,4895,Ashland Pl & Dekalb Ave,4513,40.702461,-73.986842,40.690065,-73.978776,member
132607,13CCD0DF52A32CC1,classic_bike,2021-08-13 09:55:15,2021-08-13 10:00:14,Lafayette Ave & St James Pl,4494,Ashland Pl & Dekalb Ave,4513,40.68851534,-73.9647628,40.690065,-73.978776,member
132615,CDCC3B02ED0D6C42,classic_bike,2021-08-12 20:49:35,2021-08-12 20:55:08,Lawrence St & Willoughby St,4596,Ashland Pl & Dekalb Ave,4513,40.69236178,-73.98631746,40.690065,-73.978776,member
132651,574393F459D1BBBC,electric_bike,2021-08-14 09:28:29,2021-08-14 09:29:10,Ashland Pl & Dekalb Ave,4513,Ashland Pl & Dekalb Ave,4513,40.690065,-73.978776,40.690065,-73.978776,member
132653,8C51DC7F1F373DB0,electric_bike,2021-08-06 17:09:23,2021-08-06 17:16:17,Atlantic Ave & Furman St,4614,Ashland Pl & Dekalb Ave,4513,40.69165183,-73.9999786,40.690065,-73.978776,member
132660,DE804DFFEAC20777,electric_bike,2021-08-09 12:10:55,2021-08-09 12:40:33,1 Ave & E 68 St,6822,Ashland Pl & Dekalb Ave,4513,40.76500525,-73.95818491,40.690065,-73.978776,member
132690,930EFE9193E86E4A,classic_bike,2021-08-23 14:42:32,2021-08-23 14:46:31,DeKalb Ave & Vanderbilt Ave,4461,Ashland Pl & Dekalb Ave,4513,40.68940747,-73.96885458,40.690065,-73.978776,member
132692,CADA1DF45D9E1359,classic_bike,2021-08-17 18:13:40,2021-08-17 19:00:22,E 7 St & Avenue A,5626,Ashland Pl & Dekalb Ave,4513,40.72621788,-73.98379855,40.690065,-73.978776,member
132695,A274C03AC55A5376,classic_bike,2021-08-29 19:15:19,2021-08-29 19:45:22,Windsor Pl & Howard Pl,3579,Ashland Pl & Dekalb Ave,4513,40.65949055893896,-73.98013919591904,40.690065,-73.978776,member
132704,EE4475870D9F92E1,classic_bike,2021-08-31 18:55:02,2021-08-31 19:17:06,Suydam St & Broadway,4689,Ashland Pl & Dekalb Ave,4513,40.69544,-73.93223,40.690065,-73.978776,casual
132716,915809E268BC7F47,classic_bike,2021-08-07 00:22:26,2021-08-07 00:33:28,Adams St & Prospect St,4821,Ashland Pl & Dekalb Ave,4513,40.70076308326151,-73.98869812488556,40.690065,-73.978776,member
132740,6BEAD1EE5B9FB649,classic_bike,2021-08-23 15:06:33,2021-08-23 15:09:33,DeKalb Ave & Vanderbilt Ave,4461,Ashland Pl & Dekalb Ave,4513,40.68940747,-73.96885458,40.690065,-73.978776,member
132745,8EC963BECF00737B,classic_bike,2021-08-19 18:22:52,2021-08-19 18:41:34,S 3 St & Bedford Ave,5235,Ashland Pl & Dekalb Ave,4513,40.71260486,-73.96264403,40.690065,-73.978776,member
132746,BCEF0D24D66BABE0,electric_bike,2021-08-07 20:24:30,2021-08-07 20:34:30,Adams St & Prospect St,4821,Ashland Pl & Dekalb Ave,4513,40.70076308326151,-73.98869812488556,40.690065,-73.978776,member
132760,DC7E9FE4FD8B9B92,classic_bike,2021-08-29 14:38:45,2021-08-29 14:59:05,Broadway & Berry St,5164,Ashland Pl & Dekalb Ave,4513,40.71044554,-73.96525063,40.690065,-73.978776,casual
132762,1C71B211F89FD29D,classic_bike,2021-08-07 08:52:39,2021-08-07 09:09:39,DeKalb Ave & Hudson Ave,4513,DeKalb Ave & Franklin Ave,4528,40.689888,-73.981013,40.69064807082943,-73.95746178925037,casual
132772,4809D5369D0D2CD8,classic_bike,2021-08-10 18:58:06,2021-08-10 19:03:45,Carlton Ave & Flushing Ave,4732,Ashland Pl & Dekalb Ave,4513,40.697787,-73.973736,40.690065,-73.978776,member
132785,9D06062DFD97B0FB,classic_bike,2021-08-18 00:22:41,2021-08-18 00:50:25,2 Ave & 32 St,3532,Ashland Pl & Dekalb Ave,4513,40.659176,-74.006584,40.690065,-73.978776,member
132815,DF79FABA88AB9648,classic_bike,2021-08-26 08:52:33,2021-08-26 09:04:33,Montague St & Clinton St,4677,Ashland Pl & Dekalb Ave,4513,40.6942715,-73.9923272,40.690065,-73.978776,casual
132851,6AA2A3CFCBBA3764,classic_bike,2021-08-12 22:22:21,2021-08-12 22:33:21,Pierrepont St & Monroe Pl,4718,Ashland Pl & Dekalb Ave,4513,40.69535693320225,-73.99344027042389,40.690065,-73.978776,member
132945,4EED1F9E9130F025,classic_bike,2021-08-16 19:04:25,2021-08-16 19:30:00,Huron St & Franklin St,5869,Ashland Pl & Dekalb Ave,4513,40.73266,-73.95826,40.690065,-73.978776,member
133013,F2C5C7621CE9CAE8,electric_bike,2021-08-10 18:07:08,2021-08-10 18:31:33,E 16 St & Irving Pl,5938,Ashland Pl & Dekalb Ave,4513,40.735367055605394,-73.98797392845154,40.690065,-73.978776,member
133029,0A7B12ACB6CF980A,classic_bike,2021-08-31 08:27:01,2021-08-31 08:33:59,Bridge St & Water St,4968,Ashland Pl & Dekalb Ave,4513,40.70296934155272,-73.98469090461731,40.690065,-73.978776,casual
133030,5E16F6C3D87C13C4,electric_bike,2021-08-28 19:26:23,2021-08-28 19:53:56,Roebling St & N 4 St,5267,Ashland Pl & Dekalb Ave,4513,40.71469,-73.95739,40.690065,-73.978776,casual
133034,8892C888F51C9389,classic_bike,2021-08-20 17:58:05,2021-08-20 18:30:41,W 18 St & 6 Ave,6064,Ashland Pl & Dekalb Ave,4513,40.73971301,-73.99456405,40.690065,-73.978776,member
133066,3A26FE03BE1D38A6,classic_bike,2021-08-27 19:21:48,2021-08-27 19:47:11,Stockholm St & Wilson Ave,4824,Ashland Pl & Dekalb Ave,4513,40.699304,-73.923044,40.690065,-73.978776,member
133094,3B2222C0D773F608,classic_bike,2021-08-31 17:59:25,2021-08-31 18:02:35,Myrtle Ave & Fleet Pl,4628,Ashland Pl & Dekalb Ave,4513,40.693534,-73.981909,40.690065,-73.978776,member
133112,7A9283C23379C8EE,classic_bike,2021-08-01 11:30:29,2021-08-01 11:35:11,Nassau St & Navy St,4812,Ashland Pl & Dekalb Ave,4513,40.69839895,-73.98068914,40.690065,-73.978776,casual
133122,2923AD8A701292E2,classic_bike,2021-08-25 13:57:02,2021-08-25 14:02:00,Nassau St & Navy St,4812,Ashland Pl & Dekalb Ave,4513,40.69839895,-73.98068914,40.690065,-73.978776,member
133126,A83E8A6A7F935123,electric_bike,2021-08-18 19:26:56,2021-08-18 19:44:16,Willoughby Ave & Myrtle Ave,4759,Ashland Pl & Dekalb Ave,4513,40.69757,-73.93098,40.690065,-73.978776,member
133158,DD3F9C1CF0E7DE9A,electric_bike,2021-08-19 23:01:55,2021-08-19 23:13:18,Broadway & Berry St,5164,Ashland Pl & Dekalb Ave,4513,40.71044554,-73.96525063,40.690065,-73.978776,member
133554,80023C18E7AE4053,classic_bike,2021-08-19 18:22:38,2021-08-19 18:41:35,S 3 St & Bedford Ave,5235,Ashland Pl & Dekalb Ave,4513,40.71260486,-73.96264403,40.690065,-73.978776,casual
136202,CFFFA13DA806C0DD,classic_bike,2021-08-29 17:30:36,2021-08-29 18:22:35,DeKalb Ave & Hudson Ave,4513,17 St & 5 Ave,3699,40.689888,-73.981013,40.663493,-73.991007,member
136847,384E461061325E3A,classic_bike,2021-08-31 15:57:30,2021-08-31 16:10:55,Ashland Pl & Dekalb Ave,4513,Macon St & Nostrand Ave,4214,40.690065,-73.978776,40.6809833854,-73.9500479759,member
137016,CB1FD583DC3E5DE5,classic_bike,2021-08-18 19:19:52,2021-08-18 19:33:07,DeKalb Ave & Hudson Ave,4513,Front St & Washington St,4936,40.689888,-73.981013,40.70255088,-73.98940236,casual
137619,345BD4F61662824D,classic_bike,2021-08-10 16:56:27,2021-08-10 17:04:52,Ashland Pl & Dekalb Ave,4513,Clermont Ave & Lafayette Ave,4461,40.690065,-73.978776,40.68764484,-73.96968902,member
137622,B07C1CF984833B96,classic_bike,2021-08-26 13:09:00,2021-08-26 13:56:52,Ashland Pl & Dekalb Ave,4513,Underhill Ave & Pacific St,4231,40.690065,-73.978776,40.6804836,-73.9646795,member
139491,49CB5CC6A9643320,classic_bike,2021-08-10 00:36:26,2021-08-10 00:39:53,DeKalb Ave & Hudson Ave,4513,Lafayette Ave & Fort Greene Pl,4395,40.689888,-73.981013,40.68691865,-73.976682,member
148591,FB859D377C297119,classic_bike,2021-08-11 15:45:36,2021-08-11 16:04:36,DeKalb Ave & Hudson Ave,4513,Douglass St & 4 Ave,4175,40.689888,-73.981013,40.6792788,-73.98154004,casual
148605,71671B4589C6A2D2,classic_bike,2021-08-20 13:41:05,2021-08-20 13:45:29,DeKalb Ave & Hudson Ave,4513,Concord St & Bridge St,4781,40.689888,-73.981013,40.69766564,-73.98476437,member
151952,817B37342DCFE321,electric_bike,2021-08-26 18:35:46,2021-08-26 18:47:15,Ashland Pl & Dekalb Ave,4513,Hicks St & Montague St,4645,40.690065,-73.978776,40.69512845,-73.99595065,member
161321,AA7DDFF32170FE15,classic_bike,2021-08-27 17:24:47,2021-08-27 17:31:02,DeKalb Ave & Hudson Ave,4513,Dean St & Hoyt St,4446,40.689888,-73.981013,40.6864442,-73.98759104,member
164088,3C42E10283DDDDAC,classic_bike,2021-08-27 19:04:24,2021-08-27 19:27:12,DeKalb Ave & Hudson Ave,4513,Dean St & Franklin Ave,4107,40.689888,-73.981013,40.67759206937376,-73.955637216568,casual
165906,7B6B17B0E21DD1DA,classic_bike,2021-08-28 09:22:06,2021-08-28 09:50:03,Ashland Pl & Dekalb Ave,4513,Myrtle Ave & Grove St,4816,40.690065,-73.978776,40.69905,-73.91516,member
167635,FA615F41A0575B8C,electric_bike,2021-08-03 20:11:28,2021-08-03 20:24:26,DeKalb Ave & Hudson Ave,4513,Carlton Ave & Dean St,4199,40.689888,-73.981013,40.6809741,-73.9710097,casual
168528,6B4817B67E0C865C,classic_bike,2021-08-25 20:14:59,2021-08-25 20:25:08,DeKalb Ave & Hudson Ave,4513,Clinton Ave & Flushing Ave,4762,40.689888,-73.981013,40.69794,-73.96986848,casual
171275,78D377783299B9E3,classic_bike,2021-08-17 13:25:45,2021-08-17 13:48:43,DeKalb Ave & Hudson Ave,4513,Wyckoff St & Nevins St,4290,40.689888,-73.981013,40.683426,-73.984275,member
171276,94BD5C2894C8D303,classic_bike,2021-08-31 12:50:16,2021-08-31 12:59:14,DeKalb Ave & Hudson Ave,4513,Wyckoff St & Nevins St,4290,40.689888,-73.981013,40.683426,-73.984275,member
171278,BE26DD103B41D4B0,classic_bike,2021-08-14 19:26:41,2021-08-14 19:33:09,DeKalb Ave & Hudson Ave,4513,Wyckoff St & Nevins St,4290,40.689888,-73.981013,40.683426,-73.984275,casual
171735,A42D944E0A90A9F9,electric_bike,2021-08-11 09:12:09,2021-08-11 09:33:32,Ashland Pl & Dekalb Ave,4513,42 St & 1 Ave,3428,40.690065,-73.978776,40.654798,-74.014372,member
176333,54F34868D9A1243E,classic_bike,2021-08-10 08:27:06,2021-08-10 08:37:47,Ashland Pl & Dekalb Ave,4513,Cambridge Pl & Gates Ave,4377,40.690065,-73.978776,40.68488,-73.96304,member
183685,1904F1BC82CACFF1,classic_bike,2021-08-03 17:09:09,2021-08-03 17:34:45,DeKalb Ave & Hudson Ave,4513,Stanton St & Mangin St,5326,40.689888,-73.981013,40.71782143,-73.97628939,member
186473,8B81ACC4503C66B4,classic_bike,2021-08-30 15:11:00,2021-08-30 15:14:40,Ashland Pl & Dekalb Ave,4513,Bond St & Fulton St,4479,40.690065,-73.978776,40.68962188790333,-73.98304268717766,member
186941,EB239704BE6CA2A6,classic_bike,2021-08-08 15:16:24,2021-08-08 15:18:30,DeKalb Ave & Hudson Ave,4513,Bond St & Fulton St,4479,40.689888,-73.981013,40.68962188790333,-73.98304268717766,member
186942,068DF51BB3CDE2B1,electric_bike,2021-08-21 12:42:39,2021-08-21 12:49:13,DeKalb Ave & Hudson Ave,4513,Lafayette Ave & Classon Ave,4452,40.689888,-73.981013,40.68900443,-73.96023854,member
186944,F72EFF8A5A6E58B1,classic_bike,2021-08-24 21:27:05,2021-08-24 21:29:07,DeKalb Ave & Hudson Ave,4513,Bond St & Fulton St,4479,40.689888,-73.981013,40.68962188790333,-73.98304268717766,member
186953,A1FC2A1189D45DD1,classic_bike,2021-08-25 12:21:51,2021-08-25 12:23:00,DeKalb Ave & Hudson Ave,4513,Bond St & Fulton St,4479,40.689888,-73.981013,40.68962188790333,-73.98304268717766,member
186955,E2EBF420A5FCFED0,classic_bike,2021-08-18 00:39:18,2021-08-18 01:02:32,DeKalb Ave & Hudson Ave,4513,Lafayette Ave & Classon Ave,4452,40.689888,-73.981013,40.68900443,-73.96023854,casual
186957,D783ED4D4727B809,classic_bike,2021-08-13 19:10:20,2021-08-13 19:23:37,DeKalb Ave & Hudson Ave,4513,Lafayette Ave & Classon Ave,4452,40.689888,-73.981013,40.68900443,-73.96023854,member
186958,B75DDB98B736635B,electric_bike,2021-08-07 14:36:33,2021-08-07 14:44:29,DeKalb Ave & Hudson Ave,4513,Bond St & Fulton St,4479,40.689888,-73.981013,40.68962188790333,-73.98304268717766,casual
188814,0CF020323B75FC20,classic_bike,2021-08-19 11:25:32,2021-08-19 11:27:03,DeKalb Ave & Hudson Ave,4513,Bond St & Fulton St,4479,40.689888,-73.981013,40.68962188790333,-73.98304268717766,member
188933,1147A057BED644A6,classic_bike,2021-08-30 12:23:53,2021-08-30 12:25:25,DeKalb Ave & Hudson Ave,4513,Bond St & Fulton St,4479,40.689888,-73.981013,40.68962188790333,-73.98304268717766,member
188934,7831A1FFBEE841A7,classic_bike,2021-08-09 17:28:14,2021-08-09 17:36:20,DeKalb Ave & Hudson Ave,4513,Lafayette Ave & Classon Ave,4452,40.689888,-73.981013,40.68900443,-73.96023854,member
191558,540FC8BD3C9D16B1,electric_bike,2021-08-27 11:58:59,2021-08-27 12:15:46,DeKalb Ave & Hudson Ave,4513,Putnam Ave & Throop Ave,4392,40.689888,-73.981013,40.6851532,-73.94111,member
193412,64D3478F2252E839,electric_bike,2021-08-17 20:18:51,2021-08-17 20:40:36,Ashland Pl & Dekalb Ave,4513,Putnam Ave & Throop Ave,4392,40.690065,-73.978776,40.6851532,-73.94111,member
196539,51A41D4BF3104651,classic_bike,2021-08-01 15:20:22,2021-08-01 15:37:02,DeKalb Ave & Hudson Ave,4513,Columbia St & Kane St,4422,40.689888,-73.981013,40.68763155,-74.0016256,member
196540,49980BCF3FD9A96C,classic_bike,2021-08-07 19:04:31,2021-08-07 19:54:44,DeKalb Ave & Hudson Ave,4513,Columbia St & Kane St,4422,40.689888,-73.981013,40.68763155,-74.0016256,member
198531,47E0C5A0B017081B,classic_bike,2021-08-22 16:47:45,2021-08-22 16:51:13,DeKalb Ave & Hudson Ave,4513,Lawrence St & Willoughby St,4596,40.689888,-73.981013,40.69236178,-73.98631746,member
198532,553FC69677D0C97E,classic_bike,2021-08-30 06:40:11,2021-08-30 06:43:13,DeKalb Ave & Hudson Ave,4513,Lawrence St & Willoughby St,4596,40.689888,-73.981013,40.69236178,-73.98631746,member
201325,1C7C46388D7EFE8C,classic_bike,2021-08-17 22:53:49,2021-08-17 23:01:48,DeKalb Ave & Hudson Ave,4513,Degraw St & Smith St,4298,40.689888,-73.981013,40.6829151,-73.99318208,member
202951,6021E94906BCF16F,classic_bike,2021-08-07 02:41:30,2021-08-07 02:53:39,DeKalb Ave & Hudson Ave,4513,Degraw St & Smith St,4298,40.689888,-73.981013,40.6829151,-73.99318208,casual
206943,0C0DF3268E27A3F1,classic_bike,2021-08-18 20:18:03,2021-08-18 20:27:00,DeKalb Ave & Hudson Ave,4513,Dock 72 Way & Market St,4804,40.689888,-73.981013,40.69985,-73.97141,casual
206945,E554FEFD3AFFDDC1,classic_bike,2021-08-29 20:43:47,2021-08-29 20:52:38,DeKalb Ave & Hudson Ave,4513,Dock 72 Way & Market St,4804,40.689888,-73.981013,40.69985,-73.97141,casual
208656,D5E81D0385D30771,electric_bike,2021-08-08 17:10:01,2021-08-08 17:36:24,DeKalb Ave & Hudson Ave,4513,Perry St & Bleecker St,5922,40.689888,-73.981013,40.73535398,-74.00483091,casual
208672,A2E31AA65DD8A29C,classic_bike,2021-08-16 17:00:43,2021-08-16 17:16:41,DeKalb Ave & Hudson Ave,4513,Eastern Pkwy & Washington Ave,3928,40.689888,-73.981013,40.6716493,-73.9631145,member
211159,EA30320C63C187AD,classic_bike,2021-08-16 18:07:37,2021-08-16 18:14:37,DeKalb Ave & Hudson Ave,4513,Court St & State St,4488,40.689888,-73.981013,40.6902375,-73.99203074,member
211160,803A18A9D4660807,classic_bike,2021-08-10 16:57:53,2021-08-10 17:10:10,DeKalb Ave & Hudson Ave,4513,Court St & State St,4488,40.689888,-73.981013,40.6902375,-73.99203074,member
214159,91D5CCAE81CB2B35,classic_bike,2021-08-18 00:51:24,2021-08-18 01:40:39,Ashland Pl & Dekalb Ave,4513,38 Ave & 29 St,6538,40.690065,-73.978776,40.75473,-73.93367,member
215306,561495B67645BF5D,electric_bike,2021-08-07 15:26:18,2021-08-07 15:57:19,Bushwick Ave & Stagg St,5140,DeKalb Ave & Hudson Ave,4513,40.709897,-73.94008,40.689888,-73.981013,member
215354,66A7E5087FFB5904,classic_bike,2021-08-16 17:01:29,2021-08-16 17:08:01,Willoughby Ave & Hall St,4611,DeKalb Ave & Hudson Ave,4513,40.69196035,-73.96536851,40.689888,-73.981013,member
215355,352C66785BD38448,classic_bike,2021-08-18 08:14:06,2021-08-18 08:20:03,Willoughby Ave & Hall St,4611,DeKalb Ave & Hudson Ave,4513,40.69196035,-73.96536851,40.689888,-73.981013,member
215356,09219A8A2C751D55,classic_bike,2021-08-26 07:10:14,2021-08-26 07:16:55,Willoughby Ave & Hall St,4611,DeKalb Ave & Hudson Ave,4513,40.69196035,-73.96536851,40.689888,-73.981013,member
215358,6E5A0A679453740F,classic_bike,2021-08-20 08:14:44,2021-08-20 08:21:53,Willoughby Ave & Hall St,4611,DeKalb Ave & Hudson Ave,4513,40.69196035,-73.96536851,40.689888,-73.981013,member
215359,12C96D4A0C03E384,electric_bike,2021-08-05 14:16:59,2021-08-05 14:22:54,Willoughby Ave & Hall St,4611,DeKalb Ave & Hudson Ave,4513,40.69196035,-73.96536851,40.689888,-73.981013,member
215360,1C1B786E99F6A302,electric_bike,2021-08-18 16:20:10,2021-08-18 16:50:09,Van Buren St & Broadway,4568,DeKalb Ave & Hudson Ave,4513,40.692,-73.92617,40.689888,-73.981013,member
215361,C1A9DBC8A287933A,classic_bike,2021-08-18 19:33:55,2021-08-18 19:39:55,Willoughby Ave & Hall St,4611,DeKalb Ave & Hudson Ave,4513,40.69196035,-73.96536851,40.689888,-73.981013,member
215362,AA9EABF70FD703F1,classic_bike,2021-08-27 14:42:01,2021-08-27 14:48:58,Willoughby Ave & Hall St,4611,DeKalb Ave & Hudson Ave,4513,40.69196035,-73.96536851,40.689888,-73.981013,member
215363,DBEB252A13F68B2F,electric_bike,2021-08-17 21:21:37,2021-08-17 21:29:05,Willoughby Ave & Hall St,4611,DeKalb Ave & Hudson Ave,4513,40.69196035,-73.96536851,40.689888,-73.981013,member
215364,24FB10EFF1CE1F84,classic_bike,2021-08-16 17:17:37,2021-08-16 17:23:36,Willoughby Ave & Hall St,4611,DeKalb Ave & Hudson Ave,4513,40.69196035,-73.96536851,40.689888,-73.981013,member
215365,8F6B1F9C74BB367A,classic_bike,2021-08-13 21:16:14,2021-08-13 21:27:24,Willoughby Ave & Hall St,4611,DeKalb Ave & Hudson Ave,4513,40.69196035,-73.96536851,40.689888,-73.981013,member
215366,FE1D324D33A49535,classic_bike,2021-08-29 12:23:03,2021-08-29 12:38:54,Emerson Pl & Myrtle Ave,4683,DeKalb Ave & Hudson Ave,4513,40.69363137,-73.96223558,40.689888,-73.981013,casual
215367,AE1905896E86FDAD,electric_bike,2021-08-08 13:40:54,2021-08-08 13:48:59,Emerson Pl & Myrtle Ave,4683,DeKalb Ave & Hudson Ave,4513,40.69363137,-73.96223558,40.689888,-73.981013,casual
215368,5A86E29517072A68,classic_bike,2021-08-17 16:28:07,2021-08-17 16:38:21,Emerson Pl & Myrtle Ave,4683,DeKalb Ave & Hudson Ave,4513,40.69363137,-73.96223558,40.689888,-73.981013,casual
215369,8F54EEA0BEC45C19,electric_bike,2021-08-16 22:20:12,2021-08-16 22:36:55,Rockaway Ave & Bainbridge St,4285,DeKalb Ave & Hudson Ave,4513,40.68319988172761,-73.91166642308235,40.689888,-73.981013,member
215371,D8254F2EAA929815,classic_bike,2021-08-25 11:37:39,2021-08-25 11:46:03,Monroe St & Classon Ave,4336,DeKalb Ave & Hudson Ave,4513,40.6845683,-73.95881081,40.689888,-73.981013,member
215384,419BACBD6E0AACDA,electric_bike,2021-08-16 13:33:11,2021-08-16 13:40:42,Lafayette Ave & Classon Ave,4452,DeKalb Ave & Hudson Ave,4513,40.68900443,-73.96023854,40.689888,-73.981013,member
215387,FBEF3345D274BA1A,classic_bike,2021-08-09 10:16:05,2021-08-09 10:19:26,DeKalb Ave & Vanderbilt Ave,4461,DeKalb Ave & Hudson Ave,4513,40.68940747,-73.96885458,40.689888,-73.981013,member
215389,5787A689F4E91A03,classic_bike,2021-08-26 06:58:30,2021-08-26 07:01:52,DeKalb Ave & Vanderbilt Ave,4461,DeKalb Ave & Hudson Ave,4513,40.68940747,-73.96885458,40.689888,-73.981013,member
215393,330A37D92898C360,classic_bike,2021-08-06 09:10:24,2021-08-06 09:13:56,DeKalb Ave & Vanderbilt Ave,4461,DeKalb Ave & Hudson Ave,4513,40.68940747,-73.96885458,40.689888,-73.981013,member
215395,965728F6A9CB6893,classic_bike,2021-08-03 18:49:46,2021-08-03 18:56:55,DeKalb Ave & Vanderbilt Ave,4461,DeKalb Ave & Hudson Ave,4513,40.68940747,-73.96885458,40.689888,-73.981013,member
215399,2FD50A52E73AB428,classic_bike,2021-08-09 10:42:16,2021-08-09 10:46:34,DeKalb Ave & Vanderbilt Ave,4461,DeKalb Ave & Hudson Ave,4513,40.68940747,-73.96885458,40.689888,-73.981013,member
215401,23C05918A62DD536,classic_bike,2021-08-04 17:49:09,2021-08-04 17:55:12,DeKalb Ave & Vanderbilt Ave,4461,DeKalb Ave & Hudson Ave,4513,40.68940747,-73.96885458,40.689888,-73.981013,member
215402,BBDCE69020C8CD96,classic_bike,2021-08-26 14:02:38,2021-08-26 14:08:52,DeKalb Ave & Vanderbilt Ave,4461,DeKalb Ave & Hudson Ave,4513,40.68940747,-73.96885458,40.689888,-73.981013,member
215403,FDFF49CCECE5C235,classic_bike,2021-08-26 12:43:30,2021-08-26 12:48:21,DeKalb Ave & Vanderbilt Ave,4461,DeKalb Ave & Hudson Ave,4513,40.68940747,-73.96885458,40.689888,-73.981013,member
215416,D6AAEAE745AF2492,classic_bike,2021-08-20 18:24:11,2021-08-20 18:28:19,DeKalb Ave & Vanderbilt Ave,4461,DeKalb Ave & Hudson Ave,4513,40.68940747,-73.96885458,40.689888,-73.981013,member
215417,CE94488CC96F2AAF,classic_bike,2021-08-16 18:58:12,2021-08-16 19:02:28,DeKalb Ave & Vanderbilt Ave,4461,DeKalb Ave & Hudson Ave,4513,40.68940747,-73.96885458,40.689888,-73.981013,member
215423,8F5DFC103449DBD5,classic_bike,2021-08-16 08:04:11,2021-08-16 08:08:48,DeKalb Ave & Vanderbilt Ave,4461,DeKalb Ave & Hudson Ave,4513,40.68940747,-73.96885458,40.689888,-73.981013,member
215424,4A90CF1DBD5F1DDA,classic_bike,2021-08-20 08:01:09,2021-08-20 08:04:58,DeKalb Ave & Vanderbilt Ave,4461,DeKalb Ave & Hudson Ave,4513,40.68940747,-73.96885458,40.689888,-73.981013,member
215427,AF5566135F71FEF6,classic_bike,2021-08-12 09:30:29,2021-08-12 09:35:23,DeKalb Ave & Vanderbilt Ave,4461,DeKalb Ave & Hudson Ave,4513,40.68940747,-73.96885458,40.689888,-73.981013,member
215429,DF2FC61F92DFD85F,classic_bike,2021-08-30 10:51:17,2021-08-30 10:55:39,DeKalb Ave & Vanderbilt Ave,4461,DeKalb Ave & Hudson Ave,4513,40.68940747,-73.96885458,40.689888,-73.981013,member
215441,7AD910476C9E32C6,electric_bike,2021-08-12 15:31:52,2021-08-12 15:34:06,Ashland Pl & Dekalb Ave,4513,DeKalb Ave & Hudson Ave,4513,40.690065,-73.978776,40.689888,-73.981013,member
215446,08621E0EAB4941F3,classic_bike,2021-08-15 13:45:51,2021-08-15 13:48:15,3 Ave & Schermerhorn St,4437,DeKalb Ave & Hudson Ave,4513,40.68683208,-73.9796772,40.689888,-73.981013,member
215451,6C9CF1E03E4659E1,classic_bike,2021-08-29 14:14:29,2021-08-29 14:18:04,3 Ave & Schermerhorn St,4437,DeKalb Ave & Hudson Ave,4513,40.68683208,-73.9796772,40.689888,-73.981013,casual
215479,7B7220DEC7F34146,classic_bike,2021-08-06 21:58:02,2021-08-06 22:05:33,Sands St Gate,4812,DeKalb Ave & Hudson Ave,4513,40.699569,-73.979827,40.689888,-73.981013,casual
215513,0A7A97627F7943C3,classic_bike,2021-08-11 21:45:41,2021-08-11 21:57:02,Jay St & York St,4895,DeKalb Ave & Hudson Ave,4513,40.70140317257725,-73.98672670125961,40.689888,-73.981013,member
215571,5672E997C744A85D,classic_bike,2021-08-14 11:48:09,2021-08-14 12:04:20,Forsyth St & Canal St,5270,DeKalb Ave & Hudson Ave,4513,40.7158155,-73.99422366,40.689888,-73.981013,member
215577,9E0AAD4996D57931,classic_bike,2021-08-06 10:08:10,2021-08-06 10:23:08,Kosciuszko St & Tompkins Ave,4553,DeKalb Ave & Hudson Ave,4513,40.69128258,-73.9452416,40.689888,-73.981013,member
215586,3E65ECB301B40875,classic_bike,2021-08-18 15:54:09,2021-08-18 16:04:13,Washington Ave & Park Ave,4724,DeKalb Ave & Hudson Ave,4513,40.69610226,-73.96751037,40.689888,-73.981013,member
215587,2DD8AEEBF52EC2B3,electric_bike,2021-08-25 09:12:52,2021-08-25 09:19:35,Washington Ave & Park Ave,4724,DeKalb Ave & Hudson Ave,4513,40.69610226,-73.96751037,40.689888,-73.981013,casual
215589,22F9AC3606569012,classic_bike,2021-08-18 13:07:51,2021-08-18 13:13:46,Willoughby Ave & Hall St,4611,DeKalb Ave & Hudson Ave,4513,40.69196035,-73.96536851,40.689888,-73.981013,member
215608,5EB44C19F1439E05,electric_bike,2021-08-19 19:35:33,2021-08-19 20:03:40,Halsey St & Tompkins Ave,4319,DeKalb Ave & Hudson Ave,4513,40.6823687,-73.944118,40.689888,-73.981013,casual
215619,37A48D0171D22EE6,classic_bike,2021-08-23 12:42:44,2021-08-23 12:56:23,Columbia St & Kane St,4422,DeKalb Ave & Hudson Ave,4513,40.68763155,-74.0016256,40.689888,-73.981013,casual
215637,C4292214EC0A9D1A,electric_bike,2021-08-14 15:20:43,2021-08-14 15:32:13,Emerson Pl & Myrtle Ave,4683,DeKalb Ave & Hudson Ave,4513,40.69363137,-73.96223558,40.689888,-73.981013,member
215643,5CE2CD94B2BEDD60,classic_bike,2021-08-28 12:36:33,2021-08-28 12:40:55,Hanson Pl & Ashland Pl,4395,DeKalb Ave & Hudson Ave,4513,40.68506807308177,-73.97790759801863,40.689888,-73.981013,member
215644,40E61D69561B3AAE,classic_bike,2021-08-21 14:08:29,2021-08-21 14:17:13,Bergen St & Vanderbilt Ave,4157,DeKalb Ave & Hudson Ave,4513,40.6794388,-73.9680438,40.689888,-73.981013,member
215648,3EEFB7B9278CB182,classic_bike,2021-08-23 06:37:19,2021-08-23 06:41:17,Hanson Pl & Ashland Pl,4395,DeKalb Ave & Hudson Ave,4513,40.68506807308177,-73.97790759801863,40.689888,-73.981013,member
215649,81BFBB74FC746A10,classic_bike,2021-08-18 06:37:54,2021-08-18 06:41:02,Hanson Pl & Ashland Pl,4395,DeKalb Ave & Hudson Ave,4513,40.68506807308177,-73.97790759801863,40.689888,-73.981013,member
215650,1D29FE542345069C,classic_bike,2021-08-27 06:36:28,2021-08-27 06:39:56,Hanson Pl & Ashland Pl,4395,DeKalb Ave & Hudson Ave,4513,40.68506807308177,-73.97790759801863,40.689888,-73.981013,member
215660,85CA751B717342E9,classic_bike,2021-08-27 05:18:28,2021-08-27 05:23:20,Washington Park,4546,DeKalb Ave & Hudson Ave,4513,40.6917823,-73.9737299,40.689888,-73.981013,member
215661,D5E2EB6DE37640E1,classic_bike,2021-08-30 15:19:09,2021-08-30 15:22:02,Washington Park,4546,DeKalb Ave & Hudson Ave,4513,40.6917823,-73.9737299,40.689888,-73.981013,member
215672,FEC3E6115BFAD74D,electric_bike,2021-08-11 06:30:14,2021-08-11 06:33:41,Washington Park,4546,DeKalb Ave & Hudson Ave,4513,40.6917823,-73.9737299,40.689888,-73.981013,casual
215690,D192E69A04878088,classic_bike,2021-08-27 08:47:03,2021-08-27 08:53:32,Washington Park,4546,DeKalb Ave & Hudson Ave,4513,40.6917823,-73.9737299,40.689888,-73.981013,casual
215696,278CAE6B89653124,electric_bike,2021-08-31 06:23:50,2021-08-31 06:26:35,Washington Park,4546,DeKalb Ave & Hudson Ave,4513,40.6917823,-73.9737299,40.689888,-73.981013,casual
215698,460DA4AA303448F4,classic_bike,2021-08-12 08:59:48,2021-08-12 09:03:41,Washington Park,4546,DeKalb Ave & Hudson Ave,4513,40.6917823,-73.9737299,40.689888,-73.981013,casual
215701,F4F9B208F7C6C67D,classic_bike,2021-08-08 10:07:13,2021-08-08 10:20:12,Hancock St & Bedford Ave,4255,DeKalb Ave & Hudson Ave,4513,40.68216564,-73.95399026,40.689888,-73.981013,member
215718,4369ACC17E335CB8,classic_bike,2021-08-07 12:57:34,2021-08-07 13:07:56,Flushing Ave & Vanderbilt Ave,4762,DeKalb Ave & Hudson Ave,4513,40.69795031569544,-73.97077560424805,40.689888,-73.981013,casual
215720,0A87EF78F84D3042,electric_bike,2021-08-31 07:59:14,2021-08-31 08:05:44,Flushing Ave & Vanderbilt Ave,4762,DeKalb Ave & Hudson Ave,4513,40.69795031569544,-73.97077560424805,40.689888,-73.981013,member
215726,9435A50B22085CA2,classic_bike,2021-08-24 19:11:53,2021-08-24 19:20:17,Flushing Ave & Vanderbilt Ave,4762,DeKalb Ave & Hudson Ave,4513,40.69795031569544,-73.97077560424805,40.689888,-73.981013,member
215730,3F429A4D37E5BFF9,classic_bike,2021-08-18 21:08:41,2021-08-18 21:38:49,Driggs Ave & Lorimer St,5481,DeKalb Ave & Hudson Ave,4513,40.72179134,-73.9504154,40.689888,-73.981013,member
215735,072CA4AF0BBE3A9F,classic_bike,2021-08-01 12:45:51,2021-08-01 12:59:44,Front St & Washington St,4936,DeKalb Ave & Hudson Ave,4513,40.70255088,-73.98940236,40.689888,-73.981013,member
215736,E280B50EE812C3B9,classic_bike,2021-08-29 16:07:11,2021-08-29 16:24:01,Bushwick Ave & Harman St,4640,DeKalb Ave & Hudson Ave,4513,40.69356,-73.92524,40.689888,-73.981013,member
215742,2C284336CCB365AF,classic_bike,2021-08-23 10:35:32,2021-08-23 11:17:15,Willoughby Ave & Tompkins Ave,4665,DeKalb Ave & Hudson Ave,4513,40.69425403,-73.94626915,40.689888,-73.981013,member
215746,2879D94E333106E3,classic_bike,2021-08-29 16:46:13,2021-08-29 17:09:05,Atlantic Ave & Furman St,4614,DeKalb Ave & Hudson Ave,4513,40.69165183,-73.9999786,40.689888,-73.981013,member
215763,70736F6E4C330B3A,classic_bike,2021-08-11 16:55:39,2021-08-11 17:20:50,Bushwick Ave & Dekalb Ave,4680,DeKalb Ave & Hudson Ave,4513,40.69502,-73.92825,40.689888,-73.981013,casual
215768,1819D0878431FE3D,classic_bike,2021-08-07 10:24:06,2021-08-07 10:43:25,Grand Army Plaza & Plaza St West,4010,DeKalb Ave & Hudson Ave,4513,40.6729679,-73.97087984,40.689888,-73.981013,member
215773,73FD532A965D2BEB,electric_bike,2021-08-15 16:47:30,2021-08-15 17:46:45,Grand Army Plaza & Plaza St West,4010,DeKalb Ave & Hudson Ave,4513,40.6729679,-73.97087984,40.689888,-73.981013,casual
215816,FE60EDFCB203683B,classic_bike,2021-08-15 13:55:14,2021-08-15 14:18:00,Suydam St & Broadway,4689,DeKalb Ave & Hudson Ave,4513,40.69544,-73.93223,40.689888,-73.981013,member
215846,47F24F65A4F6F603,electric_bike,2021-08-08 13:43:54,2021-08-08 14:13:11,N 12 St & Bedford Ave,5450,DeKalb Ave & Hudson Ave,4513,40.72079821,-73.95484712,40.689888,-73.981013,casual
215850,859E9C0CA38FC2E3,electric_bike,2021-08-13 20:49:45,2021-08-13 22:16:29,Carroll St & 6 Ave,4019,DeKalb Ave & Hudson Ave,4513,40.6740886,-73.9787282,40.689888,-73.981013,casual
215855,543DA4FBDC381893,classic_bike,2021-08-25 23:18:32,2021-08-25 23:37:55,Smith St & 3 St,4151,DeKalb Ave & Hudson Ave,4513,40.6787242,-73.99599099,40.689888,-73.981013,member
215863,85AB87C58BA88FA4,classic_bike,2021-08-18 13:52:12,2021-08-18 13:56:50,DeKalb Ave & S Portland Ave,4546,DeKalb Ave & Hudson Ave,4513,40.68981035,-73.97493121,40.689888,-73.981013,member
215864,9C4CB1A2DB341179,electric_bike,2021-08-07 11:34:25,2021-08-07 11:49:47,Lewis Ave & Madison St,4425,DeKalb Ave & Hudson Ave,4513,40.686312,-73.935775,40.689888,-73.981013,member
215907,53DD8C06FEC4F256,electric_bike,2021-08-28 21:46:22,2021-08-28 22:10:47,Reade St & Broadway,5247,DeKalb Ave & Hudson Ave,4513,40.71450451,-74.00562789,40.689888,-73.981013,casual
215916,5CB994041A3604CC,classic_bike,2021-08-12 10:37:11,2021-08-12 10:45:01,Lafayette Ave & Classon Ave,4452,DeKalb Ave & Hudson Ave,4513,40.68900443,-73.96023854,40.689888,-73.981013,member
215922,70EFA269F3205FE4,electric_bike,2021-08-24 04:28:37,2021-08-24 04:35:03,Lafayette Ave & Classon Ave,4452,DeKalb Ave & Hudson Ave,4513,40.68900443,-73.96023854,40.689888,-73.981013,casual
215923,D14846F8DD2A5BA5,electric_bike,2021-08-10 18:30:37,2021-08-10 18:37:06,Lafayette Ave & Classon Ave,4452,DeKalb Ave & Hudson Ave,4513,40.68900443,-73.96023854,40.689888,-73.981013,casual
215929,9CDAA5F102201A6E,classic_bike,2021-08-14 15:45:54,2021-08-14 15:54:11,Emerson Pl & Myrtle Ave,4683,DeKalb Ave & Hudson Ave,4513,40.69363137,-73.96223558,40.689888,-73.981013,casual
215931,FE9D217F938E6AC5,electric_bike,2021-08-27 03:14:36,2021-08-27 03:21:38,Emerson Pl & Myrtle Ave,4683,DeKalb Ave & Hudson Ave,4513,40.69363137,-73.96223558,40.689888,-73.981013,member
215937,323B72546F978DC6,electric_bike,2021-08-19 07:47:33,2021-08-19 08:03:35,DeKalb Ave & Vanderbilt Ave,4461,DeKalb Ave & Hudson Ave,4513,40.68940747,-73.96885458,40.689888,-73.981013,member
215938,84B85A3DD8BCF5B7,classic_bike,2021-08-11 08:15:00,2021-08-11 08:19:38,DeKalb Ave & Vanderbilt Ave,4461,DeKalb Ave & Hudson Ave,4513,40.68940747,-73.96885458,40.689888,-73.981013,member
215939,C604BAE5A814C316,classic_bike,2021-08-24 08:17:16,2021-08-24 08:20:47,DeKalb Ave & Vanderbilt Ave,4461,DeKalb Ave & Hudson Ave,4513,40.68940747,-73.96885458,40.689888,-73.981013,member
215944,8452287CAB47F12B,electric_bike,2021-08-31 16:53:51,2021-08-31 17:12:20,Willoughby Ave & Wyckoff Ave,5010,DeKalb Ave & Hudson Ave,4513,40.705614,-73.92153,40.689888,-73.981013,casual
215945,4336BFF44C03F436,classic_bike,2021-08-17 08:12:22,2021-08-17 08:16:48,DeKalb Ave & Vanderbilt Ave,4461,DeKalb Ave & Hudson Ave,4513,40.68940747,-73.96885458,40.689888,-73.981013,casual
215946,BC710AE6CB65746C,classic_bike,2021-08-21 14:12:49,2021-08-21 14:17:16,DeKalb Ave & Vanderbilt Ave,4461,DeKalb Ave & Hudson Ave,4513,40.68940747,-73.96885458,40.689888,-73.981013,casual
215948,1A91DC8E0A3FD094,classic_bike,2021-08-18 21:52:52,2021-08-18 22:00:58,Willoughby St & Fleet St,4628,DeKalb Ave & Hudson Ave,4513,40.69196566,-73.9813018,40.689888,-73.981013,casual
215949,2175D2428C4E0A73,classic_bike,2021-08-10 07:54:06,2021-08-10 07:57:53,DeKalb Ave & Vanderbilt Ave,4461,DeKalb Ave & Hudson Ave,4513,40.68940747,-73.96885458,40.689888,-73.981013,member
215950,3D3BFFDE9AF67692,classic_bike,2021-08-03 18:16:50,2021-08-03 18:22:06,DeKalb Ave & Vanderbilt Ave,4461,DeKalb Ave & Hudson Ave,4513,40.68940747,-73.96885458,40.689888,-73.981013,member
215951,433A64B6D150E50D,classic_bike,2021-08-13 09:36:31,2021-08-13 09:43:25,DeKalb Ave & Vanderbilt Ave,4461,DeKalb Ave & Hudson Ave,4513,40.68940747,-73.96885458,40.689888,-73.981013,member
215961,072DD3A65BC94E41,classic_bike,2021-08-11 06:24:09,2021-08-11 06:31:40,Willoughby St & Fleet St,4628,DeKalb Ave & Hudson Ave,4513,40.69196566,-73.9813018,40.689888,-73.981013,member
215963,027A75281E139236,classic_bike,2021-08-30 11:53:23,2021-08-30 11:54:45,Willoughby St & Fleet St,4628,DeKalb Ave & Hudson Ave,4513,40.69196566,-73.9813018,40.689888,-73.981013,member
215969,685FCD49FF094587,classic_bike,2021-08-11 19:25:54,2021-08-11 19:39:05,Columbia Heights & Cranberry St,4829,DeKalb Ave & Hudson Ave,4513,40.70037867,-73.99548059,40.689888,-73.981013,casual
215975,F0EC9AD8E301C0AF,classic_bike,2021-08-16 18:28:34,2021-08-16 18:41:19,Dock St & Front St,4903,DeKalb Ave & Hudson Ave,4513,40.702709,-73.99253,40.689888,-73.981013,casual
215983,3F87E413EE40126D,classic_bike,2021-08-09 12:24:22,2021-08-09 12:31:20,Clermont Ave & Park Ave,4692,DeKalb Ave & Hudson Ave,4513,40.69573398,-73.97129668,40.689888,-73.981013,member
216011,2FC459057C2F64EF,classic_bike,2021-08-11 07:21:37,2021-08-11 07:43:15,Scholes St & Manhattan Ave,5108,DeKalb Ave & Hudson Ave,4513,40.70870368,-73.9448625,40.689888,-73.981013,member
216024,7A2309571CA25856,classic_bike,2021-08-15 15:57:50,2021-08-15 16:07:23,Fulton St & Waverly Ave,4345,DeKalb Ave & Hudson Ave,4513,40.68323865460341,-73.96599590778351,40.689888,-73.981013,casual
216033,811A6A4CF67AF11F,classic_bike,2021-08-19 17:27:37,2021-08-19 17:38:30,Fulton St & Waverly Ave,4345,DeKalb Ave & Hudson Ave,4513,40.68323865460341,-73.96599590778351,40.689888,-73.981013,casual
216038,806CC99596917470,electric_bike,2021-08-01 08:16:27,2021-08-01 08:21:37,Fulton St & Waverly Ave,4345,DeKalb Ave & Hudson Ave,4513,40.68323865460341,-73.96599590778351,40.689888,-73.981013,casual
216047,EAF183FA97E3C8D9,classic_bike,2021-08-19 13:43:04,2021-08-19 13:50:08,Clermont Ave & Park Ave,4692,DeKalb Ave & Hudson Ave,4513,40.69573398,-73.97129668,40.689888,-73.981013,member
216113,0B9350730655DB93,electric_bike,2021-08-09 08:09:01,2021-08-09 08:22:00,Throop Ave & Myrtle Ave,4697,DeKalb Ave & Hudson Ave,4513,40.69622937,-73.94371094,40.689888,-73.981013,member
216151,C008A1B13F156758,electric_bike,2021-08-15 16:37:46,2021-08-15 17:46:37,Bergen St & Vanderbilt Ave,4157,DeKalb Ave & Hudson Ave,4513,40.6794388,-73.9680438,40.689888,-73.981013,member
216169,8AE3F207CBBD4765,classic_bike,2021-08-09 14:47:09,2021-08-09 14:58:20,Monroe St & Classon Ave,4336,DeKalb Ave & Hudson Ave,4513,40.6845683,-73.95881081,40.689888,-73.981013,member
216176,B48FBF94145AEC8A,classic_bike,2021-08-04 18:16:48,2021-08-04 18:25:57,Monroe St & Classon Ave,4336,DeKalb Ave & Hudson Ave,4513,40.6845683,-73.95881081,40.689888,-73.981013,casual
216195,DB5F23110CA083D7,classic_bike,2021-08-15 19:48:37,2021-08-15 19:52:30,Hanson Pl & Ashland Pl,4395,DeKalb Ave & Hudson Ave,4513,40.68506807308177,-73.97790759801863,40.689888,-73.981013,member
216225,0571755C5370CE6F,classic_bike,2021-08-05 13:47:20,2021-08-05 13:53:30,Schermerhorn St & Bond St,4479,DeKalb Ave & Hudson Ave,4513,40.688417427540834,-73.98451656103134,40.689888,-73.981013,casual
216241,8070EBD54421CD2C,classic_bike,2021-08-26 18:51:56,2021-08-26 19:37:10,Hanson Pl & Ashland Pl,4395,DeKalb Ave & Hudson Ave,4513,40.68506807308177,-73.97790759801863,40.689888,-73.981013,casual
216257,81976E6A2B9141B1,classic_bike,2021-08-17 18:10:47,2021-08-17 18:21:58,Monroe St & Bedford Ave,4368,DeKalb Ave & Hudson Ave,4513,40.6851443,-73.95380904,40.689888,-73.981013,member
216259,B53A43CD5D5C4F56,classic_bike,2021-08-05 07:45:45,2021-08-05 08:03:04,Monroe St & Bedford Ave,4368,DeKalb Ave & Hudson Ave,4513,40.6851443,-73.95380904,40.689888,-73.981013,casual
216274,59571FD599BC5BBA,classic_bike,2021-08-07 17:50:38,2021-08-07 17:55:14,Willoughby St & Ashland Pl,4587,DeKalb Ave & Hudson Ave,4513,40.69178,-73.97877,40.689888,-73.981013,member
216317,F943441A06A72CF3,classic_bike,2021-08-10 17:33:31,2021-08-10 18:09:52,Macon St & Nostrand Ave,4214,DeKalb Ave & Hudson Ave,4513,40.6809833854,-73.9500479759,40.689888,-73.981013,member
216318,A2CF7C95D6CBCBC6,classic_bike,2021-08-25 10:54:51,2021-08-25 10:59:16,Clermont Ave & Lafayette Ave,4461,DeKalb Ave & Hudson Ave,4513,40.68764484,-73.96968902,40.689888,-73.981013,member
216320,59CD2862B4F5056F,classic_bike,2021-08-16 20:02:34,2021-08-16 20:05:21,Washington Park,4546,DeKalb Ave & Hudson Ave,4513,40.6917823,-73.9737299,40.689888,-73.981013,member
216326,1401954474881498,classic_bike,2021-08-18 06:10:59,2021-08-18 06:14:35,Washington Park,4546,DeKalb Ave & Hudson Ave,4513,40.6917823,-73.9737299,40.689888,-73.981013,member
216328,E8901B2B63938B0F,classic_bike,2021-08-25 12:21:11,2021-08-25 12:26:05,Washington Park,4546,DeKalb Ave & Hudson Ave,4513,40.6917823,-73.9737299,40.689888,-73.981013,member
216329,3BEFC96523699DDC,classic_bike,2021-08-20 12:01:01,2021-08-20 12:05:30,Washington Park,4546,DeKalb Ave & Hudson Ave,4513,40.6917823,-73.9737299,40.689888,-73.981013,member
216330,BA675DD828B2E2CD,classic_bike,2021-08-20 10:10:03,2021-08-20 10:13:54,Washington Park,4546,DeKalb Ave & Hudson Ave,4513,40.6917823,-73.9737299,40.689888,-73.981013,member
216331,A0AECB983E6AD4A6,classic_bike,2021-08-18 14:32:59,2021-08-18 14:37:14,Washington Park,4546,DeKalb Ave & Hudson Ave,4513,40.6917823,-73.9737299,40.689888,-73.981013,member
216333,21F9F85FDE3105CF,electric_bike,2021-08-18 21:01:16,2021-08-18 21:04:14,Washington Park,4546,DeKalb Ave & Hudson Ave,4513,40.6917823,-73.9737299,40.689888,-73.981013,member
216335,B7FFA08BC3740504,classic_bike,2021-08-17 18:35:40,2021-08-17 19:03:35,E 13 St & 2 Ave,5820,DeKalb Ave & Hudson Ave,4513,40.73153937464073,-73.9853024482727,40.689888,-73.981013,member
216337,C1DF307A8C91A297,electric_bike,2021-08-19 18:40:33,2021-08-19 18:44:31,Washington Park,4546,DeKalb Ave & Hudson Ave,4513,40.6917823,-73.9737299,40.689888,-73.981013,member
216339,D723D34305FFED27,classic_bike,2021-08-08 15:42:56,2021-08-08 15:47:39,Washington Park,4546,DeKalb Ave & Hudson Ave,4513,40.6917823,-73.9737299,40.689888,-73.981013,casual
216342,39A56CBB57FEE8E2,classic_bike,2021-08-24 18:45:22,2021-08-24 18:52:29,Washington Park,4546,DeKalb Ave & Hudson Ave,4513,40.6917823,-73.9737299,40.689888,-73.981013,casual
216343,A0AC2212F933CBC3,classic_bike,2021-08-15 19:39:11,2021-08-15 20:06:50,Willoughby Ave & Myrtle Ave,4759,DeKalb Ave & Hudson Ave,4513,40.69757,-73.93098,40.689888,-73.981013,casual
216345,DC265E9618D6042A,classic_bike,2021-08-05 07:32:06,2021-08-05 07:36:02,Washington Park,4546,DeKalb Ave & Hudson Ave,4513,40.6917823,-73.9737299,40.689888,-73.981013,member
216348,3FB55DADB1AACAD2,electric_bike,2021-08-26 12:46:19,2021-08-26 12:54:36,Washington Ave & Park Ave,4724,DeKalb Ave & Hudson Ave,4513,40.69610226,-73.96751037,40.689888,-73.981013,member
216354,A34F677B73D422D1,classic_bike,2021-08-29 18:17:11,2021-08-29 18:23:50,Cumberland St & Lafayette Ave,4428,DeKalb Ave & Hudson Ave,4513,40.68753406,-73.97265183,40.689888,-73.981013,member
216368,77AC961506DB69E0,electric_bike,2021-08-06 20:10:20,2021-08-06 21:11:07,W 54 St & 11 Ave,6955,DeKalb Ave & Hudson Ave,4513,40.768333,-73.992573,40.689888,-73.981013,casual
216369,C1887C3D83252F1D,classic_bike,2021-08-06 10:51:59,2021-08-06 11:01:14,Flushing Ave & Vanderbilt Ave,4762,DeKalb Ave & Hudson Ave,4513,40.69795031569544,-73.97077560424805,40.689888,-73.981013,casual
216375,BB091B858598177E,classic_bike,2021-08-05 16:01:00,2021-08-05 16:09:29,Clinton Ave & Myrtle Ave,4651,DeKalb Ave & Hudson Ave,4513,40.693261,-73.968896,40.689888,-73.981013,member
216379,5360E148455A3252,classic_bike,2021-08-27 21:31:31,2021-08-27 21:37:30,Clinton Ave & Myrtle Ave,4651,DeKalb Ave & Hudson Ave,4513,40.693261,-73.968896,40.689888,-73.981013,casual
216382,86CA707AEF2A3E2D,classic_bike,2021-08-23 14:31:30,2021-08-23 14:37:57,Clinton Ave & Myrtle Ave,4651,DeKalb Ave & Hudson Ave,4513,40.693261,-73.968896,40.689888,-73.981013,member
216397,4985499EC0A095AF,classic_bike,2021-08-03 13:22:12,2021-08-03 13:31:44,Flushing Ave & Vanderbilt Ave,4762,DeKalb Ave & Hudson Ave,4513,40.69795031569544,-73.97077560424805,40.689888,-73.981013,casual
216402,06609C09276BFFCC,classic_bike,2021-08-07 18:01:53,2021-08-07 18:35:54,Driggs Ave & Lorimer St,5481,DeKalb Ave & Hudson Ave,4513,40.72179134,-73.9504154,40.689888,-73.981013,casual
216412,9263B82E113B17B2,classic_bike,2021-08-24 09:36:05,2021-08-24 09:40:50,Adelphi St & Myrtle Ave,4620,DeKalb Ave & Hudson Ave,4513,40.69308257,-73.97178913,40.689888,-73.981013,member
216413,F1E6C0AD351D0369,classic_bike,2021-08-08 13:29:10,2021-08-08 13:36:18,Adelphi St & Myrtle Ave,4620,DeKalb Ave & Hudson Ave,4513,40.69308257,-73.97178913,40.689888,-73.981013,member
216415,31575FA260F7EB1D,classic_bike,2021-08-13 09:04:07,2021-08-13 09:12:05,Clermont Ave & Park Ave,4692,DeKalb Ave & Hudson Ave,4513,40.69573398,-73.97129668,40.689888,-73.981013,member
216435,5674D5E19DA00077,classic_bike,2021-08-16 18:53:21,2021-08-16 22:10:06,Brooklyn Bridge Park - Pier 2,4756,DeKalb Ave & Hudson Ave,4513,40.698458,-73.997178,40.689888,-73.981013,casual
216438,CAAFCF361A757B64,electric_bike,2021-08-09 15:34:30,2021-08-09 15:54:09,Bushwick Ave & McKibbin St,5027,DeKalb Ave & Hudson Ave,4513,40.705517,-73.93936,40.689888,-73.981013,member
216449,663461277ECEEE23,classic_bike,2021-08-08 11:50:03,2021-08-08 12:02:58,Marcy Ave & Lafayette Ave,4476,DeKalb Ave & Hudson Ave,4513,40.6900815,-73.947915,40.689888,-73.981013,member
216455,C0FA2906A37B8147,classic_bike,2021-08-29 15:33:12,2021-08-29 16:07:53,Marcy Ave & Lafayette Ave,4476,DeKalb Ave & Hudson Ave,4513,40.6900815,-73.947915,40.689888,-73.981013,casual
216461,759B5654663A695D,classic_bike,2021-08-06 16:02:50,2021-08-06 16:32:19,Madison St & Cypress Ave,4807,DeKalb Ave & Hudson Ave,4513,40.70068,-73.90742,40.689888,-73.981013,casual
216462,ABDD5CD6552FB893,classic_bike,2021-08-29 14:59:57,2021-08-29 15:17:35,Marcy Ave & Lafayette Ave,4476,DeKalb Ave & Hudson Ave,4513,40.6900815,-73.947915,40.689888,-73.981013,casual
216471,AAF2C53D4610C823,classic_bike,2021-08-08 12:45:13,2021-08-08 12:51:39,Clinton Ave & Myrtle Ave,4651,DeKalb Ave & Hudson Ave,4513,40.693261,-73.968896,40.689888,-73.981013,member
216475,5AEF27B92036ABEA,electric_bike,2021-08-14 02:44:07,2021-08-14 02:51:56,Old Fulton St,4903,DeKalb Ave & Hudson Ave,4513,40.70277159,-73.99383605,40.689888,-73.981013,member
216497,F09F48B83DB6A256,classic_bike,2021-08-20 21:24:05,2021-08-20 22:12:12,7 St & 3 Ave,3996,DeKalb Ave & Hudson Ave,4513,40.67260298150126,-73.98983001708984,40.689888,-73.981013,casual
216502,BF20E40B52D6D5DD,classic_bike,2021-08-16 11:05:39,2021-08-16 11:34:26,Cadman Plaza E & Tillary St,4677,DeKalb Ave & Hudson Ave,4513,40.69597683,-73.99014892,40.689888,-73.981013,member
216507,E4CA7D7B5F0B22FB,classic_bike,2021-08-20 11:34:16,2021-08-20 11:45:15,Clinton Ave & Myrtle Ave,4651,DeKalb Ave & Hudson Ave,4513,40.693261,-73.968896,40.689888,-73.981013,member
216522,A4178C3242CB8121,electric_bike,2021-08-14 17:20:36,2021-08-14 17:38:59,Kingston Ave & Herkimer St,4205,DeKalb Ave & Hudson Ave,4513,40.67890679,-73.94142771,40.689888,-73.981013,casual
216529,8A90A40ADD092A56,classic_bike,2021-08-04 00:51:42,2021-08-04 01:13:45,Clinton St & Tillary St,4748,DeKalb Ave & Hudson Ave,4513,40.69623297129316,-73.99142056703568,40.689888,-73.981013,casual
216538,C7C8D813F7D3659C,electric_bike,2021-08-30 08:12:29,2021-08-30 08:18:24,Lafayette Ave & St James Pl,4494,DeKalb Ave & Hudson Ave,4513,40.68851534,-73.9647628,40.689888,-73.981013,member
216541,17015F6972116B1F,classic_bike,2021-08-24 07:46:10,2021-08-24 07:51:10,Lafayette Ave & St James Pl,4494,DeKalb Ave & Hudson Ave,4513,40.68851534,-73.9647628,40.689888,-73.981013,casual
216557,E33C660B8CB05397,classic_bike,2021-08-18 23:39:45,2021-08-18 23:40:26,DeKalb Ave & Hudson Ave,4513,DeKalb Ave & Hudson Ave,4513,40.689888,-73.981013,40.689888,-73.981013,member
216564,D1067B790BDBF2C6,electric_bike,2021-08-20 18:19:58,2021-08-20 18:20:06,DeKalb Ave & Hudson Ave,4513,DeKalb Ave & Hudson Ave,4513,40.689888,-73.981013,40.689888,-73.981013,member
216566,BE652B725F799455,classic_bike,2021-08-18 16:27:30,2021-08-18 16:49:52,Liberty St & Nassau St,5105,DeKalb Ave & Hudson Ave,4513,40.70858894240581,-74.00935482235809,40.689888,-73.981013,member
216580,D085727AF49C4993,classic_bike,2021-08-10 07:56:36,2021-08-10 08:02:23,Willoughby Ave & Hall St,4611,DeKalb Ave & Hudson Ave,4513,40.69196035,-73.96536851,40.689888,-73.981013,member
216581,9EFA4BBAA0F66AB0,classic_bike,2021-08-31 10:10:05,2021-08-31 10:17:02,Willoughby Ave & Hall St,4611,DeKalb Ave & Hudson Ave,4513,40.69196035,-73.96536851,40.689888,-73.981013,member
216582,4CBA748D36A9BD9C,classic_bike,2021-08-09 13:44:39,2021-08-09 14:21:30,Rockaway Ave & Bainbridge St,4285,DeKalb Ave & Hudson Ave,4513,40.68319988172761,-73.91166642308235,40.689888,-73.981013,casual
216583,D110DDA2BC4BEA1A,electric_bike,2021-08-10 07:12:15,2021-08-10 07:17:21,Willoughby Ave & Hall St,4611,DeKalb Ave & Hudson Ave,4513,40.69196035,-73.96536851,40.689888,-73.981013,casual
216588,01E3A531327835CE,docked_bike,2021-08-29 17:10:56,2021-08-29 17:16:49,DeKalb Ave & S Portland Ave,4546,DeKalb Ave & Hudson Ave,4513,40.68981,-73.974931,40.689888,-73.981013,casual
216589,FB94DA592478A7A0,classic_bike,2021-08-31 17:30:27,2021-08-31 17:32:56,DeKalb Ave & S Portland Ave,4546,DeKalb Ave & Hudson Ave,4513,40.68981035,-73.97493121,40.689888,-73.981013,member
216593,5F309B5399AE0AEA,classic_bike,2021-08-26 17:14:16,2021-08-26 17:16:58,DeKalb Ave & S Portland Ave,4546,DeKalb Ave & Hudson Ave,4513,40.68981035,-73.97493121,40.689888,-73.981013,casual
216599,A1CCB786E5B325A3,classic_bike,2021-08-04 16:27:16,2021-08-04 16:30:15,DeKalb Ave & S Portland Ave,4546,DeKalb Ave & Hudson Ave,4513,40.68981035,-73.97493121,40.689888,-73.981013,member
216605,24A3235E4483F853,classic_bike,2021-08-16 19:28:34,2021-08-16 19:52:19,Lewis Ave & Madison St,4425,DeKalb Ave & Hudson Ave,4513,40.686312,-73.935775,40.689888,-73.981013,member
216608,34F2ABF07D2777C4,electric_bike,2021-08-13 15:32:14,2021-08-13 15:34:29,DeKalb Ave & S Portland Ave,4546,DeKalb Ave & Hudson Ave,4513,40.68981035,-73.97493121,40.689888,-73.981013,casual
216615,13266AE145860500,classic_bike,2021-08-06 16:39:20,2021-08-06 16:54:03,Lefferts Pl & Franklin Ave,4222,DeKalb Ave & Hudson Ave,4513,40.680342423,-73.9557689392,40.689888,-73.981013,casual
216616,05CD21B8AA1B46EF,classic_bike,2021-08-20 13:06:39,2021-08-20 13:10:26,DeKalb Ave & S Portland Ave,4546,DeKalb Ave & Hudson Ave,4513,40.68981035,-73.97493121,40.689888,-73.981013,casual
216629,4E46D6EDBAD5262D,classic_bike,2021-08-29 15:51:47,2021-08-29 15:59:05,Willoughby Ave & Hall St,4611,DeKalb Ave & Hudson Ave,4513,40.69196035,-73.96536851,40.689888,-73.981013,member
216630,AFA17DB9B211AA63,electric_bike,2021-08-09 07:13:11,2021-08-09 07:19:10,Willoughby Ave & Hall St,4611,DeKalb Ave & Hudson Ave,4513,40.69196035,-73.96536851,40.689888,-73.981013,casual
216644,6CF1FCC34E193296,classic_bike,2021-08-15 08:59:08,2021-08-15 09:09:57,Greene Ave & Nostrand Ave,4519,DeKalb Ave & Hudson Ave,4513,40.6883337,-73.950916,40.689888,-73.981013,member
216646,00A7A9E50A4E1445,classic_bike,2021-08-15 13:30:47,2021-08-15 13:32:40,DeKalb Ave & S Portland Ave,4546,DeKalb Ave & Hudson Ave,4513,40.68981035,-73.97493121,40.689888,-73.981013,member
216650,F5254CB206DD0152,classic_bike,2021-08-20 07:22:51,2021-08-20 07:24:57,DeKalb Ave & S Portland Ave,4546,DeKalb Ave & Hudson Ave,4513,40.68981035,-73.97493121,40.689888,-73.981013,member
216656,2AB90B54512334E5,classic_bike,2021-08-22 03:18:01,2021-08-22 03:48:08,Montrose Ave & Bushwick Ave,5068,DeKalb Ave & Hudson Ave,4513,40.70767788,-73.94016171,40.689888,-73.981013,member
216662,F0FC9D9B8AD8F9E0,classic_bike,2021-08-21 19:03:44,2021-08-21 19:25:43,Lewis Ave & Madison St,4425,DeKalb Ave & Hudson Ave,4513,40.686312,-73.935775,40.689888,-73.981013,casual
216667,2B99FEF15E32FED5,classic_bike,2021-08-10 10:04:46,2021-08-10 10:07:08,Duffield St & Willoughby St,4596,DeKalb Ave & Hudson Ave,4513,40.69221589,-73.9842844,40.689888,-73.981013,member
216681,51191966CEFCD609,classic_bike,2021-08-03 17:55:37,2021-08-03 18:13:19,Greene Ave & Nostrand Ave,4519,DeKalb Ave & Hudson Ave,4513,40.6883337,-73.950916,40.689888,-73.981013,member
216684,35DB0E97E31D195D,classic_bike,2021-08-09 17:22:35,2021-08-09 17:50:16,Harrison Pl & Porter Ave,5090,DeKalb Ave & Hudson Ave,4513,40.70686,-73.92851,40.689888,-73.981013,casual
216705,32BFB5799D83A36A,classic_bike,2021-08-12 14:37:54,2021-08-12 14:49:37,Court St & Nelson St,4077,DeKalb Ave & Hudson Ave,4513,40.6763947,-73.99869893,40.689888,-73.981013,member
216707,6B8ADD1A168194CA,electric_bike,2021-08-31 07:36:25,2021-08-31 07:52:40,Metropolitan Ave & Bedford Ave,5308,DeKalb Ave & Hudson Ave,4513,40.71534825,-73.96024116,40.689888,-73.981013,member
216718,0BF43871FCB56B4D,classic_bike,2021-08-11 13:03:45,2021-08-11 13:06:05,Myrtle Ave & Fleet Pl,4628,DeKalb Ave & Hudson Ave,4513,40.693534,-73.981909,40.689888,-73.981013,member
216721,74F069F809D527AC,classic_bike,2021-08-29 12:04:05,2021-08-29 12:07:46,Myrtle Ave & Fleet Pl,4628,DeKalb Ave & Hudson Ave,4513,40.693534,-73.981909,40.689888,-73.981013,member
216746,0F4FFBCC8F36C5C0,classic_bike,2021-08-14 16:00:17,2021-08-14 16:49:54,Liberty St & Nassau St,5105,DeKalb Ave & Hudson Ave,4513,40.70858894240581,-74.00935482235809,40.689888,-73.981013,casual
216748,2ADAB8AEAAFED363,classic_bike,2021-08-14 16:02:37,2021-08-14 16:49:57,Liberty St & Nassau St,5105,DeKalb Ave & Hudson Ave,4513,40.70858894240581,-74.00935482235809,40.689888,-73.981013,casual
216751,177B4790F7D4EA33,classic_bike,2021-08-31 17:13:46,2021-08-31 17:24:10,Fulton St & Waverly Ave,4345,DeKalb Ave & Hudson Ave,4513,40.68323865460341,-73.96599590778351,40.689888,-73.981013,member
216762,EA2DDEE80478C168,classic_bike,2021-08-04 16:52:21,2021-08-04 17:03:17,Fulton St & Waverly Ave,4345,DeKalb Ave & Hudson Ave,4513,40.68323865460341,-73.96599590778351,40.689888,-73.981013,member
216764,BBF36FE2E2A8C77B,classic_bike,2021-08-19 17:25:52,2021-08-19 17:31:15,Fulton St & Waverly Ave,4345,DeKalb Ave & Hudson Ave,4513,40.68323865460341,-73.96599590778351,40.689888,-73.981013,member
216767,B5D5573E153452ED,electric_bike,2021-08-06 19:25:41,2021-08-06 19:31:58,Fulton St & Waverly Ave,4345,DeKalb Ave & Hudson Ave,4513,40.68323865460341,-73.96599590778351,40.689888,-73.981013,member
216775,C285F8AE954B1E37,classic_bike,2021-08-05 08:33:20,2021-08-05 08:35:21,DeKalb Ave & S Portland Ave,4546,DeKalb Ave & Hudson Ave,4513,40.68981035,-73.97493121,40.689888,-73.981013,member
216777,FF94997E74464A7A,classic_bike,2021-08-24 16:08:21,2021-08-24 16:11:25,DeKalb Ave & S Portland Ave,4546,DeKalb Ave & Hudson Ave,4513,40.68981035,-73.97493121,40.689888,-73.981013,member
216778,455AD11BE09355BB,classic_bike,2021-08-24 08:16:37,2021-08-24 08:19:11,DeKalb Ave & S Portland Ave,4546,DeKalb Ave & Hudson Ave,4513,40.68981035,-73.97493121,40.689888,-73.981013,member
216783,7BEF620FD36156BF,classic_bike,2021-08-09 10:19:36,2021-08-09 10:22:20,DeKalb Ave & S Portland Ave,4546,DeKalb Ave & Hudson Ave,4513,40.68981035,-73.97493121,40.689888,-73.981013,member
216786,3E5CDD5CD955EB61,classic_bike,2021-08-20 19:55:28,2021-08-20 20:02:30,Willoughby Ave & Hall St,4611,DeKalb Ave & Hudson Ave,4513,40.69196035,-73.96536851,40.689888,-73.981013,member
216787,630A4E7F66720374,classic_bike,2021-08-29 15:26:43,2021-08-29 15:31:21,Willoughby Ave & Hall St,4611,DeKalb Ave & Hudson Ave,4513,40.69196035,-73.96536851,40.689888,-73.981013,member
216789,F99F59EE989E3056,electric_bike,2021-08-25 18:43:03,2021-08-25 18:56:29,Lefferts Pl & Franklin Ave,4222,DeKalb Ave & Hudson Ave,4513,40.680342423,-73.9557689392,40.689888,-73.981013,casual
216793,A808049D1C048341,classic_bike,2021-08-12 13:38:54,2021-08-12 13:45:13,Willoughby Ave & Hall St,4611,DeKalb Ave & Hudson Ave,4513,40.69196035,-73.96536851,40.689888,-73.981013,member
216796,FF7BDC421B25E56F,classic_bike,2021-08-24 08:13:42,2021-08-24 08:21:31,Willoughby Ave & Hall St,4611,DeKalb Ave & Hudson Ave,4513,40.69196035,-73.96536851,40.689888,-73.981013,member
216797,D615D235DC653D71,classic_bike,2021-08-29 14:34:51,2021-08-29 14:43:16,Willoughby Ave & Hall St,4611,DeKalb Ave & Hudson Ave,4513,40.69196035,-73.96536851,40.689888,-73.981013,casual
216798,C46CDFD4B8C80332,classic_bike,2021-08-21 15:36:30,2021-08-21 15:42:24,Willoughby Ave & Hall St,4611,DeKalb Ave & Hudson Ave,4513,40.69196035,-73.96536851,40.689888,-73.981013,casual
216801,FE11B9DEBE4FC2FD,classic_bike,2021-08-25 12:51:51,2021-08-25 13:03:36,Willoughby Ave & Hall St,4611,DeKalb Ave & Hudson Ave,4513,40.69196035,-73.96536851,40.689888,-73.981013,casual
216802,F9115543B92482CB,electric_bike,2021-08-19 07:02:55,2021-08-19 07:08:35,Willoughby Ave & Hall St,4611,DeKalb Ave & Hudson Ave,4513,40.69196035,-73.96536851,40.689888,-73.981013,member
216803,5265D401FB72642E,classic_bike,2021-08-31 10:52:58,2021-08-31 10:57:46,Willoughby Ave & Hall St,4611,DeKalb Ave & Hudson Ave,4513,40.69196035,-73.96536851,40.689888,-73.981013,member
216805,311C24847AF6A07D,classic_bike,2021-08-04 17:20:04,2021-08-04 17:26:03,Willoughby Ave & Hall St,4611,DeKalb Ave & Hudson Ave,4513,40.69196035,-73.96536851,40.689888,-73.981013,member
216809,AB927904F36B1CD4,electric_bike,2021-08-15 00:16:51,2021-08-15 00:29:51,Division St & Bowery,5270,DeKalb Ave & Hudson Ave,4513,40.714193,-73.996732,40.689888,-73.981013,member
216818,DA8693D542F26D9C,classic_bike,2021-08-07 14:11:22,2021-08-07 14:13:32,DeKalb Ave & S Portland Ave,4546,DeKalb Ave & Hudson Ave,4513,40.68981035,-73.97493121,40.689888,-73.981013,member
216820,A8AE3CA803509E34,classic_bike,2021-08-11 06:24:18,2021-08-11 06:26:01,DeKalb Ave & S Portland Ave,4546,DeKalb Ave & Hudson Ave,4513,40.68981035,-73.97493121,40.689888,-73.981013,casual
216835,8D71A5912886A308,classic_bike,2021-08-30 01:02:25,2021-08-30 01:30:26,Bushwick Ave & Stagg St,5140,DeKalb Ave & Hudson Ave,4513,40.709897,-73.94008,40.689888,-73.981013,member
216841,3666689BFE197A25,classic_bike,2021-08-28 04:10:58,2021-08-28 04:42:32,Irving Ave & Jefferson St,5051,DeKalb Ave & Hudson Ave,4513,40.70538,-73.92535,40.689888,-73.981013,casual
216859,7DDD38EADB65E9EC,classic_bike,2021-08-31 23:43:01,2021-09-01 00:07:07,Wyckoff Av & Stanhope St,4931,DeKalb Ave & Hudson Ave,4513,40.703545,-73.917775,40.689888,-73.981013,member
216863,BD218B5B7B37A608,classic_bike,2021-08-10 19:13:47,2021-08-10 19:19:19,Concord St & Bridge St,4781,DeKalb Ave & Hudson Ave,4513,40.69766564,-73.98476437,40.689888,-73.981013,casual
216866,AFBC1155ABB766B7,electric_bike,2021-08-21 12:44:23,2021-08-21 12:53:27,Concord St & Bridge St,4781,DeKalb Ave & Hudson Ave,4513,40.69766564,-73.98476437,40.689888,-73.981013,casual
216868,E31856842C2D578E,electric_bike,2021-08-21 02:13:57,2021-08-21 02:16:46,DeKalb Ave & Vanderbilt Ave,4461,DeKalb Ave & Hudson Ave,4513,40.68940747,-73.96885458,40.689888,-73.981013,member
216869,474756A158E7077B,classic_bike,2021-08-31 07:37:45,2021-08-31 07:41:44,DeKalb Ave & Vanderbilt Ave,4461,DeKalb Ave & Hudson Ave,4513,40.68940747,-73.96885458,40.689888,-73.981013,member
216870,1271D1F5E35639A3,classic_bike,2021-08-10 14:31:32,2021-08-10 14:35:13,DeKalb Ave & Vanderbilt Ave,4461,DeKalb Ave & Hudson Ave,4513,40.68940747,-73.96885458,40.689888,-73.981013,member
