,ride_id,rideable_type,started_at,ended_at,start_station_name,start_station_id,end_station_name,end_station_id,start_lat,start_lng,end_lat,end_lng,member_casual
4990,1F372FF7BEF9E4ED,classic_bike,2021-08-19 13:35:49,2021-08-19 13:45:15,Grove St & Broadway,4526,Putnam Ave & Throop Ave,4392,40.69047,-73.923511,40.6851532,-73.94111,casual
4994,5D0CBA0525A8B4A5,classic_bike,2021-08-08 16:36:01,2021-08-08 16:46:08,Grove St & Broadway,4526,Putnam Ave & Throop Ave,4392,40.69047,-73.923511,40.6851532,-73.94111,member
5003,1804E8DCCC2B0383,electric_bike,2021-08-29 10:10:58,2021-08-29 10:17:44,Hancock St & Bedford Ave,4255,Putnam Ave & Throop Ave,4392,40.68216564,-73.95399026,40.6851532,-73.94111,casual
5008,4E3E25B2A85407D6,classic_bike,2021-08-02 07:34:02,2021-08-02 07:36:33,Monroe St & Tompkins Ave,4434,Putnam Ave & Throop Ave,4392,40.686203,-73.944694,40.6851532,-73.94111,member
5012,D60D815B8C8C3CAC,classic_bike,2021-08-19 15:05:21,2021-08-19 15:18:19,Lafayette Ave & Classon Ave,4452,Putnam Ave & Throop Ave,4392,40.68900443,-73.96023854,40.6851532,-73.94111,member
5022,0D2BD9B34AF78D7F,electric_bike,2021-08-12 20:52:35,2021-08-12 21:27:13,W 27 St & 7 Ave,6247,Putnam Ave & Throop Ave,4392,40.746647,-73.993915,40.6851532,-73.94111,member
5024,3A28A45DAC82B036,classic_bike,2021-08-21 12:00:12,2021-08-21 12:12:55,Throop Ave & Myrtle Ave,4697,Putnam Ave & Throop Ave,4392,40.69622937,-73.94371094,40.6851532,-73.94111,casual
5871,D4B2EF2BD868E96C,classic_bike,2021-08-15 14:50:16,2021-08-15 14:55:15,Kosciuszko St & Tompkins Ave,4553,Putnam Ave & Throop Ave,4392,40.69128258,-73.9452416,40.6851532,-73.94111,member
118712,CE6DE39142364CB9,classic_bike,2021-08-25 18:10:42,2021-08-25 18:20:17,Fulton St & Utica Ave,4228,Putnam Ave & Throop Ave,4392,40.6794268,-73.9298911,40.6851532,-73.94111,member
118724,379071C8A1229F03,electric_bike,2021-08-08 22:24:34,2021-08-08 22:30:43,Lexington Ave & Classon Ave,4452,Putnam Ave & Throop Ave,4392,40.68676793,-73.95928168,40.6851532,-73.94111,member
118730,61B3EB0E003B0AB3,electric_bike,2021-08-02 22:10:10,2021-08-02 22:39:50,Crescent St & 34 Ave,6759,Putnam Ave & Throop Ave,4392,40.76108,-73.930562,40.6851532,-73.94111,member
118766,B4E6DB8930B7DDB1,electric_bike,2021-08-05 17:29:33,2021-08-05 18:30:02,Van Sinderen Ave & Truxton St,4161,Putnam Ave & Throop Ave,4392,40.6786,-73.90369,40.6851532,-73.94111,casual
118770,BFE1D0E393203704,classic_bike,2021-08-21 15:13:14,2021-08-21 15:40:00,Willoughby Ave & Wyckoff Ave,5010,Putnam Ave & Throop Ave,4392,40.705614,-73.92153,40.6851532,-73.94111,casual
118782,4CFC2EF374402686,classic_bike,2021-08-29 13:22:35,2021-08-29 13:38:00,Cedar St & Myrtle Ave,4751,Putnam Ave & Throop Ave,4392,40.697842,-73.926241,40.6851532,-73.94111,casual
118792,8F3B719432284824,classic_bike,2021-08-15 17:17:39,2021-08-15 17:58:13,Myrtle Ave & St Edwards St,4659,Putnam Ave & Throop Ave,4392,40.69327018,-73.97703874,40.6851532,-73.94111,casual
118794,1E00012B77DFC8A8,classic_bike,2021-08-11 19:21:37,2021-08-11 19:32:11,Fulton St & Utica Ave,4228,Putnam Ave & Throop Ave,4392,40.6794268,-73.9298911,40.6851532,-73.94111,casual
118801,493E59FF6CB75BDD,classic_bike,2021-08-26 18:33:58,2021-08-26 18:49:35,Wilson Ave & Troutman St,4864,Putnam Ave & Throop Ave,4392,40.70166,-73.92754,40.6851532,-73.94111,member
118802,A1FE81BF76CB9280,electric_bike,2021-08-12 22:53:09,2021-08-12 23:04:05,Suydam St & Broadway,4689,Putnam Ave & Throop Ave,4392,40.69544,-73.93223,40.6851532,-73.94111,member
118803,34CF07D7633523B8,electric_bike,2021-08-07 17:34:45,2021-08-07 18:01:53,Norfolk St & Broome St,5374,Putnam Ave & Throop Ave,4392,40.7172274,-73.98802084,40.6851532,-73.94111,member
118807,329D87C4DD7014F8,classic_bike,2021-08-13 10:30:27,2021-08-13 10:43:22,Suydam St & Broadway,4689,Putnam Ave & Throop Ave,4392,40.69544,-73.93223,40.6851532,-73.94111,member
118820,9B0AB9B8750DF79E,electric_bike,2021-08-17 11:07:53,2021-08-17 12:27:45,Central Ave & Himrod St,4713,Putnam Ave & Throop Ave,4392,40.69676,-73.92302,40.6851532,-73.94111,casual
118823,B33B4F68E3A031E1,classic_bike,2021-08-27 22:52:53,2021-08-27 23:15:48,Suydam St & Broadway,4689,Putnam Ave & Throop Ave,4392,40.69544,-73.93223,40.6851532,-73.94111,casual
118826,BBE75B903F35573C,electric_bike,2021-08-29 16:19:50,2021-08-29 16:43:51,Stanton St & Norfolk St,5445,Putnam Ave & Throop Ave,4392,40.720747,-73.986274,40.6851532,-73.94111,casual
118833,26FE60FEE3607A54,classic_bike,2021-08-13 10:28:36,2021-08-13 10:43:11,Suydam St & Broadway,4689,Putnam Ave & Throop Ave,4392,40.69544,-73.93223,40.6851532,-73.94111,member
118836,682E6203D7724679,classic_bike,2021-08-25 19:12:16,2021-08-25 19:43:33,Norfolk St & Broome St,5374,Putnam Ave & Throop Ave,4392,40.7172274,-73.98802084,40.6851532,-73.94111,member
118839,2ED50E3F73D03FDE,electric_bike,2021-08-20 22:51:28,2021-08-20 22:58:05,Suydam St & Broadway,4689,Putnam Ave & Throop Ave,4392,40.69544,-73.93223,40.6851532,-73.94111,casual
118847,0C55900F59B930AB,electric_bike,2021-08-11 09:21:00,2021-08-11 09:46:56,Knickerbocker Ave & Cooper St,4582,Putnam Ave & Throop Ave,4392,40.69081,-73.90448,40.6851532,-73.94111,casual
118848,055E412CF25743D1,classic_bike,2021-08-28 18:35:21,2021-08-28 19:01:03,Bergen St & 4 Ave,4322,Putnam Ave & Throop Ave,4392,40.68256425759694,-73.9798977971077,40.6851532,-73.94111,casual
118852,BE2EB34AA4FE8C85,electric_bike,2021-08-26 00:05:53,2021-08-26 00:09:11,Albany Ave & Fulton St,4237,Putnam Ave & Throop Ave,4392,40.6800105,-73.938475,40.6851532,-73.94111,casual
118858,D4FE1B5A4DD28E15,classic_bike,2021-08-01 16:25:30,2021-08-01 16:30:02,Putnam Ave & Nostrand Ave,4327,Putnam Ave & Throop Ave,4392,40.68402,-73.94977,40.6851532,-73.94111,member
118866,FEF8B836F858A92B,classic_bike,2021-08-31 19:24:38,2021-08-31 19:49:42,Adams St & Prospect St,4821,Putnam Ave & Throop Ave,4392,40.70076308326151,-73.98869812488556,40.6851532,-73.94111,member
118871,C1AA461E7735E6DB,electric_bike,2021-08-28 12:27:09,2021-08-28 13:16:49,E 51 St & 2 Ave,6575,Putnam Ave & Throop Ave,4392,40.755293,-73.967641,40.6851532,-73.94111,member
118915,A64AAE6A2B8C2CB8,classic_bike,2021-08-12 16:21:15,2021-08-12 16:29:29,Hancock St & Bedford Ave,4255,Putnam Ave & Throop Ave,4392,40.68216564,-73.95399026,40.6851532,-73.94111,casual
118929,E0DBDA015A1D8575,classic_bike,2021-08-15 19:02:14,2021-08-15 19:32:23,Hicks St & Montague St,4645,Putnam Ave & Throop Ave,4392,40.69512845,-73.99595065,40.6851532,-73.94111,casual
118939,9E7D409B5B66AD5B,classic_bike,2021-08-23 23:24:06,2021-08-23 23:27:36,Kingston Ave & Herkimer St,4205,Putnam Ave & Throop Ave,4392,40.67890679,-73.94142771,40.6851532,-73.94111,casual
118940,BC35D6992EA50B8F,classic_bike,2021-08-28 16:08:07,2021-08-28 16:21:57,Grove St & Broadway,4526,Putnam Ave & Throop Ave,4392,40.69047,-73.923511,40.6851532,-73.94111,member
191518,5DA160B53DBE89DB,classic_bike,2021-08-29 11:37:39,2021-08-29 11:50:06,Beaver St & Fayette St,4840,Putnam Ave & Throop Ave,4392,40.70099,-73.93921,40.6851532,-73.94111,member
191525,C9A0A95BFFFA8621,electric_bike,2021-08-02 16:25:47,2021-08-02 17:06:24,Pershing Square South,6432,Putnam Ave & Throop Ave,4392,40.751581,-73.97791,40.6851532,-73.94111,member
191527,4F47DD693CB1A669,electric_bike,2021-08-08 12:31:16,2021-08-08 13:27:07,Pershing Square South,6432,Putnam Ave & Throop Ave,4392,40.751581,-73.97791,40.6851532,-73.94111,member
191528,EFCC7BFDC99ABC0D,electric_bike,2021-08-03 10:25:18,2021-08-03 11:02:57,Pershing Square South,6432,Putnam Ave & Throop Ave,4392,40.751581,-73.97791,40.6851532,-73.94111,member
191532,FE55EE7BE8FF18BF,classic_bike,2021-08-02 11:56:44,2021-08-02 12:28:05,Forest Ave & Summerfield St,4798,Putnam Ave & Throop Ave,4392,40.69922,-73.89795,40.6851532,-73.94111,member
191547,8F0B0D82543D35F1,electric_bike,2021-08-10 18:04:11,2021-08-10 18:26:05,Roebling St & N 4 St,5267,Putnam Ave & Throop Ave,4392,40.71469,-73.95739,40.6851532,-73.94111,casual
191558,540FC8BD3C9D16B1,electric_bike,2021-08-27 11:58:59,2021-08-27 12:15:46,DeKalb Ave & Hudson Ave,4513,Putnam Ave & Throop Ave,4392,40.689888,-73.981013,40.6851532,-73.94111,member
191560,4D8EA3F2B0B803C7,docked_bike,2021-08-14 04:40:09,2021-08-14 05:06:05,Wythe Ave & Metropolitan Ave,5348,Putnam Ave & Throop Ave,4392,40.716887,-73.963198,40.685153,-73.94111,casual
191565,EFC6B7557D828A74,electric_bike,2021-08-01 16:22:28,2021-08-01 16:36:20,Bergen St & Flatbush Ave,4281,Putnam Ave & Throop Ave,4392,40.680944723477296,-73.97567331790923,40.6851532,-73.94111,member
191591,B39C860E3E75B2D1,electric_bike,2021-08-28 12:05:18,2021-08-28 12:24:23,Waterbury St & Stagg St,5099,Putnam Ave & Throop Ave,4392,40.71019,-73.93734,40.6851532,-73.94111,casual
191597,D4AD1A26AA665386,classic_bike,2021-08-03 23:19:53,2021-08-03 23:41:22,Old Fulton St,4903,Putnam Ave & Throop Ave,4392,40.70277159,-73.99383605,40.6851532,-73.94111,member
191615,6D70A1DBFDE65A60,classic_bike,2021-08-15 19:35:04,2021-08-15 19:53:45,Schermerhorn St & Bond St,4479,Putnam Ave & Throop Ave,4392,40.688417427540834,-73.98451656103134,40.6851532,-73.94111,member
191627,029AF8618CFA91F6,electric_bike,2021-08-11 08:33:52,2021-08-11 08:36:22,Albany Ave & Fulton St,4237,Putnam Ave & Throop Ave,4392,40.6800105,-73.938475,40.6851532,-73.94111,member
191640,B511B5C011D717A7,classic_bike,2021-08-26 23:42:45,2021-08-26 23:57:28,Broadway & Hancock St,4441,Putnam Ave & Throop Ave,4392,40.68663,-73.9168,40.6851532,-73.94111,casual
191642,5163F8628B4D3AE1,classic_bike,2021-08-30 22:02:27,2021-08-30 22:20:41,Bergen St & Vanderbilt Ave,4157,Putnam Ave & Throop Ave,4392,40.6794388,-73.9680438,40.6851532,-73.94111,member
191643,3CA260EE258AD431,docked_bike,2021-08-08 12:20:56,2021-08-08 12:41:06,Hanson Pl & Ashland Pl,4395,Putnam Ave & Throop Ave,4392,40.685068,-73.977908,40.685153,-73.94111,casual
191657,65343D28BA01F05E,classic_bike,2021-08-09 17:58:34,2021-08-09 18:07:16,Fulton St & Irving Pl,4263,Putnam Ave & Throop Ave,4392,40.68186,-73.959432,40.6851532,-73.94111,member
191663,DFEE94F990713712,electric_bike,2021-08-02 19:57:09,2021-08-02 20:19:48,Atlantic Ave & Fort Greene Pl,4354,Putnam Ave & Throop Ave,4392,40.68382604,-73.97632328,40.6851532,-73.94111,member
191664,DC829B39585F2855,classic_bike,2021-08-25 10:25:13,2021-08-25 10:38:01,S Portland Ave & Hanson Pl,4354,Putnam Ave & Throop Ave,4392,40.68539567,-73.97431458,40.6851532,-73.94111,member
191669,CA3FB70DAEE71030,electric_bike,2021-08-02 19:10:52,2021-08-02 19:26:24,7 Ave & Park Pl,4125,Putnam Ave & Throop Ave,4392,40.6776147,-73.97324283,40.6851532,-73.94111,casual
191678,D4ED7D17E16935DE,classic_bike,2021-08-30 20:21:10,2021-08-30 20:52:15,Cambridge Pl & Gates Ave,4377,Putnam Ave & Throop Ave,4392,40.68488,-73.96304,40.6851532,-73.94111,casual
191683,C79A5C7750776FD7,classic_bike,2021-08-06 15:15:24,2021-08-06 15:20:59,Kingston Ave & Herkimer St,4205,Putnam Ave & Throop Ave,4392,40.67890679,-73.94142771,40.6851532,-73.94111,member
191685,27492886BFCB13D6,classic_bike,2021-08-28 14:53:53,2021-08-28 15:10:10,Kingston Ave & Herkimer St,4205,Putnam Ave & Throop Ave,4392,40.67890679,-73.94142771,40.6851532,-73.94111,casual
191703,F31DFFEF08B65CDD,classic_bike,2021-08-03 22:48:05,2021-08-03 22:58:04,Greene Ave & Nostrand Ave,4519,Putnam Ave & Throop Ave,4392,40.6883337,-73.950916,40.6851532,-73.94111,casual
191741,3FADB801F685C5D4,classic_bike,2021-08-17 18:07:04,2021-08-17 18:16:49,Lexington Ave & Classon Ave,4452,Putnam Ave & Throop Ave,4392,40.68676793,-73.95928168,40.6851532,-73.94111,casual
191745,AFE85E8B44B6DD38,classic_bike,2021-08-20 19:30:36,2021-08-20 19:34:43,Putnam Ave & Nostrand Ave,4327,Putnam Ave & Throop Ave,4392,40.68402,-73.94977,40.6851532,-73.94111,member
191777,1071A596C0BDD560,electric_bike,2021-08-30 09:07:56,2021-08-30 09:40:56,Mercer St & Spring St,5532,Putnam Ave & Throop Ave,4392,40.72362738,-73.99949601,40.6851532,-73.94111,member
191786,31E9D5416CE43E88,classic_bike,2021-08-21 10:11:26,2021-08-21 10:20:43,Grove St & Broadway,4526,Putnam Ave & Throop Ave,4392,40.69047,-73.923511,40.6851532,-73.94111,casual
191787,FB1C6567DAAC87D0,electric_bike,2021-08-30 04:34:08,2021-08-30 04:44:57,Van Buren St & Broadway,4568,Putnam Ave & Throop Ave,4392,40.692,-73.92617,40.6851532,-73.94111,casual
191801,F96647F9696FE7CE,classic_bike,2021-08-29 09:16:51,2021-08-29 09:19:28,Monroe St & Tompkins Ave,4434,Putnam Ave & Throop Ave,4392,40.686203,-73.944694,40.6851532,-73.94111,casual
191806,9B9BE18907E0C883,electric_bike,2021-08-03 07:58:28,2021-08-03 08:06:38,Broadway & Kosciuszko St,4608,Putnam Ave & Throop Ave,4392,40.69329,-73.92852,40.6851532,-73.94111,member
191811,63316E20A8E7B387,classic_bike,2021-08-21 00:39:20,2021-08-21 01:06:09,Jefferson St & Cypress Ave,5082,Putnam Ave & Throop Ave,4392,40.70907,-73.92157,40.6851532,-73.94111,casual
191830,B5DEA1F03BDF557D,electric_bike,2021-08-03 18:58:12,2021-08-03 19:12:46,Bond St & Fulton St,4479,Putnam Ave & Throop Ave,4392,40.68962188790333,-73.98304268717766,40.6851532,-73.94111,member
191841,C340D9DA4B46E3D9,classic_bike,2021-08-11 17:57:02,2021-08-11 18:38:24,39 St & 2 Ave,3501,Putnam Ave & Throop Ave,4392,40.65539977447831,-74.01062786579132,40.6851532,-73.94111,member
191929,CF96EA4D396DFE78,electric_bike,2021-08-06 09:12:09,2021-08-06 09:22:34,Grove St & Broadway,4526,Putnam Ave & Throop Ave,4392,40.69047,-73.923511,40.6851532,-73.94111,member
191930,840AB946CEF92D3E,electric_bike,2021-08-12 07:42:55,2021-08-12 07:50:41,Pacific St & Classon Ave,4148,Putnam Ave & Throop Ave,4392,40.6791944,-73.9587903,40.6851532,-73.94111,member
191931,BE3D544BCC9FA40E,electric_bike,2021-08-10 07:32:50,2021-08-10 07:41:22,Pacific St & Classon Ave,4148,Putnam Ave & Throop Ave,4392,40.6791944,-73.9587903,40.6851532,-73.94111,member
191938,56B9FA1960382011,classic_bike,2021-08-29 11:23:21,2021-08-29 11:30:06,Fulton St & Utica Ave,4228,Putnam Ave & Throop Ave,4392,40.6794268,-73.9298911,40.6851532,-73.94111,member
191978,1EB3077B79CE37D9,classic_bike,2021-08-07 00:39:33,2021-08-07 00:56:31,Pacific St & Classon Ave,4148,Putnam Ave & Throop Ave,4392,40.6791944,-73.9587903,40.6851532,-73.94111,member
191992,F6C0AF77DFC561C4,classic_bike,2021-08-07 12:09:08,2021-08-07 12:17:56,Bedford Ave & Bergen St,4066,Putnam Ave & Throop Ave,4392,40.676368,-73.952918,40.6851532,-73.94111,member
192037,255DD00D916D2363,electric_bike,2021-08-27 22:15:01,2021-08-27 22:39:00,10 St & 7 Ave,3762,Putnam Ave & Throop Ave,4392,40.6662078,-73.98199886,40.6851532,-73.94111,member
192047,CE20E30B6A03F083,classic_bike,2021-08-05 00:43:27,2021-08-05 01:10:49,Bridge St & Water St,4968,Putnam Ave & Throop Ave,4392,40.70296934155272,-73.98469090461731,40.6851532,-73.94111,member
192052,E53ECF4CDC4F31FB,electric_bike,2021-08-11 18:50:39,2021-08-11 19:14:43,Grand St & Havemeyer St,5267,Putnam Ave & Throop Ave,4392,40.71286844,-73.95698119,40.6851532,-73.94111,casual
192059,72B604B560930F82,classic_bike,2021-08-19 18:32:47,2021-08-19 18:40:04,Monroe St & Bedford Ave,4368,Putnam Ave & Throop Ave,4392,40.6851443,-73.95380904,40.6851532,-73.94111,casual
192063,4EA36D23CA4BFDCA,classic_bike,2021-08-22 03:26:42,2021-08-22 03:36:34,Lexington Ave & Classon Ave,4452,Putnam Ave & Throop Ave,4392,40.68676793,-73.95928168,40.6851532,-73.94111,casual
192112,9B928624B9B9B505,classic_bike,2021-08-18 16:41:51,2021-08-18 17:02:25,Washington Park,4546,Putnam Ave & Throop Ave,4392,40.6917823,-73.9737299,40.6851532,-73.94111,member
192114,F7F5B658DF0AE32E,classic_bike,2021-08-27 01:53:19,2021-08-27 02:03:06,Willoughby Ave & Myrtle Ave,4759,Putnam Ave & Throop Ave,4392,40.69757,-73.93098,40.6851532,-73.94111,casual
192116,C1830005FC9070BD,electric_bike,2021-08-02 00:34:02,2021-08-02 00:42:03,Willoughby Ave & Myrtle Ave,4759,Putnam Ave & Throop Ave,4392,40.69757,-73.93098,40.6851532,-73.94111,casual
192130,1633D08640D13C21,classic_bike,2021-08-19 17:30:09,2021-08-19 18:12:23,Lexington Ave & Classon Ave,4452,Putnam Ave & Throop Ave,4392,40.68676793,-73.95928168,40.6851532,-73.94111,member
192134,0857D49C752B491E,classic_bike,2021-08-19 14:48:19,2021-08-19 14:50:19,Lewis Ave & Madison St,4425,Putnam Ave & Throop Ave,4392,40.686312,-73.935775,40.6851532,-73.94111,member
192141,F3A5B8C7D119FA98,classic_bike,2021-08-26 09:05:34,2021-08-26 09:24:21,Metropolitan Ave & Bedford Ave,5308,Putnam Ave & Throop Ave,4392,40.71534825,-73.96024116,40.6851532,-73.94111,member
192145,08E300A993213C0B,classic_bike,2021-08-03 10:50:13,2021-08-03 11:05:10,Division Ave & Marcy Ave,5084,Putnam Ave & Throop Ave,4392,40.70708701,-73.95796783,40.6851532,-73.94111,casual
192160,41F594D3D385246E,electric_bike,2021-08-16 03:16:14,2021-08-16 03:24:15,Cedar St & Myrtle Ave,4751,Putnam Ave & Throop Ave,4392,40.697842,-73.926241,40.6851532,-73.94111,casual
192177,7C63CF97FED62FC9,electric_bike,2021-08-26 00:36:19,2021-08-26 01:33:51,Cherry St,5181,Putnam Ave & Throop Ave,4392,40.71219906,-73.97948148,40.6851532,-73.94111,member
192182,B6CA2E4664DE08E8,classic_bike,2021-08-14 19:37:41,2021-08-14 19:57:30,Graham Ave & Grand St,5178,Putnam Ave & Throop Ave,4392,40.711863,-73.944024,40.6851532,-73.94111,casual
192190,52B0B647731FD0B3,electric_bike,2021-08-14 13:41:59,2021-08-14 14:03:01,Grand Army Plaza & Plaza St West,4010,Putnam Ave & Throop Ave,4392,40.6729679,-73.97087984,40.6851532,-73.94111,casual
192208,BCDACB7B1E98DFEA,electric_bike,2021-08-13 16:25:29,2021-08-13 16:35:36,Willoughby Ave & Hall St,4611,Putnam Ave & Throop Ave,4392,40.69196035,-73.96536851,40.6851532,-73.94111,member
192232,DCD49A3ABDB84C3D,classic_bike,2021-08-01 19:39:30,2021-08-01 20:24:27,Dock St & Front St,4903,Putnam Ave & Throop Ave,4392,40.702709,-73.99253,40.6851532,-73.94111,casual
192254,0FF4DC1761E1C7D0,classic_bike,2021-08-18 21:31:12,2021-08-18 21:35:51,Kosciuszko St & Tompkins Ave,4553,Putnam Ave & Throop Ave,4392,40.69128258,-73.9452416,40.6851532,-73.94111,member
192270,F1B67FD45A02B658,classic_bike,2021-08-25 19:51:51,2021-08-25 19:56:10,Kosciuszko St & Tompkins Ave,4553,Putnam Ave & Throop Ave,4392,40.69128258,-73.9452416,40.6851532,-73.94111,member
192282,2DD49B6E3384D997,electric_bike,2021-08-05 12:08:20,2021-08-05 12:17:31,Fulton St & Utica Ave,4228,Putnam Ave & Throop Ave,4392,40.6794268,-73.9298911,40.6851532,-73.94111,casual
192296,C42E986E2C330F8C,classic_bike,2021-08-17 19:29:38,2021-08-17 19:40:12,Franklin Ave & St Marks Ave,4107,Putnam Ave & Throop Ave,4392,40.6758324,-73.9561677,40.6851532,-73.94111,member
192308,95BEBE6416B67BC0,classic_bike,2021-08-09 19:53:40,2021-08-09 20:23:41,Greenpoint Ave & Manhattan Ave,5785,Putnam Ave & Throop Ave,4392,40.73026,-73.95394,40.6851532,-73.94111,member
192313,CAD5188F4098C764,classic_bike,2021-08-26 19:17:57,2021-08-26 19:33:42,Bergen St & Vanderbilt Ave,4157,Putnam Ave & Throop Ave,4392,40.6794388,-73.9680438,40.6851532,-73.94111,casual
192314,AB81F1BD5021B276,electric_bike,2021-08-01 17:07:17,2021-08-01 17:24:33,Prospect Park West & 8 St,3722,Putnam Ave & Throop Ave,4392,40.66514681533792,-73.97637605667114,40.6851532,-73.94111,member
192315,5CF4807BA271D280,classic_bike,2021-08-06 19:37:26,2021-08-06 19:55:43,Boerum St & Broadway,5004,Putnam Ave & Throop Ave,4392,40.70538077,-73.94976519,40.6851532,-73.94111,member
192316,934A519344D6B25E,electric_bike,2021-08-08 17:35:48,2021-08-08 17:45:56,Lafayette Ave & St James Pl,4494,Putnam Ave & Throop Ave,4392,40.68851534,-73.9647628,40.6851532,-73.94111,member
192331,6F2B7D6D4385128B,classic_bike,2021-08-24 18:48:02,2021-08-24 18:51:51,Marcus Garvey Blvd & Macon St,4278,Putnam Ave & Throop Ave,4392,40.682601,-73.938037,40.6851532,-73.94111,member
192338,B244DDA05592B6EE,classic_bike,2021-08-11 16:07:55,2021-08-11 16:10:45,Marcus Garvey Blvd & Macon St,4278,Putnam Ave & Throop Ave,4392,40.682601,-73.938037,40.6851532,-73.94111,member
192356,2CD61C8F9D493559,classic_bike,2021-08-29 22:22:44,2021-08-29 22:45:26,Bergen St & 4 Ave,4322,Putnam Ave & Throop Ave,4392,40.68256425759694,-73.9798977971077,40.6851532,-73.94111,member
192358,0B7030D322F792DC,classic_bike,2021-08-06 15:20:15,2021-08-06 15:23:01,Albany Ave & Fulton St,4237,Putnam Ave & Throop Ave,4392,40.6800105,-73.938475,40.6851532,-73.94111,member
192383,0CA17FCD89BAFC67,classic_bike,2021-08-08 23:59:39,2021-08-09 00:25:45,Hicks St & Montague St,4645,Putnam Ave & Throop Ave,4392,40.69512845,-73.99595065,40.6851532,-73.94111,casual
192397,108D43FE11F2985B,classic_bike,2021-08-30 21:54:49,2021-08-30 22:10:40,Cedar St & Myrtle Ave,4751,Putnam Ave & Throop Ave,4392,40.697842,-73.926241,40.6851532,-73.94111,casual
192418,5F7D011316A3CCAB,electric_bike,2021-08-20 19:54:26,2021-08-20 20:06:58,Eastern Pkwy & Franklin Ave,3919,Putnam Ave & Throop Ave,4392,40.6707767,-73.9576801,40.6851532,-73.94111,casual
192423,5912D6418852CD1D,electric_bike,2021-08-26 23:45:46,2021-08-26 23:59:29,Eastern Pkwy & Franklin Ave,3919,Putnam Ave & Throop Ave,4392,40.6707767,-73.9576801,40.6851532,-73.94111,casual
192426,07F42529C75EFDA1,electric_bike,2021-08-20 21:02:57,2021-08-20 21:13:42,Cambridge Pl & Gates Ave,4377,Putnam Ave & Throop Ave,4392,40.68488,-73.96304,40.6851532,-73.94111,member
192437,12744B3A64C66484,electric_bike,2021-08-28 20:26:08,2021-08-28 20:41:13,Eastern Pkwy & Franklin Ave,3919,Putnam Ave & Throop Ave,4392,40.6707767,-73.9576801,40.6851532,-73.94111,member
192453,6AE5FBD644F26FBE,classic_bike,2021-08-11 19:06:37,2021-08-11 19:10:41,Kingston Ave & Herkimer St,4205,Putnam Ave & Throop Ave,4392,40.67890679,-73.94142771,40.6851532,-73.94111,member
192455,88E29B00F654B93B,classic_bike,2021-08-19 16:11:34,2021-08-19 16:15:30,Kingston Ave & Herkimer St,4205,Putnam Ave & Throop Ave,4392,40.67890679,-73.94142771,40.6851532,-73.94111,member
192456,9FD3D45C3420DB0D,classic_bike,2021-08-25 20:07:39,2021-08-25 20:11:16,Kingston Ave & Herkimer St,4205,Putnam Ave & Throop Ave,4392,40.67890679,-73.94142771,40.6851532,-73.94111,member
192464,CEDE87E8BA781408,classic_bike,2021-08-12 22:57:19,2021-08-12 23:26:38,Degraw St & Hoyt St,4258,Putnam Ave & Throop Ave,4392,40.68199044270703,-73.99079024791718,40.6851532,-73.94111,member
192471,1B5697102CED33CC,classic_bike,2021-08-12 22:57:12,2021-08-12 23:26:42,Degraw St & Hoyt St,4258,Putnam Ave & Throop Ave,4392,40.68199044270703,-73.99079024791718,40.6851532,-73.94111,member
192476,21CADA612FF9DF3F,classic_bike,2021-08-02 19:47:08,2021-08-02 19:53:37,Kingston Ave & Herkimer St,4205,Putnam Ave & Throop Ave,4392,40.67890679,-73.94142771,40.6851532,-73.94111,casual
192479,644AC76D8AA80972,classic_bike,2021-08-03 17:08:14,2021-08-03 17:14:29,Kingston Ave & Herkimer St,4205,Putnam Ave & Throop Ave,4392,40.67890679,-73.94142771,40.6851532,-73.94111,casual
192482,F89C36B0B96CCD8F,classic_bike,2021-08-07 10:21:04,2021-08-07 10:24:15,Kingston Ave & Herkimer St,4205,Putnam Ave & Throop Ave,4392,40.67890679,-73.94142771,40.6851532,-73.94111,casual
192484,4BC47821AC402C51,electric_bike,2021-08-17 06:53:44,2021-08-17 06:57:16,Kingston Ave & Herkimer St,4205,Putnam Ave & Throop Ave,4392,40.67890679,-73.94142771,40.6851532,-73.94111,member
192485,B6698F6505B44020,classic_bike,2021-08-05 16:32:56,2021-08-05 16:40:33,Kingston Ave & Herkimer St,4205,Putnam Ave & Throop Ave,4392,40.67890679,-73.94142771,40.6851532,-73.94111,member
192489,0AF437F2FA03F4F4,classic_bike,2021-08-19 15:29:49,2021-08-19 15:33:22,Kingston Ave & Herkimer St,4205,Putnam Ave & Throop Ave,4392,40.67890679,-73.94142771,40.6851532,-73.94111,casual
192506,F494C1EE7B813304,classic_bike,2021-08-15 17:48:03,2021-08-15 18:16:11,Clinton St & Tillary St,4748,Putnam Ave & Throop Ave,4392,40.69623297129316,-73.99142056703568,40.6851532,-73.94111,member
192507,70AE4E2EA60CF9D1,classic_bike,2021-08-26 23:42:29,2021-08-26 23:57:37,Broadway & Hancock St,4441,Putnam Ave & Throop Ave,4392,40.68663,-73.9168,40.6851532,-73.94111,casual
192508,A5D94AA31DEA5D37,classic_bike,2021-08-12 19:15:42,2021-08-12 19:44:41,Wythe Ave & Metropolitan Ave,5348,Putnam Ave & Throop Ave,4392,40.716887,-73.963198,40.6851532,-73.94111,member
192514,5CC6F7473110F730,classic_bike,2021-08-13 15:58:12,2021-08-13 16:01:46,Kingston Ave & Herkimer St,4205,Putnam Ave & Throop Ave,4392,40.67890679,-73.94142771,40.6851532,-73.94111,member
192515,7BAF6256A290B48E,classic_bike,2021-08-13 07:53:40,2021-08-13 07:57:36,Kingston Ave & Herkimer St,4205,Putnam Ave & Throop Ave,4392,40.67890679,-73.94142771,40.6851532,-73.94111,member
192517,1CA67B2E9415A346,classic_bike,2021-08-22 18:14:10,2021-08-22 18:24:17,Willoughby Ave & Walworth St,4634,Putnam Ave & Throop Ave,4392,40.69331716,-73.95381995,40.6851532,-73.94111,member
192521,1C85F5D02AD8679D,classic_bike,2021-08-24 08:51:22,2021-08-24 08:55:44,Verona Pl & Fulton St,4124,Putnam Ave & Throop Ave,4392,40.6803560840434,-73.9476791024208,40.6851532,-73.94111,member
192525,F46664EC639CC390,electric_bike,2021-08-02 14:02:15,2021-08-02 14:18:10,Irving Ave & Jefferson St,5051,Putnam Ave & Throop Ave,4392,40.70538,-73.92535,40.6851532,-73.94111,casual
192529,7CFB762E87FFA511,classic_bike,2021-08-16 07:40:20,2021-08-16 07:55:04,Willoughby Ave & Hall St,4611,Putnam Ave & Throop Ave,4392,40.69196035,-73.96536851,40.6851532,-73.94111,casual
192543,DFEB1C04499EE70E,electric_bike,2021-08-07 11:01:12,2021-08-07 11:20:13,Leonard St & Maujer St,5148,Putnam Ave & Throop Ave,4392,40.7103685423523,-73.94705951213837,40.6851532,-73.94111,casual
192548,754374146FFA09CB,electric_bike,2021-08-25 18:40:48,2021-08-25 19:02:31,Degraw St & Smith St,4298,Putnam Ave & Throop Ave,4392,40.6829151,-73.99318208,40.6851532,-73.94111,casual
192554,46ABACAD3933668D,classic_bike,2021-08-02 19:00:32,2021-08-02 19:11:36,Lexington Ave & Classon Ave,4452,Putnam Ave & Throop Ave,4392,40.68676793,-73.95928168,40.6851532,-73.94111,casual
192570,70E69C37D95528D3,electric_bike,2021-08-25 21:30:07,2021-08-25 22:04:50,W 27 St & 7 Ave,6247,Putnam Ave & Throop Ave,4392,40.746647,-73.993915,40.6851532,-73.94111,member
192572,C0939EA8BFEF05F0,electric_bike,2021-08-07 21:37:46,2021-08-07 22:13:15,W 27 St & 7 Ave,6247,Putnam Ave & Throop Ave,4392,40.746647,-73.993915,40.6851532,-73.94111,member
192573,400B89B2854FAAAD,electric_bike,2021-08-21 14:14:24,2021-08-21 14:30:01,Wyckoff Av & Stanhope St,4931,Putnam Ave & Throop Ave,4392,40.703545,-73.917775,40.6851532,-73.94111,casual
192589,0F685AFBC6CB687E,electric_bike,2021-08-25 23:57:25,2021-08-26 00:18:26,Market St & Henry St,5270,Putnam Ave & Throop Ave,4392,40.71310702305908,-73.99446353316307,40.6851532,-73.94111,casual
192603,6A397A24908B187D,electric_bike,2021-08-25 19:36:55,2021-08-25 19:55:27,Driggs Ave & N 9 St,5411,Putnam Ave & Throop Ave,4392,40.71816969454208,-73.95520135760307,40.6851532,-73.94111,member
192606,CFCCF9BD66487BF9,classic_bike,2021-08-24 19:35:25,2021-08-24 19:37:25,Monroe St & Tompkins Ave,4434,Putnam Ave & Throop Ave,4392,40.686203,-73.944694,40.6851532,-73.94111,member
192607,2527AAE3C24255E1,electric_bike,2021-08-31 22:58:31,2021-08-31 23:44:48,Monroe St & Tompkins Ave,4434,Putnam Ave & Throop Ave,4392,40.686203,-73.944694,40.6851532,-73.94111,member
192610,3D8ECB44E829E3EA,classic_bike,2021-08-29 01:52:06,2021-08-29 02:27:37,S 3 St & Bedford Ave,5235,Putnam Ave & Throop Ave,4392,40.71260486,-73.96264403,40.6851532,-73.94111,casual
192611,EDA92EF13501F833,classic_bike,2021-08-08 16:36:04,2021-08-08 16:46:13,Grove St & Broadway,4526,Putnam Ave & Throop Ave,4392,40.69047,-73.923511,40.6851532,-73.94111,member
192612,8B8C362079B48ACB,classic_bike,2021-08-03 23:23:01,2021-08-03 23:34:25,Pacific St & Classon Ave,4148,Putnam Ave & Throop Ave,4392,40.6791944,-73.9587903,40.6851532,-73.94111,member
192618,1724D0C12458827A,electric_bike,2021-08-06 22:35:05,2021-08-06 23:15:00,7 St & 5 Ave,3914,Putnam Ave & Throop Ave,4392,40.6704922,-73.98541675,40.6851532,-73.94111,casual
192622,9C9C56EF52C0F276,electric_bike,2021-08-24 19:12:54,2021-08-24 19:28:34,Wilson Ave & Troutman St,4864,Putnam Ave & Throop Ave,4392,40.70166,-73.92754,40.6851532,-73.94111,casual
192626,A819ACDD10EC60E8,electric_bike,2021-08-07 19:49:05,2021-08-07 20:09:03,Norfolk St & Broome St,5374,Putnam Ave & Throop Ave,4392,40.7172274,-73.98802084,40.6851532,-73.94111,casual
192632,625B9AF8CF6DF4AF,classic_bike,2021-08-03 19:22:41,2021-08-03 19:55:18,Norfolk St & Broome St,5374,Putnam Ave & Throop Ave,4392,40.7172274,-73.98802084,40.6851532,-73.94111,member
192638,EABE7F7AE0E1EE08,electric_bike,2021-08-06 23:49:23,2021-08-07 00:09:14,Norfolk St & Broome St,5374,Putnam Ave & Throop Ave,4392,40.7172274,-73.98802084,40.6851532,-73.94111,member
192674,A5FA91E6FD52087D,classic_bike,2021-08-20 11:58:46,2021-08-20 12:06:47,Greene Ave & Nostrand Ave,4519,Putnam Ave & Throop Ave,4392,40.6883337,-73.950916,40.6851532,-73.94111,casual
192675,CC404345352C72AA,electric_bike,2021-08-21 00:07:17,2021-08-21 00:12:15,Greene Ave & Nostrand Ave,4519,Putnam Ave & Throop Ave,4392,40.6883337,-73.950916,40.6851532,-73.94111,casual
192683,2F50E44FBE800B32,classic_bike,2021-08-05 18:39:23,2021-08-05 18:45:49,Greene Ave & Nostrand Ave,4519,Putnam Ave & Throop Ave,4392,40.6883337,-73.950916,40.6851532,-73.94111,member
192684,82E9C6CFFBAD4C1C,classic_bike,2021-08-02 15:19:03,2021-08-02 15:25:05,Greene Ave & Nostrand Ave,4519,Putnam Ave & Throop Ave,4392,40.6883337,-73.950916,40.6851532,-73.94111,member
192687,420A71830640208E,classic_bike,2021-08-13 17:23:10,2021-08-13 17:40:26,Baltic St & 5 Ave,4208,Putnam Ave & Throop Ave,4392,40.6795766,-73.97854971,40.6851532,-73.94111,member
192688,877AC331B5F76A43,electric_bike,2021-08-05 14:09:41,2021-08-05 14:23:22,Baltic St & 5 Ave,4208,Putnam Ave & Throop Ave,4392,40.6795766,-73.97854971,40.6851532,-73.94111,member
192693,66DDB2B9C0383180,classic_bike,2021-08-15 11:20:31,2021-08-15 11:39:56,Leonard St & Boerum St,5036,Putnam Ave & Throop Ave,4392,40.70583339,-73.94644578,40.6851532,-73.94111,casual
192695,17C3D0478AC9435B,classic_bike,2021-08-15 11:20:46,2021-08-15 11:39:52,Leonard St & Boerum St,5036,Putnam Ave & Throop Ave,4392,40.70583339,-73.94644578,40.6851532,-73.94111,casual
192698,1D5553A181130B0E,electric_bike,2021-08-10 15:21:32,2021-08-10 16:03:25,E 16 St & 5 Ave,6022,Putnam Ave & Throop Ave,4392,40.73726186,-73.99238967,40.6851532,-73.94111,member
192707,7EDF187BC9CF7741,classic_bike,2021-08-05 21:45:49,2021-08-05 21:56:37,Myrtle Ave & Lewis Ave,4729,Putnam Ave & Throop Ave,4392,40.69681963,-73.93756926,40.6851532,-73.94111,member
192722,62EA068CD66883E3,classic_bike,2021-08-05 17:04:41,2021-08-05 17:29:42,Parade Pl & Crooke Ave,3376,Putnam Ave & Throop Ave,4392,40.651847,-73.965248,40.6851532,-73.94111,member
192732,2D0EDAAD8364631A,electric_bike,2021-08-20 00:13:40,2021-08-20 00:28:21,Cumberland St & Lafayette Ave,4428,Putnam Ave & Throop Ave,4392,40.68753406,-73.97265183,40.6851532,-73.94111,casual
192750,6549D05549BDE4F4,classic_bike,2021-08-14 14:05:29,2021-08-14 14:22:45,Clermont Ave & Lafayette Ave,4461,Putnam Ave & Throop Ave,4392,40.68764484,-73.96968902,40.6851532,-73.94111,member
192752,EAFE15D94A7CB23F,classic_bike,2021-08-31 17:04:36,2021-08-31 17:08:59,Macon St & Nostrand Ave,4214,Putnam Ave & Throop Ave,4392,40.6809833854,-73.9500479759,40.6851532,-73.94111,member
192753,26950CB48ABDB207,classic_bike,2021-08-11 15:08:45,2021-08-11 15:20:37,Macon St & Nostrand Ave,4214,Putnam Ave & Throop Ave,4392,40.6809833854,-73.9500479759,40.6851532,-73.94111,casual
192756,44965F6A7B06C4B3,classic_bike,2021-08-18 23:42:07,2021-08-18 23:48:21,Macon St & Nostrand Ave,4214,Putnam Ave & Throop Ave,4392,40.6809833854,-73.9500479759,40.6851532,-73.94111,casual
192758,D8FAF34DF651AC4B,classic_bike,2021-08-14 13:15:44,2021-08-14 14:19:31,Clermont Ave & Lafayette Ave,4461,Putnam Ave & Throop Ave,4392,40.68764484,-73.96968902,40.6851532,-73.94111,casual
192761,9F7FA5C025698C8C,classic_bike,2021-08-03 13:18:58,2021-08-03 13:24:55,Macon St & Nostrand Ave,4214,Putnam Ave & Throop Ave,4392,40.6809833854,-73.9500479759,40.6851532,-73.94111,casual
192762,6261ECBB84133127,classic_bike,2021-08-21 19:56:05,2021-08-21 20:08:18,Underhill Ave & Pacific St,4231,Putnam Ave & Throop Ave,4392,40.6804836,-73.9646795,40.6851532,-73.94111,casual
192763,87A6EB66F934381E,classic_bike,2021-08-13 18:37:20,2021-08-13 18:58:49,Irving Ave & Palmetto St,4775,Putnam Ave & Throop Ave,4392,40.698,-73.9127,40.6851532,-73.94111,casual
192765,5D17DA17FD48242A,classic_bike,2021-08-04 18:54:20,2021-08-04 18:59:43,Macon St & Nostrand Ave,4214,Putnam Ave & Throop Ave,4392,40.6809833854,-73.9500479759,40.6851532,-73.94111,member
192766,8442CF27C2DB868C,classic_bike,2021-08-19 19:04:16,2021-08-19 19:10:22,Macon St & Nostrand Ave,4214,Putnam Ave & Throop Ave,4392,40.6809833854,-73.9500479759,40.6851532,-73.94111,member
192768,AEEE803232EB6C76,classic_bike,2021-08-07 18:31:37,2021-08-07 18:37:24,Macon St & Nostrand Ave,4214,Putnam Ave & Throop Ave,4392,40.6809833854,-73.9500479759,40.6851532,-73.94111,member
192769,9DAEB605CA75B1F8,electric_bike,2021-08-21 17:12:12,2021-08-21 17:33:29,Wyckoff Ave & Gates Ave,4847,Putnam Ave & Throop Ave,4392,40.699871408829885,-73.91171872615814,40.6851532,-73.94111,casual
192780,3031F1391486A57D,electric_bike,2021-08-07 17:36:39,2021-08-07 18:01:44,Clinton St & Grand St,5303,Putnam Ave & Throop Ave,4392,40.71559509,-73.9870295,40.6851532,-73.94111,member
192796,7E45B96D7792C5D2,classic_bike,2021-08-03 22:41:30,2021-08-03 23:03:10,Bedford Ave & Nassau Ave,5550,Putnam Ave & Throop Ave,4392,40.72311651,-73.95212324,40.6851532,-73.94111,casual
192797,55658ECD2E113BF3,electric_bike,2021-08-06 16:59:02,2021-08-06 17:18:10,Bedford Ave & Nassau Ave,5550,Putnam Ave & Throop Ave,4392,40.72311651,-73.95212324,40.6851532,-73.94111,casual
192823,11296086AA3E368B,classic_bike,2021-08-13 16:18:14,2021-08-13 16:22:32,Kingston Ave & Herkimer St,4205,Putnam Ave & Throop Ave,4392,40.67890679,-73.94142771,40.6851532,-73.94111,casual
192836,2AE488522F39B95B,classic_bike,2021-08-06 09:36:15,2021-08-06 10:01:26,Park Ave & St Edwards St,4700,Putnam Ave & Throop Ave,4392,40.69608941,-73.97803415,40.6851532,-73.94111,member
192842,801D9BD0362353CD,electric_bike,2021-08-19 21:58:18,2021-08-19 22:07:56,Tompkins Ave & Hopkins St,4850,Putnam Ave & Throop Ave,4392,40.69957608,-73.94708417,40.6851532,-73.94111,member
192843,2A42261DED8B9890,electric_bike,2021-08-15 10:20:23,2021-08-15 10:31:52,Grand Ave & Bergen St,4190,Putnam Ave & Throop Ave,4392,40.678045,-73.962408,40.6851532,-73.94111,member
192852,6E2BB9CFB6760953,classic_bike,2021-08-26 14:23:42,2021-08-26 14:36:30,Pulaski St & Marcus Garvey Blvd,4656,Putnam Ave & Throop Ave,4392,40.6933982,-73.939877,40.6851532,-73.94111,member
192857,AE32AC0224349DA0,classic_bike,2021-08-18 09:26:25,2021-08-18 09:30:04,Putnam Ave & Nostrand Ave,4327,Putnam Ave & Throop Ave,4392,40.68402,-73.94977,40.6851532,-73.94111,member
192858,669C5E2D1624BEE4,classic_bike,2021-08-28 02:04:52,2021-08-28 02:15:52,Fulton St & Irving Pl,4263,Putnam Ave & Throop Ave,4392,40.68186,-73.959432,40.6851532,-73.94111,member
192860,A5CAEF12BDE11A9C,electric_bike,2021-08-09 20:15:45,2021-08-09 20:25:15,Pulaski St & Marcus Garvey Blvd,4656,Putnam Ave & Throop Ave,4392,40.6933982,-73.939877,40.6851532,-73.94111,casual
192862,BAB612DD1AED23FF,electric_bike,2021-08-26 19:59:13,2021-08-26 20:15:33,Bedford Ave & Bergen St,4066,Putnam Ave & Throop Ave,4392,40.676368,-73.952918,40.6851532,-73.94111,casual
192863,C31437678B809B79,classic_bike,2021-08-15 05:41:51,2021-08-15 06:02:06,Bedford Ave & Bergen St,4066,Putnam Ave & Throop Ave,4392,40.676368,-73.952918,40.6851532,-73.94111,member
192866,CEACC62ACEF1D343,classic_bike,2021-08-02 01:07:03,2021-08-02 01:17:43,Grand Ave & Bergen St,4190,Putnam Ave & Throop Ave,4392,40.678045,-73.962408,40.6851532,-73.94111,casual
192867,0E3B550032452619,classic_bike,2021-08-23 15:54:32,2021-08-23 16:05:25,Bedford Ave & Bergen St,4066,Putnam Ave & Throop Ave,4392,40.676368,-73.952918,40.6851532,-73.94111,casual
192868,E13BB9B6033CBF14,electric_bike,2021-08-13 08:16:31,2021-08-13 08:20:35,Pulaski St & Marcus Garvey Blvd,4656,Putnam Ave & Throop Ave,4392,40.6933982,-73.939877,40.6851532,-73.94111,casual
192871,8AA3F687C3F0DF67,classic_bike,2021-08-29 16:02:14,2021-08-29 16:10:21,Bedford Ave & Bergen St,4066,Putnam Ave & Throop Ave,4392,40.676368,-73.952918,40.6851532,-73.94111,casual
192874,C0F5F70DCD535E38,electric_bike,2021-08-02 17:03:58,2021-08-02 17:18:43,Berkeley Pl & 7 Ave,4051,Putnam Ave & Throop Ave,4392,40.675146838709786,-73.97523209452629,40.6851532,-73.94111,member
192877,793FE5286E00D294,electric_bike,2021-08-02 21:53:18,2021-08-02 22:13:31,Berkeley Pl & 7 Ave,4051,Putnam Ave & Throop Ave,4392,40.675146838709786,-73.97523209452629,40.6851532,-73.94111,member
192880,38FDA1496E857C19,electric_bike,2021-08-06 23:03:25,2021-08-06 23:25:02,Van Sinderen Ave & Truxton St,4161,Putnam Ave & Throop Ave,4392,40.6786,-73.90369,40.6851532,-73.94111,casual
192890,6BDF349AA48EE661,classic_bike,2021-08-07 16:51:47,2021-08-07 16:59:26,Marcy Ave & Lafayette Ave,4476,Putnam Ave & Throop Ave,4392,40.6900815,-73.947915,40.6851532,-73.94111,member
192896,A5802F56FC3B0456,classic_bike,2021-08-30 20:01:00,2021-08-30 20:08:20,Marcy Ave & Lafayette Ave,4476,Putnam Ave & Throop Ave,4392,40.6900815,-73.947915,40.6851532,-73.94111,casual
192899,1D404038F98AFF89,classic_bike,2021-08-24 20:44:50,2021-08-24 20:54:43,Marcy Ave & Lafayette Ave,4476,Putnam Ave & Throop Ave,4392,40.6900815,-73.947915,40.6851532,-73.94111,casual
192901,71C5F97BE32D14E6,electric_bike,2021-08-28 17:07:48,2021-08-28 17:30:20,Bedford Ave & S 9 St,5093,Putnam Ave & Throop Ave,4392,40.70853074,-73.96408963,40.6851532,-73.94111,casual
192919,BFE43B4D550DBBFA,classic_bike,2021-08-17 18:20:40,2021-08-17 18:43:35,Roebling St & N 4 St,5267,Putnam Ave & Throop Ave,4392,40.71469,-73.95739,40.6851532,-73.94111,member
192953,CC1C8DEAB33F9494,classic_bike,2021-08-18 01:35:05,2021-08-18 02:19:53,Roebling St & N 4 St,5267,Putnam Ave & Throop Ave,4392,40.71469,-73.95739,40.6851532,-73.94111,casual
192980,2B5856ACBD30F106,electric_bike,2021-08-27 22:15:38,2021-08-27 22:39:00,10 St & 7 Ave,3762,Putnam Ave & Throop Ave,4392,40.6662078,-73.98199886,40.6851532,-73.94111,casual
192990,85E48BA4BC4D724F,classic_bike,2021-08-05 09:26:52,2021-08-05 09:48:31,Forest Ave & Summerfield St,4798,Putnam Ave & Throop Ave,4392,40.69922,-73.89795,40.6851532,-73.94111,member
192997,1E1026F32A1A1E3B,electric_bike,2021-08-27 22:15:24,2021-08-27 22:38:53,10 St & 7 Ave,3762,Putnam Ave & Throop Ave,4392,40.6662078,-73.98199886,40.6851532,-73.94111,casual
193003,36F84BFA384E2766,classic_bike,2021-08-30 16:26:56,2021-08-30 17:00:32,Bridge St & Water St,4968,Putnam Ave & Throop Ave,4392,40.70296934155272,-73.98469090461731,40.6851532,-73.94111,member
193020,FDDE63E1A052EB91,electric_bike,2021-08-29 17:25:42,2021-08-29 17:56:06,Bridge St & Water St,4968,Putnam Ave & Throop Ave,4392,40.70296934155272,-73.98469090461731,40.6851532,-73.94111,casual
193022,BDC312749511007A,classic_bike,2021-08-18 01:34:48,2021-08-18 02:20:00,Roebling St & N 4 St,5267,Putnam Ave & Throop Ave,4392,40.71469,-73.95739,40.6851532,-73.94111,casual
193030,E9C3565D80889126,classic_bike,2021-08-26 07:47:54,2021-08-26 08:02:29,Willoughby Ave & Myrtle Ave,4759,Putnam Ave & Throop Ave,4392,40.69757,-73.93098,40.6851532,-73.94111,casual
193031,D35DF1868B398EAF,electric_bike,2021-08-18 23:14:21,2021-08-19 00:03:25,E 51 St & 1 Ave,6532,Putnam Ave & Throop Ave,4392,40.75455731,-73.96592976,40.6851532,-73.94111,member
193034,7E3E47E2D3BDEEA4,electric_bike,2021-08-21 00:34:56,2021-08-21 00:43:46,Willoughby Ave & Myrtle Ave,4759,Putnam Ave & Throop Ave,4392,40.69757,-73.93098,40.6851532,-73.94111,member
193037,C8521417114F9F73,classic_bike,2021-08-06 07:57:09,2021-08-06 08:17:29,Marcy Ave & Lafayette Ave,4476,Putnam Ave & Throop Ave,4392,40.6900815,-73.947915,40.6851532,-73.94111,member
193066,BBC6611782F35423,classic_bike,2021-08-04 00:34:20,2021-08-04 01:03:55,Rivington St & Ridge St,5406,Putnam Ave & Throop Ave,4392,40.71850211,-73.98329859,40.6851532,-73.94111,member
193077,3836B5E060402E57,electric_bike,2021-08-19 17:47:42,2021-08-19 18:07:23,Calyer St & Jewel St,5743,Putnam Ave & Throop Ave,4392,40.72984,-73.94839,40.6851532,-73.94111,casual
193078,DBCB173202A20470,electric_bike,2021-08-24 18:44:04,2021-08-24 19:05:30,Calyer St & Jewel St,5743,Putnam Ave & Throop Ave,4392,40.72984,-73.94839,40.6851532,-73.94111,casual
193081,247D420E4097F1CB,classic_bike,2021-08-01 20:16:45,2021-08-01 20:35:39,Lewis Ave & Madison St,4425,Putnam Ave & Throop Ave,4392,40.686312,-73.935775,40.6851532,-73.94111,casual
193082,E34EED86617F1DEE,classic_bike,2021-08-10 13:28:44,2021-08-10 13:34:10,Lewis Ave & Madison St,4425,Putnam Ave & Throop Ave,4392,40.686312,-73.935775,40.6851532,-73.94111,casual
193085,F17AED30D589FC45,classic_bike,2021-08-02 19:25:35,2021-08-02 19:55:53,Flushing Ave & Vanderbilt Ave,4762,Putnam Ave & Throop Ave,4392,40.69795031569544,-73.97077560424805,40.6851532,-73.94111,casual
193087,49C108F001C27DD8,classic_bike,2021-08-29 23:43:57,2021-08-29 23:56:51,Central Ave & Starr Street,4792,Putnam Ave & Throop Ave,4392,40.700003,-73.92834,40.6851532,-73.94111,casual
193088,038B299B76E707B8,classic_bike,2021-08-29 21:40:07,2021-08-29 22:17:26,Driggs Ave & Lorimer St,5481,Putnam Ave & Throop Ave,4392,40.72179134,-73.9504154,40.6851532,-73.94111,casual
193094,634C065D04FD6867,electric_bike,2021-08-25 19:58:08,2021-08-25 20:18:37,Grand St & Havemeyer St,5267,Putnam Ave & Throop Ave,4392,40.71286844,-73.95698119,40.6851532,-73.94111,member
193095,47EED7AF9867FA0B,classic_bike,2021-08-05 19:14:11,2021-08-05 19:35:29,Grand St & Havemeyer St,5267,Putnam Ave & Throop Ave,4392,40.71286844,-73.95698119,40.6851532,-73.94111,member
193109,0128E042E016156A,electric_bike,2021-08-06 22:14:59,2021-08-06 22:49:41,E 30 St & Park Ave S,6206,Putnam Ave & Throop Ave,4392,40.74444921,-73.98303529,40.6851532,-73.94111,member
193128,4A7ECAB00B161547,classic_bike,2021-08-05 22:27:17,2021-08-05 22:47:59,Grand St & Havemeyer St,5267,Putnam Ave & Throop Ave,4392,40.71286844,-73.95698119,40.6851532,-73.94111,member
193131,8A16F2EABB9AF5F3,electric_bike,2021-08-30 07:18:21,2021-08-30 07:38:00,State St & Smith St,4565,Putnam Ave & Throop Ave,4392,40.68926942,-73.98912867,40.6851532,-73.94111,casual
193135,E50BF7F8CE6EC556,electric_bike,2021-08-29 00:47:28,2021-08-29 00:59:29,Dean St & Franklin Ave,4107,Putnam Ave & Throop Ave,4392,40.67759206937376,-73.955637216568,40.6851532,-73.94111,member
193150,E01A45AEB6DDDAD4,classic_bike,2021-08-12 23:45:15,2021-08-12 23:53:03,Kosciuszko St & Tompkins Ave,4553,Putnam Ave & Throop Ave,4392,40.69128258,-73.9452416,40.6851532,-73.94111,member
193151,9F10D6E8FE2F9D0E,classic_bike,2021-08-04 21:28:23,2021-08-04 21:48:12,Norman St & Wyckoff Ave,4654,Putnam Ave & Throop Ave,4392,40.69517,-73.90311,40.6851532,-73.94111,casual
193153,FFC9816F1927CB90,electric_bike,2021-08-04 23:03:28,2021-08-04 23:24:10,Centre St & Seneca Ave,4837,Putnam Ave & Throop Ave,4392,40.69969,-73.9022,40.6851532,-73.94111,casual
193163,DBF8DED954DA1D08,classic_bike,2021-08-06 23:14:07,2021-08-06 23:36:08,3 Ave & Schermerhorn St,4437,Putnam Ave & Throop Ave,4392,40.68683208,-73.9796772,40.6851532,-73.94111,member
193174,2F47900FE07F188A,classic_bike,2021-08-31 18:25:49,2021-08-31 18:59:15,Emerson Pl & Myrtle Ave,4683,Putnam Ave & Throop Ave,4392,40.69363137,-73.96223558,40.6851532,-73.94111,member
193175,2D1CD3BC3723E37F,classic_bike,2021-08-02 19:10:28,2021-08-02 19:25:54,Emerson Pl & Myrtle Ave,4683,Putnam Ave & Throop Ave,4392,40.69363137,-73.96223558,40.6851532,-73.94111,member
193201,0262314C45E72B3D,classic_bike,2021-08-12 17:59:08,2021-08-12 18:07:47,Macon St & Nostrand Ave,4214,Putnam Ave & Throop Ave,4392,40.6809833854,-73.9500479759,40.6851532,-73.94111,member
193202,13420D64500CC160,classic_bike,2021-08-28 17:17:38,2021-08-28 17:23:32,Macon St & Nostrand Ave,4214,Putnam Ave & Throop Ave,4392,40.6809833854,-73.9500479759,40.6851532,-73.94111,member
193204,D3E4522B5B73D6FB,classic_bike,2021-08-17 13:29:47,2021-08-17 13:34:57,Macon St & Nostrand Ave,4214,Putnam Ave & Throop Ave,4392,40.6809833854,-73.9500479759,40.6851532,-73.94111,member
193206,217AF251D1E78F94,electric_bike,2021-08-31 16:51:45,2021-08-31 17:14:30,Delancey St & Eldridge St,5414,Putnam Ave & Throop Ave,4392,40.719383,-73.991479,40.6851532,-73.94111,casual
193207,4789BA4ADBB19E4F,classic_bike,2021-08-02 15:06:47,2021-08-02 15:12:17,Macon St & Nostrand Ave,4214,Putnam Ave & Throop Ave,4392,40.6809833854,-73.9500479759,40.6851532,-73.94111,casual
193217,9618B1EF51EBE4D8,electric_bike,2021-08-18 23:34:19,2021-08-18 23:54:35,Kingsland Ave & Nassau Ave,5613,Putnam Ave & Throop Ave,4392,40.72577,-73.94173,40.6851532,-73.94111,casual
193223,7A0AFA5B7DEF76ED,electric_bike,2021-08-13 02:19:56,2021-08-13 02:39:17,Prospect Park SW & 10 Ave,3611,Putnam Ave & Throop Ave,4392,40.659945,-73.977504,40.6851532,-73.94111,casual
193225,B27BC79FE4D67A6B,electric_bike,2021-08-15 11:41:29,2021-08-15 11:46:15,Kingston Ave & Herkimer St,4205,Putnam Ave & Throop Ave,4392,40.67890679,-73.94142771,40.6851532,-73.94111,casual
193239,7735C37D0185F6FC,classic_bike,2021-08-14 21:34:00,2021-08-14 21:41:31,Kingston Ave & Herkimer St,4205,Putnam Ave & Throop Ave,4392,40.67890679,-73.94142771,40.6851532,-73.94111,casual
193248,5359660DD6B91F85,classic_bike,2021-08-14 13:09:22,2021-08-14 14:02:00,Kingston Ave & Herkimer St,4205,Putnam Ave & Throop Ave,4392,40.67890679,-73.94142771,40.6851532,-73.94111,member
193256,C9F90C79338157F7,classic_bike,2021-08-10 15:09:08,2021-08-10 15:12:27,Kingston Ave & Herkimer St,4205,Putnam Ave & Throop Ave,4392,40.67890679,-73.94142771,40.6851532,-73.94111,member
193267,2F4344A0588FB9CF,classic_bike,2021-08-15 16:50:15,2021-08-15 16:53:41,Kingston Ave & Herkimer St,4205,Putnam Ave & Throop Ave,4392,40.67890679,-73.94142771,40.6851532,-73.94111,member
193275,DE6F39B61C430E01,classic_bike,2021-08-31 19:39:06,2021-08-31 19:48:11,Kingston Ave & Herkimer St,4205,Putnam Ave & Throop Ave,4392,40.67890679,-73.94142771,40.6851532,-73.94111,casual
193277,B5232073AD51EBCB,classic_bike,2021-08-11 07:36:06,2021-08-11 07:53:03,Washington Park,4546,Putnam Ave & Throop Ave,4392,40.6917823,-73.9737299,40.6851532,-73.94111,member
193283,B54693560875D351,electric_bike,2021-08-11 18:16:29,2021-08-11 18:36:23,Washington Park,4546,Putnam Ave & Throop Ave,4392,40.6917823,-73.9737299,40.6851532,-73.94111,casual
193284,7572A7706979244A,electric_bike,2021-08-28 23:35:55,2021-08-28 23:48:36,Willoughby Ave & Myrtle Ave,4759,Putnam Ave & Throop Ave,4392,40.69757,-73.93098,40.6851532,-73.94111,casual
193286,5BDCD1E34B988A7B,classic_bike,2021-08-07 11:39:05,2021-08-07 11:57:48,Washington Park,4546,Putnam Ave & Throop Ave,4392,40.6917823,-73.9737299,40.6851532,-73.94111,casual
193293,4BDACD3E49531FBA,classic_bike,2021-08-24 19:16:08,2021-08-24 19:24:24,Broadway & Kosciuszko St,4608,Putnam Ave & Throop Ave,4392,40.69329,-73.92852,40.6851532,-73.94111,casual
193304,3AB71200050B5445,electric_bike,2021-08-28 18:51:18,2021-08-28 18:59:35,Lewis Ave & Decatur St,4237,Putnam Ave & Throop Ave,4392,40.6814598,-73.934903,40.6851532,-73.94111,member
193312,F609A43931690B3D,classic_bike,2021-08-22 02:33:28,2021-08-22 02:45:10,Bushwick Ave & Harman St,4640,Putnam Ave & Throop Ave,4392,40.69356,-73.92524,40.6851532,-73.94111,casual
193319,272446BBC0CFD4BE,classic_bike,2021-08-18 18:06:05,2021-08-18 18:11:49,Lewis Ave & Decatur St,4237,Putnam Ave & Throop Ave,4392,40.6814598,-73.934903,40.6851532,-73.94111,casual
193320,67F9890154147FB6,classic_bike,2021-08-14 14:08:55,2021-08-14 14:13:59,Lewis Ave & Decatur St,4237,Putnam Ave & Throop Ave,4392,40.6814598,-73.934903,40.6851532,-73.94111,member
193327,1BB0134D86A62C5D,electric_bike,2021-08-17 19:48:58,2021-08-17 20:08:18,Sullivan Pl & Franklin Ave,3704,Putnam Ave & Throop Ave,4392,40.66407983678161,-73.96025128666679,40.6851532,-73.94111,casual
193331,2C5CE9AE4CF0475B,classic_bike,2021-08-29 15:03:12,2021-08-29 15:29:58,Broadway & Kosciuszko St,4608,Putnam Ave & Throop Ave,4392,40.69329,-73.92852,40.6851532,-73.94111,casual
193332,F9B3F3A0A52A1A3B,classic_bike,2021-08-13 13:54:22,2021-08-13 14:00:00,Lewis Ave & Decatur St,4237,Putnam Ave & Throop Ave,4392,40.6814598,-73.934903,40.6851532,-73.94111,casual
193333,E82E10646BD825E4,classic_bike,2021-08-05 18:28:22,2021-08-05 19:01:40,Stanton St & Norfolk St,5445,Putnam Ave & Throop Ave,4392,40.720747,-73.986274,40.6851532,-73.94111,member
193360,013A4761B5D0CDB6,electric_bike,2021-08-14 22:02:01,2021-08-14 22:39:40,W 36 St & 9 Ave,6569,Putnam Ave & Throop Ave,4392,40.75462324029105,-73.99516761302948,40.6851532,-73.94111,member
193387,C64F50634D1E3DEB,classic_bike,2021-08-02 12:34:42,2021-08-02 12:50:12,Baltic St & 5 Ave,4208,Putnam Ave & Throop Ave,4392,40.6795766,-73.97854971,40.6851532,-73.94111,member
193408,D1CFD5B8A2D32AE8,classic_bike,2021-08-25 12:00:33,2021-08-25 12:03:47,Marcus Garvey Blvd & Macon St,4278,Putnam Ave & Throop Ave,4392,40.682601,-73.938037,40.6851532,-73.94111,casual
193412,64D3478F2252E839,electric_bike,2021-08-17 20:18:51,2021-08-17 20:40:36,Ashland Pl & Dekalb Ave,4513,Putnam Ave & Throop Ave,4392,40.690065,-73.978776,40.6851532,-73.94111,member
193419,123EDA2C26F5FB21,classic_bike,2021-08-09 15:49:01,2021-08-09 16:17:42,Caton Ave & Argyle Rd,3303,Putnam Ave & Throop Ave,4392,40.649681,-73.967829,40.6851532,-73.94111,member
193422,8DE3D17C220974C4,electric_bike,2021-08-07 15:43:14,2021-08-07 16:07:12,Adams St & Prospect St,4821,Putnam Ave & Throop Ave,4392,40.70076308326151,-73.98869812488556,40.6851532,-73.94111,casual
193429,12B424FAA52044E0,electric_bike,2021-08-04 19:06:29,2021-08-04 19:30:05,S 3 St & Bedford Ave,5235,Putnam Ave & Throop Ave,4392,40.71260486,-73.96264403,40.6851532,-73.94111,member
193431,28F4B59B88EAD895,electric_bike,2021-08-29 01:10:18,2021-08-29 01:34:22,Wilson Ave & Troutman St,4864,Putnam Ave & Throop Ave,4392,40.70166,-73.92754,40.6851532,-73.94111,casual
193435,BB6903235BFE8D2B,electric_bike,2021-08-06 23:46:25,2021-08-06 23:59:43,Wilson Ave & Troutman St,4864,Putnam Ave & Throop Ave,4392,40.70166,-73.92754,40.6851532,-73.94111,casual
193444,683E5FB3D1090B41,electric_bike,2021-08-13 12:49:39,2021-08-13 13:13:50,Kent Ave & N 7 St,5489,Putnam Ave & Throop Ave,4392,40.72036775298455,-73.96165072917938,40.6851532,-73.94111,casual
193446,594F067F0703F83E,classic_bike,2021-08-01 19:03:58,2021-08-01 19:25:17,Bond St & Bergen St,4404,Putnam Ave & Throop Ave,4392,40.6849668,-73.98620772,40.6851532,-73.94111,casual
193462,DDA313866B48235A,classic_bike,2021-08-07 15:14:24,2021-08-07 15:35:40,Myrtle Ave & St Edwards St,4659,Putnam Ave & Throop Ave,4392,40.69327018,-73.97703874,40.6851532,-73.94111,casual
193468,FEEC326F1CD0DA7B,electric_bike,2021-08-16 08:16:59,2021-08-16 08:25:39,Fulton St & Utica Ave,4228,Putnam Ave & Throop Ave,4392,40.6794268,-73.9298911,40.6851532,-73.94111,casual
193469,24CE16C6D76A1B0E,electric_bike,2021-08-05 21:59:21,2021-08-05 22:04:21,Fulton St & Utica Ave,4228,Putnam Ave & Throop Ave,4392,40.6794268,-73.9298911,40.6851532,-73.94111,casual
193470,429D380C9BFDFE31,classic_bike,2021-08-29 16:22:26,2021-08-29 16:30:05,Fulton St & Utica Ave,4228,Putnam Ave & Throop Ave,4392,40.6794268,-73.9298911,40.6851532,-73.94111,casual
193471,F8BD07F84B9FD12D,classic_bike,2021-08-24 22:04:04,2021-08-24 22:42:38,Fulton St & Utica Ave,4228,Putnam Ave & Throop Ave,4392,40.6794268,-73.9298911,40.6851532,-73.94111,casual
193475,497CCE87A9BC9453,classic_bike,2021-08-09 20:27:27,2021-08-09 20:55:25,3 Ave & 14 St,3850,Putnam Ave & Throop Ave,4392,40.6685455,-73.99333264,40.6851532,-73.94111,casual
193482,AB025F118B504DE2,classic_bike,2021-08-04 20:29:57,2021-08-04 20:59:20,Forsyth St & Broome St,5453,Putnam Ave & Throop Ave,4392,40.71893904,-73.99266288,40.6851532,-73.94111,member
193491,608D26C23B5B14CA,classic_bike,2021-08-23 21:51:52,2021-08-23 22:05:59,Lexington Ave & Classon Ave,4452,Putnam Ave & Throop Ave,4392,40.68676793,-73.95928168,40.6851532,-73.94111,member
193493,66502DAC0440461B,electric_bike,2021-08-25 12:31:07,2021-08-25 12:48:03,Fulton St & Utica Ave,4228,Putnam Ave & Throop Ave,4392,40.6794268,-73.9298911,40.6851532,-73.94111,member
193494,9885A335D6EF5B08,classic_bike,2021-08-03 15:50:27,2021-08-03 16:11:34,Fulton St & Utica Ave,4228,Putnam Ave & Throop Ave,4392,40.6794268,-73.9298911,40.6851532,-73.94111,casual
193498,BB32BBCDE01D9662,electric_bike,2021-08-11 23:59:41,2021-08-12 00:09:53,Myrtle Ave & Lewis Ave,4729,Putnam Ave & Throop Ave,4392,40.69681963,-73.93756926,40.6851532,-73.94111,casual
193511,C79B22B4945E467B,classic_bike,2021-08-29 23:16:26,2021-08-29 23:31:09,Lexington Ave & Classon Ave,4452,Putnam Ave & Throop Ave,4392,40.68676793,-73.95928168,40.6851532,-73.94111,casual
193535,FB1053CBD38098F5,electric_bike,2021-08-29 21:04:19,2021-08-29 21:34:48,14 St & 7 Ave,3731,Putnam Ave & Throop Ave,4392,40.663779,-73.98396846,40.6851532,-73.94111,casual
193543,098FDC5D61BF2521,classic_bike,2021-08-29 16:43:40,2021-08-29 16:52:22,Bushwick Ave & Dekalb Ave,4680,Putnam Ave & Throop Ave,4392,40.69502,-73.92825,40.6851532,-73.94111,casual
193544,B77E743B3207FE1E,electric_bike,2021-08-14 04:53:03,2021-08-14 05:03:17,Bushwick Ave & Dekalb Ave,4680,Putnam Ave & Throop Ave,4392,40.69502,-73.92825,40.6851532,-73.94111,casual
193555,9D2AA883A6D4543F,electric_bike,2021-08-11 08:39:38,2021-08-11 08:41:31,Putnam Ave & Throop Ave,4392,Putnam Ave & Throop Ave,4392,40.6851532,-73.94111,40.6851532,-73.94111,member
193569,0EC58BB8484CA2A0,classic_bike,2021-08-24 20:44:41,2021-08-24 20:55:03,Marcy Ave & Lafayette Ave,4476,Putnam Ave & Throop Ave,4392,40.6900815,-73.947915,40.6851532,-73.94111,casual
193570,4C24E001C6B68A0B,classic_bike,2021-08-24 17:01:52,2021-08-24 17:13:42,Marcy Ave & Lafayette Ave,4476,Putnam Ave & Throop Ave,4392,40.6900815,-73.947915,40.6851532,-73.94111,casual
193573,E27BAF09FA3833D8,electric_bike,2021-08-03 15:44:14,2021-08-03 16:17:21,E 17 St & Broadway,5980,Putnam Ave & Throop Ave,4392,40.73704984,-73.99009296,40.6851532,-73.94111,casual
193584,3688DB96A1231D65,classic_bike,2021-08-18 15:13:29,2021-08-18 15:35:33,Putnam Ave & Throop Ave,4392,Putnam Ave & Throop Ave,4392,40.6851532,-73.94111,40.6851532,-73.94111,member
193594,C9CCA269B26AB460,classic_bike,2021-08-09 09:30:45,2021-08-09 09:49:20,10 St & 7 Ave,3762,Putnam Ave & Throop Ave,4392,40.6662078,-73.98199886,40.6851532,-73.94111,casual
193595,C1D634EF27282C15,classic_bike,2021-08-25 07:57:57,2021-08-25 08:02:15,Kosciuszko St & Tompkins Ave,4553,Putnam Ave & Throop Ave,4392,40.69128258,-73.9452416,40.6851532,-73.94111,member
193598,C48817FA41DAEF73,electric_bike,2021-08-20 02:33:39,2021-08-20 02:57:30,E 7 St & Avenue A,5626,Putnam Ave & Throop Ave,4392,40.72621788,-73.98379855,40.6851532,-73.94111,member
193599,0E0025B26420982C,electric_bike,2021-08-11 21:43:41,2021-08-11 21:57:55,DeKalb Ave & Vanderbilt Ave,4461,Putnam Ave & Throop Ave,4392,40.68940747,-73.96885458,40.6851532,-73.94111,member
193607,41E9F68352A70261,classic_bike,2021-08-30 20:29:08,2021-08-30 20:33:06,Kosciuszko St & Tompkins Ave,4553,Putnam Ave & Throop Ave,4392,40.69128258,-73.9452416,40.6851532,-73.94111,member
193608,5A5E0E7742F227A0,classic_bike,2021-08-09 08:48:56,2021-08-09 08:53:25,Kosciuszko St & Tompkins Ave,4553,Putnam Ave & Throop Ave,4392,40.69128258,-73.9452416,40.6851532,-73.94111,member
193617,0E8EA2AD22B806DF,classic_bike,2021-08-21 13:54:12,2021-08-21 14:20:26,Roebling St & N 4 St,5267,Putnam Ave & Throop Ave,4392,40.71469,-73.95739,40.6851532,-73.94111,casual
193631,F4E2905A76F44102,classic_bike,2021-08-04 22:16:46,2021-08-04 22:33:25,Wilson Ave & Troutman St,4864,Putnam Ave & Throop Ave,4392,40.70166,-73.92754,40.6851532,-73.94111,casual
193636,705748ADCBBB853F,classic_bike,2021-08-14 13:18:17,2021-08-14 14:19:35,Clermont Ave & Lafayette Ave,4461,Putnam Ave & Throop Ave,4392,40.68764484,-73.96968902,40.6851532,-73.94111,member
193640,5B1A88088FFC7611,classic_bike,2021-08-18 00:29:56,2021-08-18 00:40:32,DeKalb Ave & Franklin Ave,4528,Putnam Ave & Throop Ave,4392,40.69064807082943,-73.95746178925037,40.6851532,-73.94111,casual
193642,B372FACA280AA953,electric_bike,2021-08-14 20:31:25,2021-08-14 20:59:54,Clermont Ave & Lafayette Ave,4461,Putnam Ave & Throop Ave,4392,40.68764484,-73.96968902,40.6851532,-73.94111,member
193644,B000319841314F06,classic_bike,2021-08-14 19:05:42,2021-08-14 19:13:44,Macon St & Nostrand Ave,4214,Putnam Ave & Throop Ave,4392,40.6809833854,-73.9500479759,40.6851532,-73.94111,member
193645,EDA37AB53E8948B0,classic_bike,2021-08-01 13:40:49,2021-08-01 13:46:45,Macon St & Nostrand Ave,4214,Putnam Ave & Throop Ave,4392,40.6809833854,-73.9500479759,40.6851532,-73.94111,member
193651,742A22EF233AFA57,classic_bike,2021-08-10 15:35:04,2021-08-10 15:41:48,Macon St & Nostrand Ave,4214,Putnam Ave & Throop Ave,4392,40.6809833854,-73.9500479759,40.6851532,-73.94111,casual
193652,315674D2CEFA947B,classic_bike,2021-08-29 18:33:25,2021-08-29 18:39:01,Macon St & Nostrand Ave,4214,Putnam Ave & Throop Ave,4392,40.6809833854,-73.9500479759,40.6851532,-73.94111,casual
193655,09CA1AE9C74E96B2,classic_bike,2021-08-02 16:06:20,2021-08-02 16:10:37,Macon St & Nostrand Ave,4214,Putnam Ave & Throop Ave,4392,40.6809833854,-73.9500479759,40.6851532,-73.94111,member
193656,915E1FED7BB190F5,classic_bike,2021-08-09 19:25:00,2021-08-09 19:31:19,Macon St & Nostrand Ave,4214,Putnam Ave & Throop Ave,4392,40.6809833854,-73.9500479759,40.6851532,-73.94111,member
193657,061224E386D775EB,classic_bike,2021-08-13 14:53:10,2021-08-13 14:59:29,Macon St & Nostrand Ave,4214,Putnam Ave & Throop Ave,4392,40.6809833854,-73.9500479759,40.6851532,-73.94111,member
193667,2B8E7ADA29AEB089,electric_bike,2021-08-11 15:49:54,2021-08-11 15:54:20,Lewis Ave & Madison St,4425,Putnam Ave & Throop Ave,4392,40.686312,-73.935775,40.6851532,-73.94111,member
193668,4D36E22E7F3AAC3B,electric_bike,2021-08-07 15:29:50,2021-08-07 16:33:54,14 St & 5 Ave,3771,Putnam Ave & Throop Ave,4392,40.666287,-73.98895053,40.6851532,-73.94111,member
193669,D70126A04607C178,classic_bike,2021-08-26 12:06:37,2021-08-26 12:39:56,N 6 St & Bedford Ave,5379,Putnam Ave & Throop Ave,4392,40.71745169,-73.95850939,40.6851532,-73.94111,member
193670,86D0C8C838F5BD39,electric_bike,2021-08-19 18:15:47,2021-08-19 19:33:59,Lewis Ave & Madison St,4425,Putnam Ave & Throop Ave,4392,40.686312,-73.935775,40.6851532,-73.94111,casual
193672,6CFAC6D27B1CBA8A,classic_bike,2021-08-04 15:32:51,2021-08-04 15:36:35,Lewis Ave & Madison St,4425,Putnam Ave & Throop Ave,4392,40.686312,-73.935775,40.6851532,-73.94111,casual
193674,2285EF94367D0D32,classic_bike,2021-08-31 21:56:49,2021-08-31 22:06:39,Lefferts Pl & Franklin Ave,4222,Putnam Ave & Throop Ave,4392,40.680342423,-73.9557689392,40.6851532,-73.94111,casual
193675,F6738327A6D47E83,classic_bike,2021-08-31 20:46:04,2021-08-31 20:49:38,Lewis Ave & Madison St,4425,Putnam Ave & Throop Ave,4392,40.686312,-73.935775,40.6851532,-73.94111,casual
193681,F60BDC4962A62A2E,electric_bike,2021-08-18 17:40:13,2021-08-18 18:05:26,Cleveland Pl & Spring St,5492,Putnam Ave & Throop Ave,4392,40.722103786686034,-73.99724900722504,40.6851532,-73.94111,member
193699,01DAB78DAFF91A4C,electric_bike,2021-08-15 20:21:28,2021-08-15 20:41:25,Clark St & Henry St,4789,Putnam Ave & Throop Ave,4392,40.69760127,-73.99344559,40.6851532,-73.94111,member
193707,C43195DE4D53D59E,electric_bike,2021-08-27 20:26:08,2021-08-27 20:45:24,Berry St & N 8 St,5379,Putnam Ave & Throop Ave,4392,40.7190095,-73.95852515,40.6851532,-73.94111,casual
193709,8F0BBF5AFD200DCB,classic_bike,2021-08-13 14:15:22,2021-08-13 14:38:07,Berry St & N 8 St,5379,Putnam Ave & Throop Ave,4392,40.7190095,-73.95852515,40.6851532,-73.94111,casual
193753,FF6D6DF225777ECA,electric_bike,2021-08-29 23:09:34,2021-08-29 23:20:33,Linden St & Knickerbocker Ave,4743,Putnam Ave & Throop Ave,4392,40.69714,-73.91566,40.6851532,-73.94111,casual
193778,96F57696BC99BC96,electric_bike,2021-08-31 09:58:07,2021-08-31 10:20:43,Stanton St & Norfolk St,5445,Putnam Ave & Throop Ave,4392,40.720747,-73.986274,40.6851532,-73.94111,member
193783,685E127F2C80F549,classic_bike,2021-08-15 18:12:41,2021-08-15 18:35:18,Grand St & Havemeyer St,5267,Putnam Ave & Throop Ave,4392,40.71286844,-73.95698119,40.6851532,-73.94111,member
193786,34291D8A0BC063D6,classic_bike,2021-08-07 00:33:19,2021-08-07 00:56:05,Grand St & Havemeyer St,5267,Putnam Ave & Throop Ave,4392,40.71286844,-73.95698119,40.6851532,-73.94111,casual
193789,9A1FA1869CE3B6C3,classic_bike,2021-08-15 21:25:13,2021-08-15 21:46:17,Flushing Ave & Woodward Ave,5225,Putnam Ave & Throop Ave,4392,40.71246,-73.91873,40.6851532,-73.94111,casual
193800,A4F1501B6433C1DE,electric_bike,2021-08-11 00:48:48,2021-08-11 01:22:23,Henry St & Grand St,5294,Putnam Ave & Throop Ave,4392,40.714211,-73.981095,40.6851532,-73.94111,casual
193809,61002452C1E74052,classic_bike,2021-08-20 14:47:16,2021-08-20 15:05:01,Grand St & Havemeyer St,5267,Putnam Ave & Throop Ave,4392,40.71286844,-73.95698119,40.6851532,-73.94111,member
193810,5227E61DE8DADC3E,classic_bike,2021-08-02 23:09:41,2021-08-02 23:29:37,Grand St & Havemeyer St,5267,Putnam Ave & Throop Ave,4392,40.71286844,-73.95698119,40.6851532,-73.94111,member
193813,42D024507DFEB698,electric_bike,2021-08-19 20:07:18,2021-08-19 20:12:00,Pulaski St & Marcus Garvey Blvd,4656,Putnam Ave & Throop Ave,4392,40.6933982,-73.939877,40.6851532,-73.94111,casual
193814,E2BA1F348F242E14,classic_bike,2021-08-15 18:38:44,2021-08-15 19:05:35,Bedford Ave & Bergen St,4066,Putnam Ave & Throop Ave,4392,40.676368,-73.952918,40.6851532,-73.94111,casual
193838,319CC4F899122EC9,classic_bike,2021-08-07 00:58:28,2021-08-07 01:10:25,Division Ave & Hooper St,5045,Putnam Ave & Throop Ave,4392,40.70684203101325,-73.9544353965357,40.6851532,-73.94111,member
193842,EB8D41AC9CB275BE,classic_bike,2021-08-31 11:51:06,2021-08-31 12:02:26,Willoughby Ave & Tompkins Ave,4665,Putnam Ave & Throop Ave,4392,40.69425403,-73.94626915,40.6851532,-73.94111,casual
193847,4AA0B10578C00375,classic_bike,2021-08-30 21:50:41,2021-08-30 22:29:49,Central Ave & Flushing Ave,4947,Putnam Ave & Throop Ave,4392,40.702831,-73.9333,40.6851532,-73.94111,casual
193854,6C7724C1583F4D1C,classic_bike,2021-08-05 13:36:06,2021-08-05 13:47:10,Sterling Pl & Bedford Ave,3993,Putnam Ave & Throop Ave,4392,40.672695,-73.954131,40.6851532,-73.94111,casual
193861,D453B430A608012D,electric_bike,2021-08-02 07:25:04,2021-08-02 07:58:10,Parade Pl & Crooke Ave,3376,Putnam Ave & Throop Ave,4392,40.651847,-73.965248,40.6851532,-73.94111,member
193865,9EA69F3044801153,classic_bike,2021-08-20 00:14:07,2021-08-20 00:28:20,Cumberland St & Lafayette Ave,4428,Putnam Ave & Throop Ave,4392,40.68753406,-73.97265183,40.6851532,-73.94111,casual
193870,F02A4D32B841DA95,electric_bike,2021-08-18 13:28:26,2021-08-18 13:44:14,Halsey St & Broadway,4366,Putnam Ave & Throop Ave,4392,40.68565,-73.91564,40.6851532,-73.94111,casual
193881,EA37471C466E80A4,classic_bike,2021-08-12 12:37:16,2021-08-12 12:48:12,Park Ave & Marcus Garvey Blvd,4768,Putnam Ave & Throop Ave,4392,40.698617,-73.941342,40.6851532,-73.94111,casual
193882,B5CFCB7F7EF16DA5,classic_bike,2021-08-21 16:01:10,2021-08-21 16:18:37,Halsey St & Broadway,4366,Putnam Ave & Throop Ave,4392,40.68565,-73.91564,40.6851532,-73.94111,casual
193893,C7A726B9E2EA0F49,classic_bike,2021-08-09 18:18:27,2021-08-09 18:28:30,Halsey St & Broadway,4366,Putnam Ave & Throop Ave,4392,40.68565,-73.91564,40.6851532,-73.94111,member
193895,072D037F6B5875A1,classic_bike,2021-08-09 15:30:29,2021-08-09 15:40:03,Park Ave & Marcus Garvey Blvd,4768,Putnam Ave & Throop Ave,4392,40.698617,-73.941342,40.6851532,-73.94111,casual
193902,0D5F6E361CF13FCE,classic_bike,2021-08-03 00:37:51,2021-08-03 00:52:12,Lexington Ave & Classon Ave,4452,Putnam Ave & Throop Ave,4392,40.68676793,-73.95928168,40.6851532,-73.94111,casual
193905,D0EDBBA080704042,electric_bike,2021-08-23 17:52:53,2021-08-23 18:12:27,Wythe Ave & Metropolitan Ave,5348,Putnam Ave & Throop Ave,4392,40.716887,-73.963198,40.6851532,-73.94111,member
193906,A454781D7CE90477,classic_bike,2021-08-08 15:39:55,2021-08-08 16:00:08,Wythe Ave & Metropolitan Ave,5348,Putnam Ave & Throop Ave,4392,40.716887,-73.963198,40.6851532,-73.94111,casual
193928,F8922A42CAA09D37,classic_bike,2021-08-24 20:03:22,2021-08-24 20:25:04,Bushwick Ave & Powers St,5250,Putnam Ave & Throop Ave,4392,40.71247661,-73.94100005,40.6851532,-73.94111,casual
193971,B9A068E1B94B9471,electric_bike,2021-08-24 17:31:39,2021-08-24 17:58:51,Allen St & Rivington St,5414,Putnam Ave & Throop Ave,4392,40.72019576,-73.98997825,40.6851532,-73.94111,casual
193974,ECA779B054629DE1,classic_bike,2021-08-08 16:10:16,2021-08-08 16:27:09,Madison St & Seneca Ave,4880,Putnam Ave & Throop Ave,4392,40.70183,-73.90625,40.6851532,-73.94111,casual
194243,4BCD60AB1CC79558,classic_bike,2021-08-20 13:44:58,2021-08-20 13:57:28,Montrose Ave & Bushwick Ave,5068,Putnam Ave & Throop Ave,4392,40.70767788,-73.94016171,40.6851532,-73.94111,casual
194245,3E0703E0EAA9F95D,classic_bike,2021-08-18 17:29:43,2021-08-18 17:42:20,Lefferts Pl & Franklin Ave,4222,Putnam Ave & Throop Ave,4392,40.680342423,-73.9557689392,40.6851532,-73.94111,casual
194246,B2C0BFA7A485C42E,classic_bike,2021-08-13 18:10:14,2021-08-13 18:12:38,Lewis Ave & Madison St,4425,Putnam Ave & Throop Ave,4392,40.686312,-73.935775,40.6851532,-73.94111,casual
194278,5722559A3C93DA10,classic_bike,2021-08-02 11:15:43,2021-08-02 11:30:21,Washington Park,4546,Putnam Ave & Throop Ave,4392,40.6917823,-73.9737299,40.6851532,-73.94111,member
194282,9375BF97C6F75EDA,electric_bike,2021-08-14 11:12:53,2021-08-14 11:34:02,Washington Park,4546,Putnam Ave & Throop Ave,4392,40.6917823,-73.9737299,40.6851532,-73.94111,member
195130,A00341A2A2EA8F6E,classic_bike,2021-08-05 22:27:56,2021-08-05 22:48:07,Grand St & Havemeyer St,5267,Putnam Ave & Throop Ave,4392,40.71286844,-73.95698119,40.6851532,-73.94111,member
199363,F569B7A989D787B3,electric_bike,2021-08-05 20:45:26,2021-08-05 21:03:36,Putnam Ave & Throop Ave,4392,Lawrence St & Willoughby St,4596,40.6851532,-73.94111,40.69236178,-73.98631746,member
210322,2A7275132D477193,electric_bike,2021-08-23 18:29:56,2021-08-23 18:40:14,Putnam Ave & Throop Ave,4392,Macon St & Nostrand Ave,4214,40.6851532,-73.94111,40.6809833854,-73.9500479759,member
212567,5DAD00492ABD4A16,classic_bike,2021-08-24 11:28:31,2021-08-24 11:33:43,Putnam Ave & Throop Ave,4392,Macon St & Nostrand Ave,4214,40.6851532,-73.94111,40.6809833854,-73.9500479759,member
212568,322F4B797131ECD1,classic_bike,2021-08-25 14:28:43,2021-08-25 14:35:02,Putnam Ave & Throop Ave,4392,Macon St & Nostrand Ave,4214,40.6851532,-73.94111,40.6809833854,-73.9500479759,casual
216202,5B453344F1485399,electric_bike,2021-08-03 23:40:53,2021-08-03 23:56:43,Putnam Ave & Throop Ave,4392,Driggs Ave & N Henry St,5542,40.6851532,-73.94111,40.72325,-73.94308,member
248698,B084F3EA06BB06DD,classic_bike,2021-08-20 23:24:12,2021-08-20 23:42:40,Putnam Ave & Throop Ave,4392,Kingston Ave & Herkimer St,4205,40.6851532,-73.94111,40.67890679,-73.94142771,member
252198,000B69FF4B514AB8,electric_bike,2021-08-29 18:10:33,2021-08-29 18:32:38,Putnam Ave & Throop Ave,4392,Degraw St & Hoyt St,4258,40.6851532,-73.94111,40.68199044270703,-73.99079024791718,member
275449,C9945E1B351701F9,electric_bike,2021-08-10 10:15:27,2021-08-10 10:26:44,Putnam Ave & Throop Ave,4392,DeKalb Ave & Franklin Ave,4528,40.6851532,-73.94111,40.69064807082943,-73.95746178925037,member
286167,EB958B109863E1D1,electric_bike,2021-08-04 15:49:07,2021-08-04 16:37:19,Putnam Ave & Throop Ave,4392,8 Ave & W 38 St,6526,40.6851532,-73.94111,40.75461,-73.99177,member
296915,F1E39D04B9220BD1,electric_bike,2021-08-23 18:20:42,2021-08-23 18:28:34,Putnam Ave & Throop Ave,4392,Bushwick Ave & Harman St,4640,40.6851532,-73.94111,40.69356,-73.92524,member
331648,9953B1B5F7AE2C9B,electric_bike,2021-08-28 14:08:13,2021-08-28 14:27:24,Putnam Ave & Throop Ave,4392,Central Ave & Starr Street,4792,40.6851532,-73.94111,40.700003,-73.92834,casual
352551,FCE054E9467560F6,classic_bike,2021-08-06 08:32:40,2021-08-06 08:37:43,Putnam Ave & Throop Ave,4392,Throop Ave & Myrtle Ave,4697,40.6851532,-73.94111,40.69622937,-73.94371094,casual
355182,379DE22979955429,classic_bike,2021-08-11 08:42:05,2021-08-11 09:25:06,Putnam Ave & Throop Ave,4392,1 Ave & E 44 St,6379,40.6851532,-73.94111,40.75001986,-73.96905301,member
356102,F9D200E35AB90EA6,classic_bike,2021-08-20 15:51:11,2021-08-20 15:54:20,Putnam Ave & Throop Ave,4392,Monroe St & Tompkins Ave,4434,40.6851532,-73.94111,40.686203,-73.944694,casual
358935,2E0FEDBCD1D104AB,classic_bike,2021-08-06 08:52:02,2021-08-06 09:07:50,Putnam Ave & Throop Ave,4392,Wyckoff Av & Jefferson St,5051,40.6851532,-73.94111,40.707165,-73.923711,member
358936,8A57252CDD85E186,classic_bike,2021-08-21 13:22:33,2021-08-21 13:42:51,Putnam Ave & Throop Ave,4392,S 4 St & Wythe Ave,5204,40.6851532,-73.94111,40.71285887,-73.96590294,casual
366218,173AC6C2D8F9C1BD,classic_bike,2021-08-07 08:50:57,2021-08-07 09:01:07,Putnam Ave & Throop Ave,4392,Emerson Pl & Myrtle Ave,4683,40.6851532,-73.94111,40.69363137,-73.96223558,member
414218,EE723EED403A9BBB,classic_bike,2021-08-19 17:18:42,2021-08-19 17:29:41,Putnam Ave & Throop Ave,4392,Lexington Ave & Classon Ave,4452,40.6851532,-73.94111,40.68676793,-73.95928168,member
414225,36684AE47F5679E8,electric_bike,2021-08-08 19:08:22,2021-08-08 19:15:38,Putnam Ave & Throop Ave,4392,Lexington Ave & Classon Ave,4452,40.6851532,-73.94111,40.68676793,-73.95928168,member
430521,9A504E5A3609E3C3,classic_bike,2021-08-17 08:10:31,2021-08-17 08:23:02,Putnam Ave & Throop Ave,4392,Lafayette Ave & Fort Greene Pl,4395,40.6851532,-73.94111,40.68691865,-73.976682,member
461952,F4655C7B50221B63,electric_bike,2021-08-15 18:50:25,2021-08-15 19:00:07,Putnam Ave & Throop Ave,4392,Halsey St & Broadway,4366,40.6851532,-73.94111,40.68565,-73.91564,member
471744,6361B0FAA797BAAB,classic_bike,2021-08-10 11:18:42,2021-08-10 11:30:27,Putnam Ave & Throop Ave,4392,Washington Ave & Park Ave,4724,40.6851532,-73.94111,40.69610226,-73.96751037,member
471760,CFBCD8F69E59DD51,electric_bike,2021-08-20 09:21:52,2021-08-20 09:39:24,Putnam Ave & Throop Ave,4392,Carlton Ave & Park Ave,4732,40.6851532,-73.94111,40.69580705,-73.97355569,casual
474379,87639DE945141942,electric_bike,2021-08-02 08:33:31,2021-08-02 08:43:24,Putnam Ave & Throop Ave,4392,Washington Ave & Park Ave,4724,40.6851532,-73.94111,40.69610226,-73.96751037,member
476879,56A6C35D70B10B31,electric_bike,2021-08-25 23:08:36,2021-08-25 23:23:43,Putnam Ave & Throop Ave,4392,Washington Ave & Park Ave,4724,40.6851532,-73.94111,40.69610226,-73.96751037,member
486381,7FE887D1D15E3234,classic_bike,2021-08-16 09:48:14,2021-08-16 10:04:26,Putnam Ave & Throop Ave,4392,Frost St & Meeker Ave,5371,40.6851532,-73.94111,40.71766197083994,-73.94880026578903,casual
487292,ACCF42CBC00CFBC3,classic_bike,2021-08-06 19:38:49,2021-08-06 20:08:09,Putnam Ave & Throop Ave,4392,Grand St & Havemeyer St,5267,40.6851532,-73.94111,40.71286844,-73.95698119,casual
491179,46158889F7AA3FF7,classic_bike,2021-08-06 20:44:15,2021-08-06 21:08:28,Putnam Ave & Throop Ave,4392,Frost St & Meeker Ave,5371,40.6851532,-73.94111,40.71766197083994,-73.94880026578903,casual
491294,D8457151BB8D6217,classic_bike,2021-08-20 12:41:29,2021-08-20 13:01:29,Putnam Ave & Throop Ave,4392,Grand St & Havemeyer St,5267,40.6851532,-73.94111,40.71286844,-73.95698119,member
498286,FDEE651A09BB77D8,classic_bike,2021-08-05 17:42:08,2021-08-05 18:11:33,Putnam Ave & Throop Ave,4392,Caton Ave & E 7 St,3199,40.6851532,-73.94111,40.647718,-73.973663,casual
500991,7BF0DE6F30DE140E,classic_bike,2021-08-28 22:26:38,2021-08-28 22:31:55,Kosciuszko St & Tompkins Ave,4553,Putnam Ave & Throop Ave,4392,40.69128258,-73.9452416,40.6851532,-73.94111,casual
500994,6FBC2853414F5667,electric_bike,2021-08-24 19:08:26,2021-08-24 19:13:21,Kosciuszko St & Tompkins Ave,4553,Putnam Ave & Throop Ave,4392,40.69128258,-73.9452416,40.6851532,-73.94111,member
501005,A71F2F4EE52419DE,classic_bike,2021-08-31 23:28:08,2021-08-31 23:33:43,Kosciuszko St & Tompkins Ave,4553,Putnam Ave & Throop Ave,4392,40.69128258,-73.9452416,40.6851532,-73.94111,member
501007,F6556532B42E2C48,electric_bike,2021-08-21 00:39:48,2021-08-21 01:06:26,Jefferson St & Cypress Ave,5082,Putnam Ave & Throop Ave,4392,40.70907,-73.92157,40.6851532,-73.94111,casual
501011,5E3D08360DECBEF7,classic_bike,2021-08-21 00:40:08,2021-08-21 01:05:53,Jefferson St & Cypress Ave,5082,Putnam Ave & Throop Ave,4392,40.70907,-73.92157,40.6851532,-73.94111,casual
501015,34D57E3245844EDC,electric_bike,2021-08-22 02:30:28,2021-08-22 02:45:05,Bushwick Ave & Harman St,4640,Putnam Ave & Throop Ave,4392,40.69356,-73.92524,40.6851532,-73.94111,casual
501020,A4EBBA732A893C3D,classic_bike,2021-08-26 20:21:38,2021-08-26 20:35:37,Suydam St & Knickerbocker Ave,4939,Putnam Ave & Throop Ave,4392,40.702013,-73.923769,40.6851532,-73.94111,member
501025,046849422DE205CB,classic_bike,2021-08-17 23:29:24,2021-08-17 23:48:39,Duffield St & Willoughby St,4596,Putnam Ave & Throop Ave,4392,40.69221589,-73.9842844,40.6851532,-73.94111,casual
501035,1834030327CD5498,electric_bike,2021-08-29 18:19:17,2021-08-29 18:35:16,Wyckoff Av & Jefferson St,5051,Putnam Ave & Throop Ave,4392,40.707165,-73.923711,40.6851532,-73.94111,casual
501036,FFDE86C1DCA59812,classic_bike,2021-08-29 19:30:19,2021-08-29 19:40:56,Grove St & Broadway,4526,Putnam Ave & Throop Ave,4392,40.69047,-73.923511,40.6851532,-73.94111,casual
501038,06AE9F6E9F4202A1,electric_bike,2021-08-14 04:12:45,2021-08-14 04:27:37,Grove St & Broadway,4526,Putnam Ave & Throop Ave,4392,40.69047,-73.923511,40.6851532,-73.94111,casual
501039,14548E08AD8400DC,classic_bike,2021-08-29 23:15:11,2021-08-29 23:30:09,Grove St & Broadway,4526,Putnam Ave & Throop Ave,4392,40.69047,-73.923511,40.6851532,-73.94111,casual
501041,BEE75A8A6517EB2C,classic_bike,2021-08-07 00:39:35,2021-08-07 00:56:21,Pacific St & Classon Ave,4148,Putnam Ave & Throop Ave,4392,40.6791944,-73.9587903,40.6851532,-73.94111,member
501044,C1FEEE8347D8EF88,classic_bike,2021-08-05 23:11:57,2021-08-05 23:30:14,Monroe St & Tompkins Ave,4434,Putnam Ave & Throop Ave,4392,40.686203,-73.944694,40.6851532,-73.94111,member
501047,96CF2DEFA179523B,classic_bike,2021-08-28 16:01:52,2021-08-28 16:11:20,Monroe St & Tompkins Ave,4434,Putnam Ave & Throop Ave,4392,40.686203,-73.944694,40.6851532,-73.94111,member
501050,B5D0E014BD8D4AA6,classic_bike,2021-08-03 19:12:38,2021-08-03 19:40:09,Monroe St & Tompkins Ave,4434,Putnam Ave & Throop Ave,4392,40.686203,-73.944694,40.6851532,-73.94111,member
501052,757CE45831F46852,classic_bike,2021-08-19 17:03:27,2021-08-19 18:22:19,Monroe St & Tompkins Ave,4434,Putnam Ave & Throop Ave,4392,40.686203,-73.944694,40.6851532,-73.94111,casual
501053,0E7E4FED559175DE,electric_bike,2021-08-27 19:10:32,2021-08-27 19:17:44,Grove St & Broadway,4526,Putnam Ave & Throop Ave,4392,40.69047,-73.923511,40.6851532,-73.94111,casual
501064,B03D04DCFD98AFB0,classic_bike,2021-08-27 13:04:39,2021-08-27 13:26:56,Graham Ave & Conselyea St,5291,Putnam Ave & Throop Ave,4392,40.715143,-73.944507,40.6851532,-73.94111,member
501067,279974F99137D4FE,classic_bike,2021-08-14 17:49:45,2021-08-14 18:12:11,S 4 St & Wythe Ave,5204,Putnam Ave & Throop Ave,4392,40.71285887,-73.96590294,40.6851532,-73.94111,member
501070,E87CD169FAAFBC5F,classic_bike,2021-08-03 20:46:06,2021-08-03 21:04:06,Wyckoff Av & Jefferson St,5051,Putnam Ave & Throop Ave,4392,40.707165,-73.923711,40.6851532,-73.94111,casual
501071,7F8ACA9B6994E0DF,classic_bike,2021-08-09 14:28:36,2021-08-09 14:30:38,Monroe St & Tompkins Ave,4434,Putnam Ave & Throop Ave,4392,40.686203,-73.944694,40.6851532,-73.94111,casual
501080,C572CF6EDE113A81,electric_bike,2021-08-01 23:33:45,2021-08-01 23:45:18,Irving Ave & Jefferson St,5051,Putnam Ave & Throop Ave,4392,40.70538,-73.92535,40.6851532,-73.94111,casual
501084,D3F391EF1EA6D1D8,electric_bike,2021-08-26 14:48:13,2021-08-26 15:28:41,Spring St & Hudson St,5653,Putnam Ave & Throop Ave,4392,40.72583996792375,-74.0076532959938,40.6851532,-73.94111,member
501086,325AAA53C5A1A1EA,classic_bike,2021-08-06 21:14:56,2021-08-06 21:31:23,Central Ave & Flushing Ave,4947,Putnam Ave & Throop Ave,4392,40.702831,-73.9333,40.6851532,-73.94111,casual
501143,3ABBFF47D6DCE43E,classic_bike,2021-08-17 12:42:34,2021-08-17 13:25:08,Putnam Ave & Throop Ave,4392,Putnam Ave & Throop Ave,4392,40.6851532,-73.94111,40.6851532,-73.94111,casual
501161,464D1B736C7C6089,classic_bike,2021-08-10 14:42:08,2021-08-10 14:43:10,Putnam Ave & Throop Ave,4392,Putnam Ave & Throop Ave,4392,40.6851532,-73.94111,40.6851532,-73.94111,member
501164,AA45F6C8AF66AC31,classic_bike,2021-08-07 19:26:06,2021-08-07 19:38:39,Putnam Ave & Throop Ave,4392,Putnam Ave & Throop Ave,4392,40.6851532,-73.94111,40.6851532,-73.94111,member
501167,59179E78CE0D173B,electric_bike,2021-08-05 23:10:38,2021-08-06 00:07:16,Putnam Ave & Throop Ave,4392,Putnam Ave & Throop Ave,4392,40.6851532,-73.94111,40.6851532,-73.94111,member
501168,021BE4C4650643A3,electric_bike,2021-08-19 06:59:52,2021-08-19 07:15:51,Putnam Ave & Throop Ave,4392,Putnam Ave & Throop Ave,4392,40.6851532,-73.94111,40.6851532,-73.94111,member
501169,E50C667FF995CAFD,electric_bike,2021-08-19 07:50:09,2021-08-19 08:02:00,Putnam Ave & Throop Ave,4392,Putnam Ave & Throop Ave,4392,40.6851532,-73.94111,40.6851532,-73.94111,member
501183,90AB12EACF1076E0,classic_bike,2021-08-29 13:20:42,2021-08-29 13:38:00,Cedar St & Myrtle Ave,4751,Putnam Ave & Throop Ave,4392,40.697842,-73.926241,40.6851532,-73.94111,member
501197,B5BCDAA00A42450E,classic_bike,2021-08-20 14:13:20,2021-08-20 14:17:11,Lewis Ave & Madison St,4425,Putnam Ave & Throop Ave,4392,40.686312,-73.935775,40.6851532,-73.94111,casual
501199,AA2DEF170940FEF7,classic_bike,2021-08-19 08:42:52,2021-08-19 08:56:18,Lafayette Ave & St James Pl,4494,Putnam Ave & Throop Ave,4392,40.68851534,-73.9647628,40.6851532,-73.94111,member
501207,14B9F12E78ECEEEE,classic_bike,2021-08-07 00:40:20,2021-08-07 00:54:54,Underhill Ave & Lincoln Pl,4042,Putnam Ave & Throop Ave,4392,40.6740123,-73.9671457,40.6851532,-73.94111,casual
501214,87552F9B64AF8A49,classic_bike,2021-08-05 12:34:02,2021-08-05 13:03:47,N 6 St & Bedford Ave,5379,Putnam Ave & Throop Ave,4392,40.71745169,-73.95850939,40.6851532,-73.94111,member
501224,4C8968E7B498DEDF,classic_bike,2021-08-07 10:36:13,2021-08-07 10:56:21,DeKalb Ave & S Portland Ave,4546,Putnam Ave & Throop Ave,4392,40.68981035,-73.97493121,40.6851532,-73.94111,member
501225,D91D5139B8871390,classic_bike,2021-08-02 16:31:10,2021-08-02 16:41:32,Lefferts Pl & Franklin Ave,4222,Putnam Ave & Throop Ave,4392,40.680342423,-73.9557689392,40.6851532,-73.94111,member
501226,DD1093B63B71C3F9,classic_bike,2021-08-08 11:47:20,2021-08-08 11:49:34,Lewis Ave & Madison St,4425,Putnam Ave & Throop Ave,4392,40.686312,-73.935775,40.6851532,-73.94111,member
501230,AA08A9C9718AF242,classic_bike,2021-08-27 23:55:56,2021-08-28 00:05:46,Lefferts Pl & Franklin Ave,4222,Putnam Ave & Throop Ave,4392,40.680342423,-73.9557689392,40.6851532,-73.94111,casual
501231,57E7877CC8D8C542,electric_bike,2021-08-27 07:00:16,2021-08-27 09:50:20,Lewis Ave & Madison St,4425,Putnam Ave & Throop Ave,4392,40.686312,-73.935775,40.6851532,-73.94111,casual
501232,FFED19E4DFCF0F98,electric_bike,2021-08-27 11:41:02,2021-08-27 11:46:59,Lefferts Pl & Franklin Ave,4222,Putnam Ave & Throop Ave,4392,40.680342423,-73.9557689392,40.6851532,-73.94111,casual
501233,BFDF3F9395074D51,electric_bike,2021-08-19 07:01:35,2021-08-19 09:06:41,Lewis Ave & Madison St,4425,Putnam Ave & Throop Ave,4392,40.686312,-73.935775,40.6851532,-73.94111,casual
501234,77022C43B9305A4E,classic_bike,2021-08-04 23:35:32,2021-08-04 23:59:02,N 6 St & Bedford Ave,5379,Putnam Ave & Throop Ave,4392,40.71745169,-73.95850939,40.6851532,-73.94111,casual
501236,379BE4593BAEBEE7,classic_bike,2021-08-01 06:31:53,2021-08-01 06:36:00,Lewis Ave & Madison St,4425,Putnam Ave & Throop Ave,4392,40.686312,-73.935775,40.6851532,-73.94111,member
501261,9715F21C262D1EBF,classic_bike,2021-08-21 08:16:48,2021-08-21 08:36:35,Madison St & Forest Ave,5025,Putnam Ave & Throop Ave,4392,40.70555,-73.90245,40.6851532,-73.94111,member
501270,94C8BC25B6505F11,classic_bike,2021-08-19 08:40:34,2021-08-19 08:59:00,Madison St & Forest Ave,5025,Putnam Ave & Throop Ave,4392,40.70555,-73.90245,40.6851532,-73.94111,member
501276,36A1906EA60854FB,classic_bike,2021-08-12 21:18:36,2021-08-12 22:03:09,3 St & Prospect Park West,3865,Putnam Ave & Throop Ave,4392,40.668132,-73.97363831,40.6851532,-73.94111,member
501278,411451B0746D35A1,electric_bike,2021-08-17 14:30:30,2021-08-17 14:41:23,Hancock St & Bedford Ave,4255,Putnam Ave & Throop Ave,4392,40.68216564,-73.95399026,40.6851532,-73.94111,casual
501280,7D525739A0F3D5D8,classic_bike,2021-08-28 18:13:32,2021-08-28 18:29:48,Hancock St & Bedford Ave,4255,Putnam Ave & Throop Ave,4392,40.68216564,-73.95399026,40.6851532,-73.94111,casual
501281,1DDDCD22A2E5E0F8,classic_bike,2021-08-02 14:45:57,2021-08-02 15:07:20,Hancock St & Bedford Ave,4255,Putnam Ave & Throop Ave,4392,40.68216564,-73.95399026,40.6851532,-73.94111,casual
501282,CC60CFA0903EFA75,classic_bike,2021-08-02 14:45:53,2021-08-02 15:08:19,Hancock St & Bedford Ave,4255,Putnam Ave & Throop Ave,4392,40.68216564,-73.95399026,40.6851532,-73.94111,casual
501287,1345B627EBFC339C,classic_bike,2021-08-12 22:30:38,2021-08-12 22:57:29,Pike St & E Broadway,5270,Putnam Ave & Throop Ave,4392,40.71406667,-73.99293911,40.6851532,-73.94111,member
501292,4DEB7B3DA7F1E83E,classic_bike,2021-08-18 22:11:49,2021-08-18 22:38:22,Berkeley Pl & 7 Ave,4051,Putnam Ave & Throop Ave,4392,40.675146838709786,-73.97523209452629,40.6851532,-73.94111,casual
501295,345EC73238937B15,classic_bike,2021-08-06 09:42:40,2021-08-06 10:01:15,Driggs Ave & N Henry St,5542,Putnam Ave & Throop Ave,4392,40.72325,-73.94308,40.6851532,-73.94111,member
501308,17E595FA16E3BABC,electric_bike,2021-08-14 18:23:43,2021-08-14 18:32:28,Monroe St & Bedford Ave,4368,Putnam Ave & Throop Ave,4392,40.6851443,-73.95380904,40.6851532,-73.94111,member
501311,C7F8A15CCD235E8C,classic_bike,2021-08-01 07:07:21,2021-08-01 07:27:03,Driggs Ave & N Henry St,5542,Putnam Ave & Throop Ave,4392,40.72325,-73.94308,40.6851532,-73.94111,member
501329,4BD862C5FF5C9BF7,classic_bike,2021-08-03 21:55:37,2021-08-03 22:04:55,Myrtle Ave & Marcy Ave,4707,Putnam Ave & Throop Ave,4392,40.69539817,-73.94954908,40.6851532,-73.94111,casual
501342,2C377C9BCDCFFC47,electric_bike,2021-08-26 22:22:00,2021-08-26 22:40:01,Prospect Park West & 8 St,3722,Putnam Ave & Throop Ave,4392,40.66514681533792,-73.97637605667114,40.6851532,-73.94111,casual
501350,6B3ABC96489D3A0A,classic_bike,2021-08-06 19:44:58,2021-08-06 20:01:50,Scholes St & Manhattan Ave,5108,Putnam Ave & Throop Ave,4392,40.70870368,-73.9448625,40.6851532,-73.94111,casual
501356,F6680353217DCD03,electric_bike,2021-08-12 08:42:31,2021-08-12 09:11:23,Parade Pl & Crooke Ave,3376,Putnam Ave & Throop Ave,4392,40.651847,-73.965248,40.6851532,-73.94111,casual
501367,D2693BA4C249ACE8,classic_bike,2021-08-21 17:54:24,2021-08-21 18:16:33,Parade Pl & Crooke Ave,3376,Putnam Ave & Throop Ave,4392,40.651847,-73.965248,40.6851532,-73.94111,casual
501379,3BB5093C8F90398F,electric_bike,2021-08-03 14:17:06,2021-08-03 15:07:38,Putnam Ave & Nostrand Ave,4327,Putnam Ave & Throop Ave,4392,40.68402,-73.94977,40.6851532,-73.94111,casual
501393,B4CDC84B4CF1F430,classic_bike,2021-08-05 16:26:25,2021-08-05 16:35:42,Cambridge Pl & Gates Ave,4377,Putnam Ave & Throop Ave,4392,40.68488,-73.96304,40.6851532,-73.94111,casual
501405,DAA3EF8460AEACCD,classic_bike,2021-08-28 22:26:32,2021-08-28 22:32:06,Kosciuszko St & Tompkins Ave,4553,Putnam Ave & Throop Ave,4392,40.69128258,-73.9452416,40.6851532,-73.94111,casual
501417,6AF9672A7BD662A0,electric_bike,2021-08-01 09:12:48,2021-08-01 09:33:30,Eastern Pkwy & Franklin Ave,3919,Putnam Ave & Throop Ave,4392,40.6707767,-73.9576801,40.6851532,-73.94111,member
501420,A4601C3BACC2B60B,classic_bike,2021-08-24 09:15:11,2021-08-24 09:19:57,Kosciuszko St & Tompkins Ave,4553,Putnam Ave & Throop Ave,4392,40.69128258,-73.9452416,40.6851532,-73.94111,member
501424,6BA364D067C3CD4F,classic_bike,2021-08-20 21:02:57,2021-08-20 21:14:04,Cambridge Pl & Gates Ave,4377,Putnam Ave & Throop Ave,4392,40.68488,-73.96304,40.6851532,-73.94111,member
501426,3094472B1A340DB2,classic_bike,2021-08-25 07:35:00,2021-08-25 07:46:51,Cambridge Pl & Gates Ave,4377,Putnam Ave & Throop Ave,4392,40.68488,-73.96304,40.6851532,-73.94111,member
501438,A644F04C64CE00C3,classic_bike,2021-08-26 07:34:38,2021-08-26 07:44:11,Cambridge Pl & Gates Ave,4377,Putnam Ave & Throop Ave,4392,40.68488,-73.96304,40.6851532,-73.94111,member
501460,AD4C75FF1F446BA6,classic_bike,2021-08-28 16:12:36,2021-08-28 16:28:23,Metropolitan Ave & Meeker Ave,5300,Putnam Ave & Throop Ave,4392,40.71413311,-73.95234386,40.6851532,-73.94111,casual
501463,EA04727E678A98B2,classic_bike,2021-08-05 16:11:27,2021-08-05 16:49:04,Atlantic Ave & Furman St,4614,Putnam Ave & Throop Ave,4392,40.69165183,-73.9999786,40.6851532,-73.94111,member
501467,311B850F9A2B8C98,classic_bike,2021-08-05 14:51:56,2021-08-05 15:16:15,5 St & 6 Ave,3874,Putnam Ave & Throop Ave,4392,40.6704836,-73.98208968,40.6851532,-73.94111,member
501481,55D9C9D98D83FB95,classic_bike,2021-08-31 17:35:56,2021-08-31 18:03:47,Henry St & Degraw St,4380,Putnam Ave & Throop Ave,4392,40.6847514,-73.99917254,40.6851532,-73.94111,casual
501483,5E83BD61996E8B34,classic_bike,2021-08-28 17:27:33,2021-08-28 17:41:28,Emerson Pl & Myrtle Ave,4683,Putnam Ave & Throop Ave,4392,40.69363137,-73.96223558,40.6851532,-73.94111,casual
501484,EE4A8C4DAB0389A6,electric_bike,2021-08-07 15:42:08,2021-08-07 15:51:49,Emerson Pl & Myrtle Ave,4683,Putnam Ave & Throop Ave,4392,40.69363137,-73.96223558,40.6851532,-73.94111,casual
501491,C71206A1AFA6069C,classic_bike,2021-08-09 19:07:37,2021-08-09 19:19:58,Emerson Pl & Myrtle Ave,4683,Putnam Ave & Throop Ave,4392,40.69363137,-73.96223558,40.6851532,-73.94111,member
501492,5C89F9C372D22734,classic_bike,2021-08-11 19:27:45,2021-08-11 19:44:07,Emerson Pl & Myrtle Ave,4683,Putnam Ave & Throop Ave,4392,40.69363137,-73.96223558,40.6851532,-73.94111,member
501493,2D34ABD04D53237B,classic_bike,2021-08-14 20:03:56,2021-08-14 20:16:48,Emerson Pl & Myrtle Ave,4683,Putnam Ave & Throop Ave,4392,40.69363137,-73.96223558,40.6851532,-73.94111,member
501509,4581EFF0286DF12B,electric_bike,2021-08-21 12:20:28,2021-08-21 12:33:19,Cumberland St & Lafayette Ave,4428,Putnam Ave & Throop Ave,4392,40.68753406,-73.97265183,40.6851532,-73.94111,member
501511,4E9D480E3EA662F0,classic_bike,2021-08-12 14:43:32,2021-08-12 14:51:10,Fulton St & Utica Ave,4228,Putnam Ave & Throop Ave,4392,40.6794268,-73.9298911,40.6851532,-73.94111,member
501515,75F83607B00AD919,electric_bike,2021-08-04 15:14:49,2021-08-04 15:48:23,Broadway & E 14 St,5905,Putnam Ave & Throop Ave,4392,40.73454567,-73.99074142,40.6851532,-73.94111,member
501517,98A448CCE3E86FF9,classic_bike,2021-08-02 18:36:13,2021-08-02 18:43:57,Fulton St & Utica Ave,4228,Putnam Ave & Throop Ave,4392,40.6794268,-73.9298911,40.6851532,-73.94111,member
501534,2C9B201A63C75DD2,electric_bike,2021-08-31 20:08:16,2021-08-31 20:33:12,Mott St & Prince St,5561,Putnam Ave & Throop Ave,4392,40.72317958,-73.99480012,40.6851532,-73.94111,member
501546,38D7863D5405E716,classic_bike,2021-08-17 18:49:22,2021-08-17 19:08:47,Richardson St & N Henry St,5433,Putnam Ave & Throop Ave,4392,40.71907891179564,-73.94223690032959,40.6851532,-73.94111,casual
501554,E67421EE30BACBD8,classic_bike,2021-08-23 21:48:14,2021-08-23 22:08:08,Sharon St & Olive St,5323,Putnam Ave & Throop Ave,4392,40.715353,-73.93856,40.6851532,-73.94111,member
501557,EE3F2A89EFDDF055,classic_bike,2021-08-07 13:27:03,2021-08-07 13:42:36,DeKalb Ave & Vanderbilt Ave,4461,Putnam Ave & Throop Ave,4392,40.68940747,-73.96885458,40.6851532,-73.94111,member
501580,84C6779B24B1E8CB,classic_bike,2021-08-28 10:20:15,2021-08-28 10:55:21,Dock St & Front St,4903,Putnam Ave & Throop Ave,4392,40.702709,-73.99253,40.6851532,-73.94111,casual
501589,FD2E81E42704A8A3,classic_bike,2021-08-06 18:24:08,2021-08-06 18:50:31,Front St & Jay St,4895,Putnam Ave & Throop Ave,4392,40.702461,-73.986842,40.6851532,-73.94111,member
501591,A7FE8DFE808D924C,electric_bike,2021-08-09 08:34:19,2021-08-09 08:47:15,Sullivan Pl & Franklin Ave,3704,Putnam Ave & Throop Ave,4392,40.66407983678161,-73.96025128666679,40.6851532,-73.94111,casual
501626,0D4441A912C585A4,electric_bike,2021-08-02 00:12:36,2021-08-02 00:41:49,Broadway & W 36 St,6441,Putnam Ave & Throop Ave,4392,40.75097711,-73.98765428,40.6851532,-73.94111,member
501635,86DB01351711C4A9,classic_bike,2021-08-11 12:01:14,2021-08-11 12:07:41,Hancock St & Bedford Ave,4255,Putnam Ave & Throop Ave,4392,40.68216564,-73.95399026,40.6851532,-73.94111,member
501636,4878367A0AF8E6A6,electric_bike,2021-08-14 10:19:03,2021-08-14 10:24:13,Hancock St & Bedford Ave,4255,Putnam Ave & Throop Ave,4392,40.68216564,-73.95399026,40.6851532,-73.94111,member
501655,472ABA6A5CF29FF8,electric_bike,2021-08-08 01:14:23,2021-08-08 01:51:34,India St Pier,5794,Putnam Ave & Throop Ave,4392,40.731734785883454,-73.9612390102593,40.6851532,-73.94111,casual
501658,3E8C90D35D519278,classic_bike,2021-08-12 07:51:03,2021-08-12 08:14:47,Madison St & Forest Ave,5025,Putnam Ave & Throop Ave,4392,40.70555,-73.90245,40.6851532,-73.94111,member
501674,A949299FA1879E4D,classic_bike,2021-08-30 11:54:07,2021-08-30 12:02:53,Pulaski St & Marcus Garvey Blvd,4656,Putnam Ave & Throop Ave,4392,40.6933982,-73.939877,40.6851532,-73.94111,casual
501680,94EABE6254170256,classic_bike,2021-08-31 23:28:47,2021-08-31 23:31:14,Lewis Ave & Madison St,4425,Putnam Ave & Throop Ave,4392,40.686312,-73.935775,40.6851532,-73.94111,member
501683,A1106E1644016880,classic_bike,2021-08-04 07:35:53,2021-08-04 07:39:08,Lewis Ave & Madison St,4425,Putnam Ave & Throop Ave,4392,40.686312,-73.935775,40.6851532,-73.94111,member
501684,1EEDBE01CA9C156F,electric_bike,2021-08-13 07:41:45,2021-08-13 07:52:52,Montrose Ave & Bushwick Ave,5068,Putnam Ave & Throop Ave,4392,40.70767788,-73.94016171,40.6851532,-73.94111,casual
501685,9231486E620FAEEF,electric_bike,2021-08-23 16:32:25,2021-08-23 16:59:27,N 6 St & Bedford Ave,5379,Putnam Ave & Throop Ave,4392,40.71745169,-73.95850939,40.6851532,-73.94111,casual
501686,B633D5E5EEDB9F8A,classic_bike,2021-08-14 10:21:21,2021-08-14 10:23:30,Lewis Ave & Madison St,4425,Putnam Ave & Throop Ave,4392,40.686312,-73.935775,40.6851532,-73.94111,casual
501688,D4BC613D0AA27538,classic_bike,2021-08-15 18:03:42,2021-08-15 18:05:57,Lewis Ave & Madison St,4425,Putnam Ave & Throop Ave,4392,40.686312,-73.935775,40.6851532,-73.94111,member
501690,D48460301954F93F,classic_bike,2021-08-21 12:13:36,2021-08-21 13:04:09,Lewis Ave & Madison St,4425,Putnam Ave & Throop Ave,4392,40.686312,-73.935775,40.6851532,-73.94111,casual
501695,4E5FB6D1B2552059,classic_bike,2021-08-06 18:11:31,2021-08-06 18:20:26,Tompkins Ave & Hopkins St,4850,Putnam Ave & Throop Ave,4392,40.69957608,-73.94708417,40.6851532,-73.94111,member
501699,2BA35E55ED8CFAC6,classic_bike,2021-08-07 00:57:25,2021-08-07 01:07:41,Tompkins Ave & Hopkins St,4850,Putnam Ave & Throop Ave,4392,40.69957608,-73.94708417,40.6851532,-73.94111,casual
501700,3C3C324F73270B11,electric_bike,2021-08-24 19:35:10,2021-08-24 19:44:14,Bedford Ave & Bergen St,4066,Putnam Ave & Throop Ave,4392,40.676368,-73.952918,40.6851532,-73.94111,casual
501702,77144D1E936C3A7B,classic_bike,2021-08-04 21:53:14,2021-08-04 22:12:55,Clermont Ave & Lafayette Ave,4461,Putnam Ave & Throop Ave,4392,40.68764484,-73.96968902,40.6851532,-73.94111,casual
501703,A6F70FEE38E5475B,classic_bike,2021-08-14 14:05:12,2021-08-14 14:22:20,Clermont Ave & Lafayette Ave,4461,Putnam Ave & Throop Ave,4392,40.68764484,-73.96968902,40.6851532,-73.94111,casual
501704,397690C483A09BA6,classic_bike,2021-08-12 17:55:25,2021-08-12 18:04:04,Macon St & Nostrand Ave,4214,Putnam Ave & Throop Ave,4392,40.6809833854,-73.9500479759,40.6851532,-73.94111,casual
501705,507A909A230D9BFD,classic_bike,2021-08-03 16:59:53,2021-08-03 17:11:13,Macon St & Nostrand Ave,4214,Putnam Ave & Throop Ave,4392,40.6809833854,-73.9500479759,40.6851532,-73.94111,casual
501707,59ABF722F9F8C08C,classic_bike,2021-08-02 17:34:30,2021-08-02 17:40:43,Macon St & Nostrand Ave,4214,Putnam Ave & Throop Ave,4392,40.6809833854,-73.9500479759,40.6851532,-73.94111,casual
501708,0FB916BDE1615603,classic_bike,2021-08-09 19:24:42,2021-08-09 19:49:20,Macon St & Nostrand Ave,4214,Putnam Ave & Throop Ave,4392,40.6809833854,-73.9500479759,40.6851532,-73.94111,member
501709,2EDB21EDD308FC60,classic_bike,2021-08-27 14:02:28,2021-08-27 14:07:44,Macon St & Nostrand Ave,4214,Putnam Ave & Throop Ave,4392,40.6809833854,-73.9500479759,40.6851532,-73.94111,member
501712,CE113741B438D638,electric_bike,2021-08-20 09:53:06,2021-08-20 10:12:36,Milton St & Franklin St,5752,Putnam Ave & Throop Ave,4392,40.72906,-73.95779,40.6851532,-73.94111,casual
501716,5EC1E81F4DF225AE,electric_bike,2021-08-04 21:55:06,2021-08-04 22:12:07,Clermont Ave & Lafayette Ave,4461,Putnam Ave & Throop Ave,4392,40.68764484,-73.96968902,40.6851532,-73.94111,casual
501717,B897146E4C0F672B,classic_bike,2021-08-04 20:20:14,2021-08-04 20:26:26,Macon St & Nostrand Ave,4214,Putnam Ave & Throop Ave,4392,40.6809833854,-73.9500479759,40.6851532,-73.94111,casual
501718,6C58EBADECED6757,classic_bike,2021-08-11 17:14:23,2021-08-11 17:18:21,Macon St & Nostrand Ave,4214,Putnam Ave & Throop Ave,4392,40.6809833854,-73.9500479759,40.6851532,-73.94111,casual
501719,B02950C0B8EE8A67,classic_bike,2021-08-06 21:52:08,2021-08-06 22:19:05,President St & 4 Ave,4101,Putnam Ave & Throop Ave,4392,40.676757,-73.983262,40.6851532,-73.94111,casual
501721,596DE5D11740B861,classic_bike,2021-08-07 19:41:11,2021-08-07 19:46:34,Macon St & Nostrand Ave,4214,Putnam Ave & Throop Ave,4392,40.6809833854,-73.9500479759,40.6851532,-73.94111,member
501722,3E44DCD95AC5BC26,classic_bike,2021-08-30 23:53:54,2021-08-30 23:59:09,Macon St & Nostrand Ave,4214,Putnam Ave & Throop Ave,4392,40.6809833854,-73.9500479759,40.6851532,-73.94111,casual
501723,C37D90195F7E6461,classic_bike,2021-08-07 16:26:01,2021-08-07 16:33:42,Macon St & Nostrand Ave,4214,Putnam Ave & Throop Ave,4392,40.6809833854,-73.9500479759,40.6851532,-73.94111,member
501724,CBC554E7AE577007,electric_bike,2021-08-22 20:07:58,2021-08-22 20:12:23,Macon St & Nostrand Ave,4214,Putnam Ave & Throop Ave,4392,40.6809833854,-73.9500479759,40.6851532,-73.94111,member
501725,B7D4B7831D00C6B6,classic_bike,2021-08-04 13:59:48,2021-08-04 14:04:49,Macon St & Nostrand Ave,4214,Putnam Ave & Throop Ave,4392,40.6809833854,-73.9500479759,40.6851532,-73.94111,member
501727,4FD4C137CF980F8B,classic_bike,2021-08-01 11:59:17,2021-08-01 12:05:14,Macon St & Nostrand Ave,4214,Putnam Ave & Throop Ave,4392,40.6809833854,-73.9500479759,40.6851532,-73.94111,casual
501728,D90945B007C53807,classic_bike,2021-08-30 17:58:18,2021-08-30 18:02:31,Macon St & Nostrand Ave,4214,Putnam Ave & Throop Ave,4392,40.6809833854,-73.9500479759,40.6851532,-73.94111,casual
501733,F86251E47FE429A1,electric_bike,2021-08-14 17:33:08,2021-08-14 17:48:08,Bergen St & Flatbush Ave,4281,Putnam Ave & Throop Ave,4392,40.680944723477296,-73.97567331790923,40.6851532,-73.94111,member
501735,2A3E073E2111FAA3,classic_bike,2021-08-20 07:45:52,2021-08-20 07:51:34,Lewis Ave & Decatur St,4237,Putnam Ave & Throop Ave,4392,40.6814598,-73.934903,40.6851532,-73.94111,member
501738,93AD7C0020B8AE99,classic_bike,2021-08-12 12:21:12,2021-08-12 12:25:27,Lewis Ave & Decatur St,4237,Putnam Ave & Throop Ave,4392,40.6814598,-73.934903,40.6851532,-73.94111,casual
501747,51A41AE0A79DF657,classic_bike,2021-08-24 21:00:21,2021-08-24 21:10:39,Putnam Ave & Throop Ave,4392,Putnam Ave & Throop Ave,4392,40.6851532,-73.94111,40.6851532,-73.94111,member
501748,46996773D4A1994B,electric_bike,2021-08-15 23:02:54,2021-08-15 23:03:07,Putnam Ave & Throop Ave,4392,Putnam Ave & Throop Ave,4392,40.6851532,-73.94111,40.6851532,-73.94111,member
501750,4EB76697E9741FDC,classic_bike,2021-08-14 12:34:14,2021-08-14 12:55:04,St Marks Pl & 4 Ave,4249,Putnam Ave & Throop Ave,4392,40.68177810928762,-73.97988975048065,40.6851532,-73.94111,member
501754,C994A7BA5A1F5EB6,classic_bike,2021-08-23 09:58:23,2021-08-23 10:02:43,Lewis Ave & Decatur St,4237,Putnam Ave & Throop Ave,4392,40.6814598,-73.934903,40.6851532,-73.94111,member
501756,F343451F55ECB110,classic_bike,2021-08-19 07:57:54,2021-08-19 08:07:29,Broadway & Kosciuszko St,4608,Putnam Ave & Throop Ave,4392,40.69329,-73.92852,40.6851532,-73.94111,member
501758,18E67597262C89D3,classic_bike,2021-08-18 14:20:07,2021-08-18 14:38:10,Bergen St & Flatbush Ave,4281,Putnam Ave & Throop Ave,4392,40.680944723477296,-73.97567331790923,40.6851532,-73.94111,casual
501766,B536CE23D66C45C9,electric_bike,2021-08-09 06:30:20,2021-08-09 06:39:49,Broadway & Kosciuszko St,4608,Putnam Ave & Throop Ave,4392,40.69329,-73.92852,40.6851532,-73.94111,member
501772,C9E82A22D5E3DCB4,classic_bike,2021-08-15 20:38:06,2021-08-15 21:00:07,Bergen St & Flatbush Ave,4281,Putnam Ave & Throop Ave,4392,40.680944723477296,-73.97567331790923,40.6851532,-73.94111,casual
501775,69559C88175413B9,classic_bike,2021-08-05 16:14:26,2021-08-05 16:19:43,Macon St & Nostrand Ave,4214,Putnam Ave & Throop Ave,4392,40.6809833854,-73.9500479759,40.6851532,-73.94111,member
501776,A2F9FA7381BC5162,classic_bike,2021-08-18 11:14:46,2021-08-18 11:22:19,Macon St & Nostrand Ave,4214,Putnam Ave & Throop Ave,4392,40.6809833854,-73.9500479759,40.6851532,-73.94111,member
501777,625398A1BC0A115F,electric_bike,2021-08-03 18:16:38,2021-08-03 18:22:15,Macon St & Nostrand Ave,4214,Putnam Ave & Throop Ave,4392,40.6809833854,-73.9500479759,40.6851532,-73.94111,member
501778,14058AEA43F880C6,classic_bike,2021-08-10 18:47:54,2021-08-10 18:52:26,Macon St & Nostrand Ave,4214,Putnam Ave & Throop Ave,4392,40.6809833854,-73.9500479759,40.6851532,-73.94111,member
501784,8ACAE2A667499B04,electric_bike,2021-08-26 06:22:28,2021-08-26 06:30:02,Broadway & Kosciuszko St,4608,Putnam Ave & Throop Ave,4392,40.69329,-73.92852,40.6851532,-73.94111,member
501811,AA8986E96A9EF342,classic_bike,2021-08-18 22:11:53,2021-08-18 22:38:26,Berkeley Pl & 7 Ave,4051,Putnam Ave & Throop Ave,4392,40.675146838709786,-73.97523209452629,40.6851532,-73.94111,casual
501837,B948D20BF92FBAC1,classic_bike,2021-08-31 16:35:14,2021-08-31 17:15:34,Knickerbocker Ave & Halsey St,4623,Putnam Ave & Throop Ave,4392,40.693,-73.90824,40.6851532,-73.94111,casual
501841,F9AE9637330EDC26,electric_bike,2021-08-13 21:35:38,2021-08-13 22:09:37,W 27 St & 7 Ave,6247,Putnam Ave & Throop Ave,4392,40.746647,-73.993915,40.6851532,-73.94111,member
501844,A4DA0E2FFAE40226,electric_bike,2021-08-21 23:36:32,2021-08-22 00:09:36,W 27 St & 7 Ave,6247,Putnam Ave & Throop Ave,4392,40.746647,-73.993915,40.6851532,-73.94111,member
501864,D38EB182057E806C,classic_bike,2021-08-26 17:44:41,2021-08-26 17:54:57,Lorimer St & Broadway,4965,Putnam Ave & Throop Ave,4392,40.70411791,-73.94818595,40.6851532,-73.94111,casual
501878,981651F86B398EA3,electric_bike,2021-08-24 01:01:35,2021-08-24 01:05:59,Lewis Ave & Kosciuszko St,4617,Putnam Ave & Throop Ave,4392,40.69237074,-73.93705428,40.6851532,-73.94111,casual
501903,55E9453E186647F2,electric_bike,2021-08-26 23:20:11,2021-08-26 23:58:25,1 Ave & E 6 St,5626,Putnam Ave & Throop Ave,4392,40.72633085971696,-73.98616880178452,40.6851532,-73.94111,member
501904,56C1034938344914,classic_bike,2021-08-21 11:11:32,2021-08-21 11:33:53,West Drive & Prospect Park West,3651,Putnam Ave & Throop Ave,4392,40.6610633719006,-73.97945255041122,40.6851532,-73.94111,member
501912,F07BD66B660677F6,electric_bike,2021-08-25 12:22:51,2021-08-25 12:39:48,Stewart Ave & Johnson Ave,5123,Putnam Ave & Throop Ave,4392,40.70869,-73.92587,40.6851532,-73.94111,casual
501917,6E474FD95F575DAE,classic_bike,2021-08-21 18:56:52,2021-08-21 19:13:49,Cumberland St & Lafayette Ave,4428,Putnam Ave & Throop Ave,4392,40.68753406,-73.97265183,40.6851532,-73.94111,member
501920,CBD5A42170B4FF52,classic_bike,2021-08-15 11:27:21,2021-08-15 11:42:58,Knickerbocker Ave & Hancock St,4663,Putnam Ave & Throop Ave,4392,40.69385,-73.90974,40.6851532,-73.94111,casual
