,ride_id,rideable_type,started_at,ended_at,start_station_name,start_station_id,end_station_name,end_station_id,start_lat,start_lng,end_lat,end_lng,member_casual
18431,3BA4CC2E92449D82,docked_bike,2021-05-01 22:49:35,2021-05-01 22:56:37,Van Buren St & Broadway,4568,Halsey St & Evergreen Ave,4474,40.692,-73.92617,40.68858,-73.91227,member
18659,86893B0B3AD0F319,docked_bike,2021-05-18 19:51:49,2021-05-18 20:18:31,Allen St & Stanton St,5484,Halsey St & Evergreen Ave,4474,40.722055,-73.989111,40.68858,-73.91227,casual
18688,9122FE2303FF7224,docked_bike,2021-05-02 13:44:42,2021-05-02 13:50:27,Central Ave & Decatur St,4432,Halsey St & Evergreen Ave,4474,40.6882,-73.90798,40.68858,-73.91227,member
18734,BD9EF38F9E2D7A18,docked_bike,2021-05-02 13:44:40,2021-05-02 13:50:06,Central Ave & Decatur St,4432,Halsey St & Evergreen Ave,4474,40.6882,-73.90798,40.68858,-73.91227,casual
18782,C2BF5C3F1051773A,docked_bike,2021-05-23 09:06:25,2021-05-23 09:32:27,Allen St & Stanton St,5484,Halsey St & Evergreen Ave,4474,40.722055,-73.989111,40.68858,-73.91227,casual
18792,43007A2FAB4644D5,docked_bike,2021-05-25 17:12:32,2021-05-25 17:54:21,10 Ave & W 28 St,6459,Halsey St & Evergreen Ave,4474,40.750663,-74.001768,40.68858,-73.91227,member
18794,900B25BA068060B4,docked_bike,2021-05-20 17:56:46,2021-05-20 18:40:00,10 Ave & W 28 St,6459,Halsey St & Evergreen Ave,4474,40.750663,-74.001768,40.68858,-73.91227,member
18808,46C713B3DE1BDFBD,docked_bike,2021-05-17 14:16:07,2021-05-17 14:22:39,Broadway & Furman Ave,4244,Halsey St & Evergreen Ave,4474,40.68139,-73.90756,40.68858,-73.91227,member
18840,E569949CC98AA375,docked_bike,2021-05-08 10:52:09,2021-05-08 10:59:42,Central Ave & Starr Street,4792,Halsey St & Evergreen Ave,4474,40.700003,-73.92834,40.68858,-73.91227,member
18986,1D227D8FC78B5AB2,docked_bike,2021-05-22 14:19:10,2021-05-22 14:25:05,Myrtle Ave & Grove St,4816,Halsey St & Evergreen Ave,4474,40.69905,-73.91516,40.68858,-73.91227,member
19200,767099EA8B663E41,docked_bike,2021-05-12 20:16:02,2021-05-12 20:38:42,Dean St & Franklin Ave,4107,Halsey St & Evergreen Ave,4474,40.677592,-73.955637,40.68858,-73.91227,casual
19332,4B03DCEE127BCEC2,docked_bike,2021-05-09 00:29:26,2021-05-09 00:32:33,Knickerbocker Ave & Halsey St,4623,Halsey St & Evergreen Ave,4474,40.693,-73.90824,40.68858,-73.91227,member
19340,D62D932AC4E94163,docked_bike,2021-05-25 09:38:44,2021-05-25 09:45:56,Knickerbocker Ave & Halsey St,4623,Halsey St & Evergreen Ave,4474,40.693,-73.90824,40.68858,-73.91227,member
19482,30F857110A1055D3,docked_bike,2021-05-06 14:38:18,2021-05-06 15:01:46,Central Ave & Covert St,4550,Halsey St & Evergreen Ave,4474,40.68929,-73.90951,40.68858,-73.91227,member
19618,FBB4E2056B800FB7,docked_bike,2021-05-01 19:23:52,2021-05-01 19:43:45,Broadway & Berry St,5164,Halsey St & Evergreen Ave,4474,40.710445,-73.96525,40.68858,-73.91227,casual
19687,22FF690254CCABB6,docked_bike,2021-05-17 20:44:02,2021-05-17 20:53:08,Van Buren St & Broadway,4568,Halsey St & Evergreen Ave,4474,40.692,-73.92617,40.68858,-73.91227,casual
20129,906BAC0E758BBC3E,docked_bike,2021-05-01 22:49:31,2021-05-01 22:56:06,Van Buren St & Broadway,4568,Halsey St & Evergreen Ave,4474,40.692,-73.92617,40.68858,-73.91227,member
20193,84A6F6442F2B2B80,docked_bike,2021-05-21 13:15:15,2021-05-21 14:02:11,W 45 St & 8 Ave,6676,Halsey St & Evergreen Ave,4474,40.759291,-73.988596,40.68858,-73.91227,casual
20235,94E0C3E3FEDEDFBB,docked_bike,2021-05-20 02:40:50,2021-05-20 02:44:23,Bushwick Ave & Furman Ave,4317,Halsey St & Evergreen Ave,4474,40.68281,-73.90623,40.68858,-73.91227,casual
20248,E4D880ABA4C6E9D6,docked_bike,2021-05-22 21:25:53,2021-05-22 21:34:24,Grove St & Broadway,4526,Halsey St & Evergreen Ave,4474,40.69047,-73.923511,40.68858,-73.91227,casual
20706,E5DE5E5F58F28B2D,docked_bike,2021-05-06 12:49:31,2021-05-06 13:28:33,10 Ave & W 28 St,6459,Halsey St & Evergreen Ave,4474,40.750663,-74.001768,40.68858,-73.91227,member
20774,6FBEF04C09B36134,docked_bike,2021-05-05 18:39:37,2021-05-05 18:42:16,Knickerbocker Ave & Halsey St,4623,Halsey St & Evergreen Ave,4474,40.693,-73.90824,40.68858,-73.91227,member
20790,1564D44387A865CA,docked_bike,2021-05-20 04:43:02,2021-05-20 04:50:51,Broadway & Furman Ave,4244,Halsey St & Evergreen Ave,4474,40.68139,-73.90756,40.68858,-73.91227,casual
20850,6E44F5430601BC94,docked_bike,2021-05-02 15:55:38,2021-05-02 16:07:53,Broadway & Kosciuszko St,4608,Halsey St & Evergreen Ave,4474,40.69329,-73.92852,40.68858,-73.91227,casual
20957,86904EDD5201E10C,docked_bike,2021-05-09 11:44:06,2021-05-09 12:28:53,W 30 St & 10 Ave,6459,Halsey St & Evergreen Ave,4474,40.752694,-74.002353,40.68858,-73.91227,casual
21020,5BEF8B0B0C2B8D02,docked_bike,2021-05-22 01:19:08,2021-05-22 01:36:40,Bedford Ave & Nassau Ave,5550,Halsey St & Evergreen Ave,4474,40.723116,-73.952123,40.68858,-73.91227,casual
21171,E0C5176C6E3671AD,docked_bike,2021-05-11 13:44:42,2021-05-11 13:51:30,Bushwick Ave & Furman Ave,4317,Halsey St & Evergreen Ave,4474,40.68281,-73.90623,40.68858,-73.91227,member
21180,FF763205EC5734B9,docked_bike,2021-05-13 14:43:50,2021-05-13 14:50:24,Grove St & Broadway,4526,Halsey St & Evergreen Ave,4474,40.69047,-73.923511,40.68858,-73.91227,casual
21181,CDA5DE4FB6FF6D2A,docked_bike,2021-05-08 15:00:48,2021-05-08 15:05:49,Grove St & Broadway,4526,Halsey St & Evergreen Ave,4474,40.69047,-73.923511,40.68858,-73.91227,casual
21196,A9442F413CC009F3,docked_bike,2021-05-14 12:19:50,2021-05-14 12:24:59,Bushwick Ave & Furman Ave,4317,Halsey St & Evergreen Ave,4474,40.68281,-73.90623,40.68858,-73.91227,member
21245,F6C07214CB703D3C,docked_bike,2021-05-02 20:12:03,2021-05-02 20:19:41,Bushwick Ave & Furman Ave,4317,Halsey St & Evergreen Ave,4474,40.68281,-73.90623,40.68858,-73.91227,casual
21487,4B6FCA4C97840333,docked_bike,2021-05-12 21:57:04,2021-05-12 22:24:38,Eldert St & Bushwick Ave,4399,Halsey St & Evergreen Ave,4474,40.68652,-73.91321,40.68858,-73.91227,casual
21507,F87C78A101039BD4,docked_bike,2021-05-21 17:45:04,2021-05-21 18:21:48,W 22 St & 10 Ave,6306,Halsey St & Evergreen Ave,4474,40.746919,-74.004518,40.68858,-73.91227,member
21624,B06D2F11CC520B25,docked_bike,2021-05-04 16:37:04,2021-05-04 16:56:03,Willoughby Ave & Onderdonk Ave,5115,Halsey St & Evergreen Ave,4474,40.7098,-73.91727,40.68858,-73.91227,casual
21656,7AC8695CC3A53738,docked_bike,2021-05-12 14:21:21,2021-05-12 14:36:01,Waterbury St & Stagg St,5099,Halsey St & Evergreen Ave,4474,40.71019,-73.93734,40.68858,-73.91227,casual
21764,8526C31DABBF4EA7,docked_bike,2021-05-11 21:43:47,2021-05-11 21:53:50,Putnam Ave & Nostrand Ave,4327,Halsey St & Evergreen Ave,4474,40.68402,-73.94977,40.68858,-73.91227,member
21817,B92A625D95C6B487,docked_bike,2021-05-18 21:02:03,2021-05-18 21:03:42,Eldert St & Bushwick Ave,4399,Halsey St & Evergreen Ave,4474,40.68652,-73.91321,40.68858,-73.91227,member
21940,B59B327D1E700932,docked_bike,2021-05-11 14:48:11,2021-05-11 14:59:44,Suydam St & Knickerbocker Ave,4939,Halsey St & Evergreen Ave,4474,40.702013,-73.923769,40.68858,-73.91227,casual
21949,B156438207E7A8D1,docked_bike,2021-05-27 12:37:27,2021-05-27 12:47:42,Melrose St & Broadway,4801,Halsey St & Evergreen Ave,4474,40.697481,-73.935877,40.68858,-73.91227,member
21962,5A1DF9624359ED6D,docked_bike,2021-05-13 18:56:41,2021-05-13 19:24:25,Sullivan Pl & Franklin Ave,3704,Halsey St & Evergreen Ave,4474,40.664079,-73.960251,40.68858,-73.91227,casual
27308,2BCA45D39546D02B,docked_bike,2021-05-24 19:09:02,2021-05-24 19:30:26,Eastern Pkwy & Franklin Ave,3919,Halsey St & Evergreen Ave,4474,40.670776,-73.95768,40.68858,-73.91227,casual
27320,794CA98A2DEC78AD,docked_bike,2021-05-12 16:51:37,2021-05-12 17:30:17,10 Ave & W 28 St,6459,Halsey St & Evergreen Ave,4474,40.750663,-74.001768,40.68858,-73.91227,member
27321,0C037E877716DF31,docked_bike,2021-05-04 17:53:07,2021-05-04 18:18:52,E 1 St & 1 Ave,5593,Halsey St & Evergreen Ave,4474,40.723355,-73.988649,40.68858,-73.91227,member
461866,D9C8545BC6527BCE,docked_bike,2021-05-12 16:59:32,2021-05-12 17:02:03,Halsey St & Broadway,4366,Halsey St & Evergreen Ave,4474,40.68565,-73.91564,40.68858,-73.91227,member
461867,9FEC276C4A98B352,docked_bike,2021-05-07 19:09:32,2021-05-07 19:12:30,Halsey St & Broadway,4366,Halsey St & Evergreen Ave,4474,40.68565,-73.91564,40.68858,-73.91227,member
461868,615E393C2A8E695F,docked_bike,2021-05-06 22:51:12,2021-05-06 22:53:06,Halsey St & Broadway,4366,Halsey St & Evergreen Ave,4474,40.68565,-73.91564,40.68858,-73.91227,member
461871,E075C350BB5FBBE4,docked_bike,2021-05-28 14:07:41,2021-05-28 14:11:36,Halsey St & Broadway,4366,Halsey St & Evergreen Ave,4474,40.68565,-73.91564,40.68858,-73.91227,member
461875,C369222E7EA30425,docked_bike,2021-05-16 02:43:07,2021-05-16 02:48:50,Van Sinderen Ave & Truxton St,4161,Halsey St & Evergreen Ave,4474,40.6786,-73.90369,40.68858,-73.91227,casual
461908,6E91A3AE1560DE56,docked_bike,2021-05-10 19:07:08,2021-05-10 19:13:19,Van Sinderen Ave & Truxton St,4161,Halsey St & Evergreen Ave,4474,40.6786,-73.90369,40.68858,-73.91227,member
461909,7CFE9A1A86919ECB,docked_bike,2021-05-19 22:51:34,2021-05-19 22:57:21,Van Sinderen Ave & Truxton St,4161,Halsey St & Evergreen Ave,4474,40.6786,-73.90369,40.68858,-73.91227,member
461930,470878D4DD95B68D,docked_bike,2021-05-11 14:48:11,2021-05-11 14:59:57,Suydam St & Knickerbocker Ave,4939,Halsey St & Evergreen Ave,4474,40.702013,-73.923769,40.68858,-73.91227,casual
461937,B85295F8E690EE31,docked_bike,2021-05-18 09:22:38,2021-05-18 09:31:47,Melrose St & Broadway,4801,Halsey St & Evergreen Ave,4474,40.697481,-73.935877,40.68858,-73.91227,casual
461963,7CDF2381FE39DD3F,docked_bike,2021-05-17 20:25:11,2021-05-17 20:36:39,Suydam St & Knickerbocker Ave,4939,Halsey St & Evergreen Ave,4474,40.702013,-73.923769,40.68858,-73.91227,casual
461982,531B4C5DDE02938D,docked_bike,2021-05-19 23:39:50,2021-05-19 23:55:11,Montrose Ave & Bushwick Ave,5068,Halsey St & Evergreen Ave,4474,40.707677,-73.940161,40.68858,-73.91227,casual
461985,D0DD90804EB04665,docked_bike,2021-05-01 13:10:01,2021-05-01 13:34:49,Montrose Ave & Bushwick Ave,5068,Halsey St & Evergreen Ave,4474,40.707677,-73.940161,40.68858,-73.91227,member
462009,F15437D526D51369,docked_bike,2021-05-26 21:32:28,2021-05-26 21:38:04,Van Sinderen Ave & Truxton St,4161,Halsey St & Evergreen Ave,4474,40.6786,-73.90369,40.68858,-73.91227,member
462028,C0AF5009E4F41690,docked_bike,2021-05-16 00:33:37,2021-05-16 00:36:35,Halsey St & Broadway,4366,Halsey St & Evergreen Ave,4474,40.68565,-73.91564,40.68858,-73.91227,member
462035,A3486F329AC646D5,docked_bike,2021-05-24 20:17:17,2021-05-24 20:20:12,Halsey St & Broadway,4366,Halsey St & Evergreen Ave,4474,40.68565,-73.91564,40.68858,-73.91227,member
1330220,7A9A510DEE02E61C,docked_bike,2021-05-01 22:13:05,2021-05-01 22:29:05,Sterling Pl & Bedford Ave,3993,Halsey St & Evergreen Ave,4474,40.672695,-73.954131,40.68858,-73.91227,member
1330237,F4387F6B68C654A6,docked_bike,2021-05-23 19:14:35,2021-05-23 19:18:19,Eldert St & Bushwick Ave,4399,Halsey St & Evergreen Ave,4474,40.68652,-73.91321,40.68858,-73.91227,casual
1330249,D76A754F5E5D3E0F,docked_bike,2021-05-20 20:51:14,2021-05-20 20:55:32,Wilson Ave & Moffat St,4507,Halsey St & Evergreen Ave,4474,40.68906,-73.90506,40.68858,-73.91227,casual
1330258,4E39063C6FA858C8,docked_bike,2021-05-15 19:32:32,2021-05-15 19:37:00,Wilson Ave & Moffat St,4507,Halsey St & Evergreen Ave,4474,40.68906,-73.90506,40.68858,-73.91227,member
1330259,5A6162388F691EEE,docked_bike,2021-05-28 14:43:53,2021-05-28 14:47:35,Wilson Ave & Moffat St,4507,Halsey St & Evergreen Ave,4474,40.68906,-73.90506,40.68858,-73.91227,member
1330274,F843EA93242E23D1,docked_bike,2021-05-18 19:33:22,2021-05-18 19:38:12,Wilson Ave & Moffat St,4507,Halsey St & Evergreen Ave,4474,40.68906,-73.90506,40.68858,-73.91227,member
1330420,4921138E5B424930,docked_bike,2021-05-23 16:04:45,2021-05-23 16:13:50,Moffat St & Bushwick,4357,Halsey St & Evergreen Ave,4474,40.68458,-73.90925,40.68858,-73.91227,casual
1330442,C9821FCBEE0EB143,docked_bike,2021-05-15 00:48:50,2021-05-15 00:51:58,Wilson Ave & Moffat St,4507,Halsey St & Evergreen Ave,4474,40.68906,-73.90506,40.68858,-73.91227,member
1330494,868D2512D516EABA,docked_bike,2021-05-19 19:34:35,2021-05-19 22:12:52,Parade Pl & Crooke Ave,3376,Halsey St & Evergreen Ave,4474,40.651847,-73.965248,40.68858,-73.91227,casual
1330506,D14C20230CBEBF0D,docked_bike,2021-05-31 14:08:10,2021-05-31 14:21:19,Kosciuszko St & Nostrand Ave,4519,Halsey St & Evergreen Ave,4474,40.690725,-73.951334,40.68858,-73.91227,casual
1330510,B364890B15399572,docked_bike,2021-05-18 19:56:54,2021-05-18 20:05:11,Suydam St & Broadway,4689,Halsey St & Evergreen Ave,4474,40.69544,-73.93223,40.68858,-73.91227,member
1330542,7ACD563008B5B8C1,docked_bike,2021-05-08 14:51:33,2021-05-08 14:51:57,Suydam St & Broadway,4689,Halsey St & Evergreen Ave,4474,40.69544,-73.93223,40.68858,-73.91227,casual
1330594,1942405B11A1E143,docked_bike,2021-05-02 18:33:07,2021-05-02 19:17:36,W 30 St & 10 Ave,6459,Halsey St & Evergreen Ave,4474,40.752694,-74.002353,40.68858,-73.91227,member
1330831,C2BEF6EEBEA687E5,docked_bike,2021-05-31 17:51:28,2021-05-31 17:55:29,Putnam Ave & Knickerbocker Ave,4663,Halsey St & Evergreen Ave,4474,40.69545,-73.91164,40.68858,-73.91227,member
1330872,36D9DE7A04800200,docked_bike,2021-05-15 10:39:27,2021-05-15 10:44:15,Putnam Ave & Knickerbocker Ave,4663,Halsey St & Evergreen Ave,4474,40.69545,-73.91164,40.68858,-73.91227,member
1330918,0787E31D6B6A03DD,docked_bike,2021-05-01 12:47:14,2021-05-01 12:53:51,Bushwick Ave & Harman St,4640,Halsey St & Evergreen Ave,4474,40.69356,-73.92524,40.68858,-73.91227,member
1330954,13EE1D33293B42E6,docked_bike,2021-05-20 22:51:09,2021-05-21 03:16:45,Washington Pl & 6 Ave,5838,Halsey St & Evergreen Ave,4474,40.732241,-74.000263,40.68858,-73.91227,member
1330989,AB48606CD533906E,docked_bike,2021-05-04 15:38:02,2021-05-04 15:51:34,McKibbin St & Bogart St,5059,Halsey St & Evergreen Ave,4474,40.706237,-73.933871,40.68858,-73.91227,casual
1331013,118C3299607FDB93,docked_bike,2021-05-28 08:58:49,2021-05-28 09:20:14,Monroe St & Bedford Ave,4368,Halsey St & Evergreen Ave,4474,40.685144,-73.953809,40.68858,-73.91227,casual
1331103,D297EF2A3DC0A26D,docked_bike,2021-05-07 00:16:34,2021-05-07 00:28:09,Montrose Ave & Bushwick Ave,5068,Halsey St & Evergreen Ave,4474,40.707677,-73.940161,40.68858,-73.91227,member
1331170,CC7280A762D56859,docked_bike,2021-05-19 23:40:11,2021-05-19 23:55:11,Montrose Ave & Bushwick Ave,5068,Halsey St & Evergreen Ave,4474,40.707677,-73.940161,40.68858,-73.91227,casual
1331205,66377BEFE3B42253,docked_bike,2021-05-06 16:45:55,2021-05-06 16:56:39,Irving Ave & Jefferson St,5051,Halsey St & Evergreen Ave,4474,40.70538,-73.92535,40.68858,-73.91227,casual
1331229,FCCA64EDBA66A6D8,docked_bike,2021-05-24 01:35:44,2021-05-24 02:30:33,Frederick Douglass Blvd & W 112 St,7631,Halsey St & Evergreen Ave,4474,40.801694,-73.957145,40.68858,-73.91227,casual
1331279,79FE7ED61924F9D7,docked_bike,2021-05-31 22:46:39,2021-05-31 23:17:26,Clinton Ave & Myrtle Ave,4651,Halsey St & Evergreen Ave,4474,40.693261,-73.968896,40.68858,-73.91227,casual
1331619,DF827C03213FFF58,docked_bike,2021-05-20 17:26:40,2021-05-20 17:34:26,Bushwick Ave & Linden St,4600,Halsey St & Evergreen Ave,4474,40.69146,-73.92146,40.68858,-73.91227,member
1331655,8849D2E43464F543,docked_bike,2021-05-28 17:49:45,2021-05-28 18:08:57,Washington Ave & Park Ave,4724,Halsey St & Evergreen Ave,4474,40.696102,-73.96751,40.68858,-73.91227,casual
1331674,9DBF7397366546F5,docked_bike,2021-05-12 14:31:30,2021-05-12 15:03:04,Parade Pl & Crooke Ave,3376,Halsey St & Evergreen Ave,4474,40.651847,-73.965248,40.68858,-73.91227,casual
1331681,4D4810C7EF5FDF4E,docked_bike,2021-05-08 10:54:28,2021-05-08 10:59:15,Putnam Ave & Wyckoff Ave,4735,Halsey St & Evergreen Ave,4474,40.69811,-73.90904,40.68858,-73.91227,member
1331795,34772D76F6D73F76,docked_bike,2021-05-18 12:19:35,2021-05-18 12:37:38,Scholes St & Manhattan Ave,5108,Halsey St & Evergreen Ave,4474,40.708703,-73.944862,40.68858,-73.91227,member
1331869,9B8C32811C4F3AB3,docked_bike,2021-05-02 13:27:37,2021-05-02 13:32:51,Cypress Ave & George St,4765,Halsey St & Evergreen Ave,4474,40.69812,-73.90271,40.68858,-73.91227,casual
1331951,9CFD709868FA9A7B,docked_bike,2021-05-31 21:02:56,2021-05-31 21:23:57,Leonard St & Boerum St,5036,Halsey St & Evergreen Ave,4474,40.705833,-73.946445,40.68858,-73.91227,member
1332155,81D6DCA0207B3DCC,docked_bike,2021-05-11 23:29:53,2021-05-11 23:33:33,Knickerbocker Ave & Cooper St,4582,Halsey St & Evergreen Ave,4474,40.69081,-73.90448,40.68858,-73.91227,casual
1332314,647187388A624180,docked_bike,2021-05-21 08:44:50,2021-05-21 09:04:08,Sharon St & Olive St,5323,Halsey St & Evergreen Ave,4474,40.715353,-73.93856,40.68858,-73.91227,member
1332417,3D1BE565D2668BD0,docked_bike,2021-05-01 21:30:39,2021-05-01 21:47:14,Hancock St & Bedford Ave,4255,Halsey St & Evergreen Ave,4474,40.682165,-73.95399,40.68858,-73.91227,member
1332660,5D3246EB2B5066F4,docked_bike,2021-05-13 09:45:26,2021-05-13 10:00:13,Verona Pl & Fulton St,4124,Halsey St & Evergreen Ave,4474,40.680356,-73.947679,40.68858,-73.91227,casual
1332661,43C2F6A1938293CE,docked_bike,2021-05-01 11:29:55,2021-05-01 11:40:24,Park Ave & Marcus Garvey Blvd,4768,Halsey St & Evergreen Ave,4474,40.698617,-73.941342,40.68858,-73.91227,casual
1332765,D0A816503D21CFBC,docked_bike,2021-05-23 10:55:45,2021-05-23 11:16:05,Verona Pl & Fulton St,4124,Halsey St & Evergreen Ave,4474,40.680356,-73.947679,40.68858,-73.91227,casual
1332899,1D3E13DC75922A64,docked_bike,2021-05-26 13:32:34,2021-05-26 14:13:10,14 St & 7 Ave,3731,Halsey St & Evergreen Ave,4474,40.663779,-73.983968,40.68858,-73.91227,member
1333034,55E09126701812B4,docked_bike,2021-05-17 17:48:27,2021-05-17 18:16:22,Grand Ave & Bergen St,4190,Halsey St & Evergreen Ave,4474,40.678045,-73.962408,40.68858,-73.91227,member
1333286,6BEF537C471AD9C6,docked_bike,2021-05-03 20:28:47,2021-05-03 21:22:06,Somers St & Broadway,4203,Halsey St & Evergreen Ave,4474,40.67945,-73.90474,40.68858,-73.91227,member
1333491,9A7EA80A11BB1B17,docked_bike,2021-05-23 21:46:59,2021-05-23 21:55:01,Willoughby Ave & Myrtle Ave,4759,Halsey St & Evergreen Ave,4474,40.69757,-73.93098,40.68858,-73.91227,casual
1333513,5480210DFF06D1A7,docked_bike,2021-05-23 20:13:44,2021-05-23 20:47:34,Metropolitan Ave & Meeker Ave,5300,Halsey St & Evergreen Ave,4474,40.714133,-73.952343,40.68858,-73.91227,member
1333514,A699BD8C8758DCDF,docked_bike,2021-05-08 02:30:45,2021-05-08 02:49:12,Metropolitan Ave & Meeker Ave,5300,Halsey St & Evergreen Ave,4474,40.714133,-73.952343,40.68858,-73.91227,casual
1333551,8D641B5E7C40F9CE,docked_bike,2021-05-13 23:59:15,2021-05-14 00:05:46,Willoughby Ave & Myrtle Ave,4759,Halsey St & Evergreen Ave,4474,40.69757,-73.93098,40.68858,-73.91227,member
1333554,18312D4FACFA31F0,docked_bike,2021-05-22 23:37:18,2021-05-23 00:02:57,Willoughby Ave & Myrtle Ave,4759,Halsey St & Evergreen Ave,4474,40.69757,-73.93098,40.68858,-73.91227,member
1333575,7E4FC3EE9A3F69D4,docked_bike,2021-05-15 15:19:08,2021-05-15 15:30:43,Willoughby Ave & Myrtle Ave,4759,Halsey St & Evergreen Ave,4474,40.69757,-73.93098,40.68858,-73.91227,casual
1333577,E1A69DC8189EFC06,docked_bike,2021-05-31 21:34:52,2021-05-31 22:04:57,E 14 St & Avenue B,5736,Halsey St & Evergreen Ave,4474,40.729386,-73.977724,40.68858,-73.91227,casual
1333818,019DACD66D72BB71,docked_bike,2021-05-27 21:30:03,2021-05-27 21:41:07,Wyckoff Av & Jefferson St,5051,Halsey St & Evergreen Ave,4474,40.707165,-73.923711,40.68858,-73.91227,casual
1333867,6E4581A732A5E11D,docked_bike,2021-05-31 14:49:09,2021-05-31 16:56:27,Plaza St East & Flatbush Ave,4010,Halsey St & Evergreen Ave,4474,40.673134,-73.969106,40.68858,-73.91227,casual
1333900,DF60BC50D9051488,docked_bike,2021-05-14 13:32:28,2021-05-14 13:59:15,Nostrand Ave & Myrtle Ave,4707,Halsey St & Evergreen Ave,4474,40.69527,-73.952381,40.68858,-73.91227,casual
1333925,12E1B03DBF1A22EC,docked_bike,2021-05-27 22:47:25,2021-05-27 23:15:38,Milton St & Franklin St,5752,Halsey St & Evergreen Ave,4474,40.72906,-73.95779,40.68858,-73.91227,member
1333946,3CE38B8B59E28097,docked_bike,2021-05-13 23:01:23,2021-05-13 23:16:42,Harrison Pl & Porter Ave,5090,Halsey St & Evergreen Ave,4474,40.70686,-73.92851,40.68858,-73.91227,casual
1333982,F481C14BB6CB1EEA,docked_bike,2021-05-25 01:23:59,2021-05-25 01:27:03,Irving Ave & Halsey St,4695,Halsey St & Evergreen Ave,4474,40.69467,-73.90663,40.68858,-73.91227,member
1334082,6E2B1E1151F93D94,docked_bike,2021-05-14 18:41:03,2021-05-14 19:20:49,21 St & Queens Plaza North,6471,Halsey St & Evergreen Ave,4474,40.753259,-73.943357,40.68858,-73.91227,casual
1334101,007C06B8D1AD416E,docked_bike,2021-05-19 22:47:51,2021-05-19 22:58:31,Central Ave & Flushing Ave,4947,Halsey St & Evergreen Ave,4474,40.702831,-73.9333,40.68858,-73.91227,member
1334174,FE64C9A55285CDB9,docked_bike,2021-05-31 18:10:59,2021-05-31 18:37:42,Dean St & Hoyt St,4446,Halsey St & Evergreen Ave,4474,40.686444,-73.987591,40.68858,-73.91227,member
1334345,1D254D0BB1D638C4,docked_bike,2021-05-10 20:11:42,2021-05-10 20:13:29,Central Ave & Weirfield St,4591,Halsey St & Evergreen Ave,4474,40.69055,-73.91181,40.68858,-73.91227,member
1334346,89AD3F51CD43F3F2,docked_bike,2021-05-10 19:58:39,2021-05-10 20:00:40,Central Ave & Weirfield St,4591,Halsey St & Evergreen Ave,4474,40.69055,-73.91181,40.68858,-73.91227,member
1334347,BAAA1A0A418DC06D,docked_bike,2021-05-10 20:04:50,2021-05-10 20:06:35,Central Ave & Weirfield St,4591,Halsey St & Evergreen Ave,4474,40.69055,-73.91181,40.68858,-73.91227,member
1334361,C7526ABF996FA61C,docked_bike,2021-05-28 11:26:16,2021-05-28 11:27:16,Central Ave & Weirfield St,4591,Halsey St & Evergreen Ave,4474,40.69055,-73.91181,40.68858,-73.91227,member
1334388,E65804D53EDBD988,docked_bike,2021-05-09 15:42:02,2021-05-09 15:55:35,Central Ave & Weirfield St,4591,Halsey St & Evergreen Ave,4474,40.69055,-73.91181,40.68858,-73.91227,member
1334401,E14666A7C264DB33,docked_bike,2021-05-01 01:34:18,2021-05-01 01:44:16,Central Ave & Weirfield St,4591,Halsey St & Evergreen Ave,4474,40.69055,-73.91181,40.68858,-73.91227,casual
1334402,749DB98EDD0DCC37,docked_bike,2021-05-31 20:29:45,2021-05-31 20:31:30,Central Ave & Weirfield St,4591,Halsey St & Evergreen Ave,4474,40.69055,-73.91181,40.68858,-73.91227,member
1334403,9DE37AF62CBE5865,docked_bike,2021-05-14 09:19:34,2021-05-14 09:21:34,Central Ave & Weirfield St,4591,Halsey St & Evergreen Ave,4474,40.69055,-73.91181,40.68858,-73.91227,member
1334405,BEAFE7C29678E3C7,docked_bike,2021-05-11 09:31:29,2021-05-11 09:33:06,Central Ave & Weirfield St,4591,Halsey St & Evergreen Ave,4474,40.69055,-73.91181,40.68858,-73.91227,member
1334406,73313A9266FB0442,docked_bike,2021-05-21 10:42:49,2021-05-21 10:44:21,Central Ave & Weirfield St,4591,Halsey St & Evergreen Ave,4474,40.69055,-73.91181,40.68858,-73.91227,member
1334418,4510743C50529ACC,docked_bike,2021-05-11 08:33:12,2021-05-11 08:34:37,Central Ave & Weirfield St,4591,Halsey St & Evergreen Ave,4474,40.69055,-73.91181,40.68858,-73.91227,member
1334440,8FB976C693ED2F2B,docked_bike,2021-05-01 01:34:49,2021-05-01 13:25:14,Central Ave & Weirfield St,4591,Halsey St & Evergreen Ave,4474,40.69055,-73.91181,40.68858,-73.91227,casual
1334445,4936782FFC84FCE0,docked_bike,2021-05-02 17:11:42,2021-05-02 17:48:21,Bergen St & Vanderbilt Ave,4157,Halsey St & Evergreen Ave,4474,40.679438,-73.968043,40.68858,-73.91227,casual
1334557,88DBB258C0055BC8,docked_bike,2021-05-15 22:04:08,2021-05-15 22:40:39,6 Ave & W 33 St,6364,Halsey St & Evergreen Ave,4474,40.749012,-73.988483,40.68858,-73.91227,member
1334631,7AA40E71F8D6148A,docked_bike,2021-05-09 14:35:36,2021-05-09 15:00:31,Driggs Ave & N Henry St,5542,Halsey St & Evergreen Ave,4474,40.72325,-73.94308,40.68858,-73.91227,member
1334900,9E31B0FBE3DC45FA,docked_bike,2021-05-31 12:18:41,2021-05-31 13:13:14,Jefferson Ave & Evergreen Ave,4517,Halsey St & Evergreen Ave,4474,40.68989,-73.91458,40.68858,-73.91227,casual
1334908,331C018902E40C1A,docked_bike,2021-05-21 10:46:18,2021-05-21 10:51:03,Rockaway Ave & Bainbridge St,4285,Halsey St & Evergreen Ave,4474,40.683199,-73.911666,40.68858,-73.91227,casual
1334915,23050D89AB87DFA4,docked_bike,2021-05-17 19:33:47,2021-05-17 19:49:08,Jefferson Ave & Evergreen Ave,4517,Halsey St & Evergreen Ave,4474,40.68989,-73.91458,40.68858,-73.91227,casual
1334927,40AEBE4FD1CB3F13,docked_bike,2021-05-13 20:01:33,2021-05-13 20:12:46,Rockaway Ave & Bainbridge St,4285,Halsey St & Evergreen Ave,4474,40.683199,-73.911666,40.68858,-73.91227,casual
1334949,0BF8C2540C47544D,docked_bike,2021-05-10 21:23:11,2021-05-10 21:33:11,Madison St & Seneca Ave,4880,Halsey St & Evergreen Ave,4474,40.70183,-73.90625,40.68858,-73.91227,member
1334951,508BA317EFB872ED,docked_bike,2021-05-16 10:33:13,2021-05-16 10:36:14,Rockaway Ave & Bainbridge St,4285,Halsey St & Evergreen Ave,4474,40.683199,-73.911666,40.68858,-73.91227,casual
1335322,54915AEDC62C8536,docked_bike,2021-05-23 08:57:33,2021-05-23 09:07:10,Throop Ave & Myrtle Ave,4697,Halsey St & Evergreen Ave,4474,40.696229,-73.94371,40.68858,-73.91227,casual
1335369,3748815B4EB1BB21,docked_bike,2021-05-23 00:42:21,2021-05-23 00:49:14,Norman St & Wyckoff Ave,4654,Halsey St & Evergreen Ave,4474,40.69517,-73.90311,40.68858,-73.91227,casual
1335406,2E94182DC3AEE7DF,docked_bike,2021-05-20 06:23:08,2021-05-20 06:31:35,Norman St & Wyckoff Ave,4654,Halsey St & Evergreen Ave,4474,40.69517,-73.90311,40.68858,-73.91227,casual
1335419,AFF0F4B355D47E90,docked_bike,2021-05-13 19:48:07,2021-05-13 19:52:50,Norman St & Wyckoff Ave,4654,Halsey St & Evergreen Ave,4474,40.69517,-73.90311,40.68858,-73.91227,member
1335421,67C5B1E4C603D78E,docked_bike,2021-05-31 18:25:26,2021-05-31 18:31:25,Norman St & Wyckoff Ave,4654,Halsey St & Evergreen Ave,4474,40.69517,-73.90311,40.68858,-73.91227,casual
1335550,4D9EFB57AE434527,docked_bike,2021-05-14 09:11:09,2021-05-14 09:20:26,Wyckoff Av & Stanhope St,4931,Halsey St & Evergreen Ave,4474,40.703545,-73.917775,40.68858,-73.91227,casual
1335587,74D58C2C15EB9B39,docked_bike,2021-05-07 11:47:41,2021-05-07 11:57:13,Wyckoff Av & Stanhope St,4931,Halsey St & Evergreen Ave,4474,40.703545,-73.917775,40.68858,-73.91227,casual
1335630,6C1E88620D6FF25C,docked_bike,2021-05-26 11:53:23,2021-05-26 12:05:56,Wyckoff Av & Stanhope St,4931,Halsey St & Evergreen Ave,4474,40.703545,-73.917775,40.68858,-73.91227,casual
1335661,6A620F3B16EBD76B,docked_bike,2021-05-08 07:41:55,2021-05-08 08:18:53,9 Ave & W 22 St,6266,Halsey St & Evergreen Ave,4474,40.745497,-74.001971,40.68858,-73.91227,member
1335687,41BFA317C97ADD80,docked_bike,2021-05-14 23:41:58,2021-05-14 23:55:28,Humboldt St & Varet St,4956,Halsey St & Evergreen Ave,4474,40.703172,-73.940636,40.68858,-73.91227,casual
1335730,63BD9976D22513D9,docked_bike,2021-05-22 23:46:43,2021-05-22 23:57:59,Pulaski St & Marcus Garvey Blvd,4656,Halsey St & Evergreen Ave,4474,40.693398,-73.939877,40.68858,-73.91227,casual
1335732,65B89CB1248B1A4D,docked_bike,2021-05-31 14:56:25,2021-05-31 15:07:01,Wilson Ave & Troutman St,4864,Halsey St & Evergreen Ave,4474,40.70166,-73.92754,40.68858,-73.91227,casual
1335754,68C272AE10C458DC,docked_bike,2021-05-09 23:24:02,2021-05-09 23:27:06,Knickerbocker Ave & Cooper St,4582,Halsey St & Evergreen Ave,4474,40.69081,-73.90448,40.68858,-73.91227,casual
1335771,8ACE024F54FA217C,docked_bike,2021-05-27 11:15:39,2021-05-27 11:18:45,Knickerbocker Ave & Cooper St,4582,Halsey St & Evergreen Ave,4474,40.69081,-73.90448,40.68858,-73.91227,casual
1335795,4D850861E88328D8,docked_bike,2021-05-22 17:07:12,2021-05-22 17:36:26,Wilson Ave & Troutman St,4864,Halsey St & Evergreen Ave,4474,40.70166,-73.92754,40.68858,-73.91227,casual
1335807,C89A386FCDB3EAAF,docked_bike,2021-05-01 16:02:41,2021-05-01 16:09:01,Wilson Ave & Troutman St,4864,Halsey St & Evergreen Ave,4474,40.70166,-73.92754,40.68858,-73.91227,member
1335851,3EA343A39F358BB7,docked_bike,2021-05-13 13:58:17,2021-05-13 14:05:20,Wilson Ave & Troutman St,4864,Halsey St & Evergreen Ave,4474,40.70166,-73.92754,40.68858,-73.91227,casual
1335863,D2E5D5AECFDE63F1,docked_bike,2021-05-31 14:52:45,2021-05-31 15:06:51,Wilson Ave & Troutman St,4864,Halsey St & Evergreen Ave,4474,40.70166,-73.92754,40.68858,-73.91227,casual
1335874,BA902755D6168075,docked_bike,2021-05-22 14:06:06,2021-05-22 14:26:11,Manhattan Av & Leonard St,5442,Halsey St & Evergreen Ave,4474,40.72084,-73.94844,40.68858,-73.91227,member
1335913,B0EF2A06B939C8D3,docked_bike,2021-05-06 23:31:35,2021-05-07 00:14:24,Greene Ave & Grandview Ave,5106,Halsey St & Evergreen Ave,4474,40.709697,-73.907856,40.68858,-73.91227,casual
1336109,864DA2C71778633A,docked_bike,2021-05-22 17:27:54,2021-05-22 17:44:28,Kingston Ave & Herkimer St,4205,Halsey St & Evergreen Ave,4474,40.678906,-73.941427,40.68858,-73.91227,casual
1336285,088F05D5B643645B,docked_bike,2021-05-23 00:38:55,2021-05-23 00:54:28,Classon Ave & St Marks Ave,4074,Halsey St & Evergreen Ave,4474,40.676519,-73.959608,40.68858,-73.91227,member
1336396,099FA4C050072316,docked_bike,2021-05-07 12:27:17,2021-05-07 12:51:22,Schermerhorn St & Bond St,4479,Halsey St & Evergreen Ave,4474,40.688417,-73.984516,40.68858,-73.91227,member
1336602,56C4FFF0C22007BF,docked_bike,2021-05-24 21:46:03,2021-05-24 22:04:56,Plaza St West & Flatbush Ave,4010,Halsey St & Evergreen Ave,4474,40.67502,-73.971114,40.68858,-73.91227,member
1336607,8C441690962C7C3E,docked_bike,2021-05-23 00:42:27,2021-05-23 00:49:26,Norman St & Wyckoff Ave,4654,Halsey St & Evergreen Ave,4474,40.69517,-73.90311,40.68858,-73.91227,member
1336644,08F6955AD31377C3,docked_bike,2021-05-14 15:32:21,2021-05-14 16:20:24,Prospect Park SW & Greenwood Ave,3385,Halsey St & Evergreen Ave,4474,40.652563,-73.972573,40.68858,-73.91227,casual
1336831,65A67549350C9F40,docked_bike,2021-05-14 12:57:52,2021-05-14 13:13:34,S 4 St & Rodney St,5156,Halsey St & Evergreen Ave,4474,40.70934,-73.95608,40.68858,-73.91227,member
1354733,831A2139EBCC6F8F,docked_bike,2021-05-23 21:58:10,2021-05-23 22:08:12,Pulaski St & Marcus Garvey Blvd,4656,Halsey St & Evergreen Ave,4474,40.693398,-73.939877,40.68858,-73.91227,casual
1433276,48D93C7BE1BB9DAC,docked_bike,2021-05-27 12:55:25,2021-05-27 13:01:15,Halsey St & Evergreen Ave,4474,Knickerbocker Ave & Hancock St,4663,40.68858,-73.91227,40.69385,-73.90974,casual
1433277,105F996A662195E9,docked_bike,2021-05-17 06:37:23,2021-05-17 06:49:06,Halsey St & Evergreen Ave,4474,Beaver St & Fayette St,4840,40.68858,-73.91227,40.70099,-73.93921,member
1433278,F8616E33C5824DE2,docked_bike,2021-05-26 06:07:24,2021-05-26 06:17:40,Halsey St & Evergreen Ave,4474,Beaver St & Fayette St,4840,40.68858,-73.91227,40.70099,-73.93921,member
1433337,998D51EC7D1BD280,docked_bike,2021-05-27 12:55:45,2021-05-27 13:01:21,Halsey St & Evergreen Ave,4474,Knickerbocker Ave & Hancock St,4663,40.68858,-73.91227,40.69385,-73.90974,casual
1433341,E05BFEAAB89C9B02,docked_bike,2021-05-23 15:05:03,2021-05-23 15:45:49,Halsey St & Evergreen Ave,4474,Bergen St & Flatbush Ave,4281,40.68858,-73.91227,40.680944723477296,-73.97567331790923,casual
1433348,A7B791D6C45086F5,docked_bike,2021-05-22 17:46:22,2021-05-22 17:58:23,Halsey St & Evergreen Ave,4474,Beaver St & Fayette St,4840,40.68858,-73.91227,40.70099,-73.93921,casual
1433384,EAD11C742D1F76F2,docked_bike,2021-05-22 07:14:13,2021-05-22 07:25:06,Halsey St & Evergreen Ave,4474,Beaver St & Fayette St,4840,40.68858,-73.91227,40.70099,-73.93921,member
1433409,BF4CD976C231C864,docked_bike,2021-05-23 11:28:46,2021-05-23 11:33:18,Halsey St & Evergreen Ave,4474,Knickerbocker Ave & Hancock St,4663,40.68858,-73.91227,40.69385,-73.90974,member
1433412,9883754DA296E820,docked_bike,2021-05-22 14:46:43,2021-05-22 14:56:43,Halsey St & Evergreen Ave,4474,Beaver St & Fayette St,4840,40.68858,-73.91227,40.70099,-73.93921,casual
1433470,BA460645D3167ACF,docked_bike,2021-05-12 05:26:51,2021-05-12 05:37:20,Halsey St & Evergreen Ave,4474,Beaver St & Fayette St,4840,40.68858,-73.91227,40.70099,-73.93921,casual
1439672,C482E61349EBB820,docked_bike,2021-05-15 12:54:25,2021-05-15 13:05:58,Halsey St & Evergreen Ave,4474,Willoughby Ave & Tompkins Ave,4665,40.68858,-73.91227,40.69425403,-73.94626915,casual
1440643,D53A030A43B48477,docked_bike,2021-05-11 08:35:29,2021-05-11 08:46:57,Halsey St & Evergreen Ave,4474,Willoughby Ave & Tompkins Ave,4665,40.68858,-73.91227,40.69425403,-73.94626915,member
1440681,A61B2D8ACEDB6AF3,docked_bike,2021-05-13 07:24:33,2021-05-13 07:41:12,Halsey St & Evergreen Ave,4474,Willoughby Ave & Tompkins Ave,4665,40.68858,-73.91227,40.69425403,-73.94626915,casual
1440685,5AEDE0A15D71854C,docked_bike,2021-05-17 20:39:49,2021-05-17 20:48:21,Halsey St & Evergreen Ave,4474,Bushwick Ave & Dekalb Ave,4680,40.68858,-73.91227,40.69502,-73.92825,member
1457947,4D041EF3320EC18B,docked_bike,2021-05-03 19:15:57,2021-05-03 19:22:46,Halsey St & Evergreen Ave,4474,Suydam St & Broadway,4689,40.68858,-73.91227,40.69544,-73.93223,member
1457960,7EC92B748BDFC754,docked_bike,2021-05-21 16:35:25,2021-05-21 16:42:47,Halsey St & Evergreen Ave,4474,Suydam St & Broadway,4689,40.68858,-73.91227,40.69544,-73.93223,member
1457961,7198619233F43CDB,docked_bike,2021-05-12 18:12:04,2021-05-12 18:19:59,Halsey St & Evergreen Ave,4474,Suydam St & Broadway,4689,40.68858,-73.91227,40.69544,-73.93223,member
1457963,4817C0D8AAF30991,docked_bike,2021-05-13 18:11:46,2021-05-13 18:20:45,Halsey St & Evergreen Ave,4474,Suydam St & Broadway,4689,40.68858,-73.91227,40.69544,-73.93223,member
1457964,FFE72A60C5E27500,docked_bike,2021-05-25 18:15:47,2021-05-25 18:22:43,Halsey St & Evergreen Ave,4474,Suydam St & Broadway,4689,40.68858,-73.91227,40.69544,-73.93223,member
1457965,62AF9E976609A9E2,docked_bike,2021-05-29 12:33:20,2021-05-29 12:40:41,Halsey St & Evergreen Ave,4474,Suydam St & Broadway,4689,40.68858,-73.91227,40.69544,-73.93223,member
1489109,6B08AC8EACE505F0,docked_bike,2021-05-27 20:45:09,2021-05-27 21:06:14,Halsey St & Evergreen Ave,4474,Milton St & Franklin St,5752,40.68858,-73.91227,40.72906,-73.95779,member
1489351,ECC3B47F965CD443,docked_bike,2021-05-02 13:47:06,2021-05-02 13:56:46,Halsey St & Evergreen Ave,4474,Harrison Pl & Porter Ave,5090,40.68858,-73.91227,40.70686,-73.92851,casual
1511530,82C9BDF4E21998B0,docked_bike,2021-05-14 12:15:20,2021-05-14 12:54:12,Halsey St & Evergreen Ave,4474,W 55 St & 6 Ave,6809,40.68858,-73.91227,40.763189,-73.978434,casual
1511552,A182306B0C8856F8,docked_bike,2021-05-09 12:49:59,2021-05-09 12:53:48,Halsey St & Evergreen Ave,4474,Wilson Ave & Moffat St,4507,40.68858,-73.91227,40.68906,-73.90506,member
1511569,EF3C69C0C81CA664,docked_bike,2021-05-13 15:31:15,2021-05-13 15:35:21,Halsey St & Evergreen Ave,4474,Wilson Ave & Moffat St,4507,40.68858,-73.91227,40.68906,-73.90506,member
1511583,0EE3519FEB24E7BE,docked_bike,2021-05-14 22:44:30,2021-05-14 22:47:19,Halsey St & Evergreen Ave,4474,Moffat St & Bushwick,4357,40.68858,-73.91227,40.68458,-73.90925,member
1511603,217638AE70C79A6A,docked_bike,2021-05-25 01:03:27,2021-05-25 01:10:41,Halsey St & Evergreen Ave,4474,Wilson Ave & Moffat St,4507,40.68858,-73.91227,40.68906,-73.90506,member
1511689,DDC9FFA6531B3649,docked_bike,2021-05-12 18:41:39,2021-05-12 18:59:32,Halsey St & Evergreen Ave,4474,Stanhope St & Fairview Ave,5146,40.68858,-73.91227,40.70998,-73.91116,casual
1520037,FEBF31E84AEBA2B4,docked_bike,2021-05-01 17:58:11,2021-05-01 18:42:13,Halsey St & Evergreen Ave,4474,46 St & 28 Ave,6842,40.68858,-73.91227,40.763328,-73.908782,member
1520046,23BD3B43A813C88E,docked_bike,2021-05-28 17:11:16,2021-05-28 17:18:35,Halsey St & Evergreen Ave,4474,Putnam Ave & Knickerbocker Ave,4663,40.68858,-73.91227,40.69545,-73.91164,casual
1520358,98BA1F6B85A73278,docked_bike,2021-05-21 18:14:46,2021-05-21 18:20:17,Halsey St & Evergreen Ave,4474,Putnam Ave & Knickerbocker Ave,4663,40.68858,-73.91227,40.69545,-73.91164,casual
1520367,AD1C017E97A92DE9,docked_bike,2021-05-11 16:05:08,2021-05-11 16:39:55,Halsey St & Evergreen Ave,4474,Putnam Ave & Knickerbocker Ave,4663,40.68858,-73.91227,40.69545,-73.91164,casual
1533530,9D924ABB448DC309,docked_bike,2021-05-19 16:44:06,2021-05-19 17:13:09,Halsey St & Evergreen Ave,4474,Plaza St West & Flatbush Ave,4010,40.68858,-73.91227,40.6750207,-73.97111473,casual
1533557,5F9C5A91A72BB605,docked_bike,2021-05-27 23:07:42,2021-05-27 23:15:08,Halsey St & Evergreen Ave,4474,Norman St & Wyckoff Ave,4654,40.68858,-73.91227,40.69517,-73.90311,member
1533559,0CE79EF20E08C79D,docked_bike,2021-05-07 16:48:04,2021-05-07 17:25:12,Halsey St & Evergreen Ave,4474,Plaza St West & Flatbush Ave,4010,40.68858,-73.91227,40.6750207,-73.97111473,casual
1533574,A2B3CF03838E37C6,docked_bike,2021-05-23 10:20:16,2021-05-23 10:26:27,Halsey St & Evergreen Ave,4474,Norman St & Wyckoff Ave,4654,40.68858,-73.91227,40.69517,-73.90311,member
1550630,694DB6E1ADECE67D,docked_bike,2021-05-01 14:30:21,2021-05-01 14:48:56,Halsey St & Evergreen Ave,4474,Montrose Ave & Bushwick Ave,5068,40.68858,-73.91227,40.70767788,-73.94016171,casual
1569882,765F220373EFFA5E,docked_bike,2021-05-22 14:07:06,2021-05-22 14:16:52,Halsey St & Evergreen Ave,4474,Madison St & Cypress Ave,4807,40.68858,-73.91227,40.70068,-73.90742,member
1585575,8E26EAD91DB6AB90,docked_bike,2021-05-11 12:31:33,2021-05-11 12:53:07,Halsey St & Evergreen Ave,4474,Washington Ave & Greene Ave,4419,40.68858,-73.91227,40.68650065,-73.96563307,casual
1595234,E266BC6B6FFCE86E,docked_bike,2021-05-07 11:30:13,2021-05-07 12:04:01,Halsey St & Evergreen Ave,4474,Albany St & Greenwich St,5145,40.68858,-73.91227,40.709267,-74.013247,casual
1595256,89D714A3ED88C91D,docked_bike,2021-05-12 20:32:09,2021-05-12 20:43:16,Halsey St & Evergreen Ave,4474,Myrtle Ave & Grove St,4816,40.68858,-73.91227,40.69905,-73.91516,casual
1595301,9B484EFDC9208CE8,docked_bike,2021-05-23 12:16:20,2021-05-23 12:29:48,Halsey St & Evergreen Ave,4474,Putnam Ave & Nostrand Ave,4327,40.68858,-73.91227,40.68402,-73.94977,casual
1595310,7F07B9BFB269012A,docked_bike,2021-05-15 14:40:23,2021-05-15 15:12:29,Halsey St & Evergreen Ave,4474,Driggs Ave & Lorimer St,5481,40.68858,-73.91227,40.72179134,-73.9504154,member
1595313,4627E44A5CA9780E,docked_bike,2021-05-11 19:42:10,2021-05-11 19:55:51,Halsey St & Evergreen Ave,4474,Putnam Ave & Nostrand Ave,4327,40.68858,-73.91227,40.68402,-73.94977,member
1599369,5E18800AF941D451,docked_bike,2021-05-10 12:14:52,2021-05-10 12:20:45,Halsey St & Evergreen Ave,4474,Cedar St & Evergreen Ave,4721,40.68858,-73.91227,40.69671,-73.92807,member
1599394,CF2AC9AA2AA3B3B0,docked_bike,2021-05-06 14:16:51,2021-05-06 14:25:17,Halsey St & Evergreen Ave,4474,Irving Ave & DeKalb Ave,4898,40.68858,-73.91227,40.7027,-73.92095,casual
1599430,C539F403054D9351,docked_bike,2021-05-02 15:03:45,2021-05-02 15:24:53,Halsey St & Evergreen Ave,4474,DeKalb Ave & Hudson Ave,4513,40.68858,-73.91227,40.689888,-73.981013,member
1599454,26C638E5E5241372,docked_bike,2021-05-11 17:14:16,2021-05-11 17:22:15,Halsey St & Evergreen Ave,4474,Irving Ave & DeKalb Ave,4898,40.68858,-73.91227,40.7027,-73.92095,member
1599477,49638E9C88173614,docked_bike,2021-05-31 10:01:26,2021-05-31 10:18:37,Halsey St & Evergreen Ave,4474,DeKalb Ave & Hudson Ave,4513,40.68858,-73.91227,40.689888,-73.981013,member
1599486,FAADD27343290B7F,docked_bike,2021-05-17 12:31:54,2021-05-17 12:54:32,Halsey St & Evergreen Ave,4474,Irving Ave & DeKalb Ave,4898,40.68858,-73.91227,40.7027,-73.92095,casual
1601499,528F0B6E9C8312EF,docked_bike,2021-05-12 12:28:56,2021-05-12 12:39:07,Halsey St & Evergreen Ave,4474,Irving Ave & Harman St,4856,40.68858,-73.91227,40.70108,-73.9179,casual
1603724,7B82FC6CF99C6FBD,docked_bike,2021-05-12 08:59:37,2021-05-12 09:09:21,Halsey St & Evergreen Ave,4474,Irving Ave & Harman St,4856,40.68858,-73.91227,40.70108,-73.9179,member
1613218,ABF6F210735E13CA,docked_bike,2021-05-01 14:43:42,2021-05-01 15:09:11,Halsey St & Evergreen Ave,4474,St Johns Pl & Washington Ave,4001,40.68858,-73.91227,40.6737236,-73.9631611,member
1613253,E405931AE11431B8,docked_bike,2021-05-21 09:29:06,2021-05-21 09:49:09,Halsey St & Evergreen Ave,4474,St Johns Pl & Washington Ave,4001,40.68858,-73.91227,40.6737236,-73.9631611,casual
1629294,4DB9BA2A5BF1E377,docked_bike,2021-05-14 12:26:16,2021-05-14 12:59:57,Halsey St & Evergreen Ave,4474,Meserole Ave & Manhattan Ave,5666,40.68858,-73.91227,40.72708584,-73.95299117,member
1629297,17BB346177F26140,docked_bike,2021-05-13 14:30:07,2021-05-13 15:07:00,Halsey St & Evergreen Ave,4474,Eastern Pkwy & Washington Ave,3928,40.68858,-73.91227,40.6716493,-73.9631145,casual
1629298,DD7B6CBF6A415CDD,docked_bike,2021-05-17 21:02:09,2021-05-17 21:13:52,Halsey St & Evergreen Ave,4474,Central Ave & Starr Street,4792,40.68858,-73.91227,40.700003,-73.92834,member
1629303,F54A48A9418314C3,docked_bike,2021-05-31 18:53:23,2021-05-31 19:25:33,Halsey St & Evergreen Ave,4474,Meserole Ave & Manhattan Ave,5666,40.68858,-73.91227,40.72708584,-73.95299117,casual
1629413,9928697D59570BCA,docked_bike,2021-05-25 16:52:33,2021-05-25 17:19:15,Halsey St & Evergreen Ave,4474,Meserole Ave & Manhattan Ave,5666,40.68858,-73.91227,40.72708584,-73.95299117,casual
1639672,152E86186C75E0EA,docked_bike,2021-05-02 01:54:04,2021-05-02 02:14:00,Halsey St & Evergreen Ave,4474,Tompkins Ave & Hopkins St,4850,40.68858,-73.91227,40.69957608,-73.94708417,member
1640527,C87FBB19CE5A6799,docked_bike,2021-05-02 01:53:44,2021-05-02 02:14:06,Halsey St & Evergreen Ave,4474,Tompkins Ave & Hopkins St,4850,40.68858,-73.91227,40.69957608,-73.94708417,member
1648289,8BABBD32E69F635D,docked_bike,2021-05-16 12:05:24,2021-05-16 12:26:24,Halsey St & Evergreen Ave,4474,Graham Ave & Grand St,5178,40.68858,-73.91227,40.711863,-73.944024,casual
1648328,D63D22F88D13C713,docked_bike,2021-05-09 13:15:25,2021-05-09 13:30:18,Halsey St & Evergreen Ave,4474,Hancock St & Bedford Ave,4255,40.68858,-73.91227,40.68216564,-73.95399026,casual
1648352,01838B995CAE263C,docked_bike,2021-05-15 00:18:46,2021-05-15 00:30:17,Halsey St & Evergreen Ave,4474,Hancock St & Bedford Ave,4255,40.68858,-73.91227,40.68216564,-73.95399026,casual
1661385,FD53FE642398B132,docked_bike,2021-05-24 18:52:52,2021-05-24 19:13:19,Halsey St & Evergreen Ave,4474,Manhattan Av & Leonard St,5442,40.68858,-73.91227,40.72084,-73.94844,member
1661462,EA090EBEBF10B557,docked_bike,2021-05-01 10:37:58,2021-05-01 11:00:06,Halsey St & Evergreen Ave,4474,Manhattan Av & Leonard St,5442,40.68858,-73.91227,40.72084,-73.94844,casual
1665920,623B24F5A23D3F68,docked_bike,2021-05-23 11:46:19,2021-05-23 11:53:44,Halsey St & Evergreen Ave,4474,Forest Ave & Summerfield St,4798,40.68858,-73.91227,40.69922,-73.89795,casual
1665976,1BBAC5AF57DE8FDA,docked_bike,2021-05-23 11:46:39,2021-05-23 11:54:30,Halsey St & Evergreen Ave,4474,Forest Ave & Summerfield St,4798,40.68858,-73.91227,40.69922,-73.89795,member
1674159,EE2C7CDE6951F9A0,docked_bike,2021-05-15 12:34:55,2021-05-15 13:25:22,Halsey St & Evergreen Ave,4474,Mercer St & Spring St,5532,40.68858,-73.91227,40.72362738,-73.99949601,casual
1674167,8759740A31931091,docked_bike,2021-05-25 18:16:37,2021-05-25 18:44:33,Halsey St & Evergreen Ave,4474,Wythe Ave & Metropolitan Ave,5348,40.68858,-73.91227,40.716887,-73.963198,casual
1699713,CA7204FCF89FE412,docked_bike,2021-05-11 14:31:35,2021-05-11 14:58:39,Halsey St & Evergreen Ave,4474,Driggs Ave & N Henry St,5542,40.68858,-73.91227,40.72325,-73.94308,member
1718717,B04ADAF6294AD14C,docked_bike,2021-05-22 17:18:39,2021-05-22 17:40:22,Halsey St & Evergreen Ave,4474,Flushing Ave & Vanderbilt Ave,4762,40.68858,-73.91227,40.69795031569544,-73.97077560424805,casual
1728240,187663809299E5F5,docked_bike,2021-05-25 18:19:33,2021-05-25 18:31:39,Halsey St & Evergreen Ave,4474,Wyckoff Av & Stanhope St,4931,40.68858,-73.91227,40.703545,-73.917775,casual
1728248,BEE0F726CE58DDD6,docked_bike,2021-05-07 10:47:27,2021-05-07 10:55:15,Halsey St & Evergreen Ave,4474,Wyckoff Av & Stanhope St,4931,40.68858,-73.91227,40.703545,-73.917775,casual
1728282,7A9F1B854E4E1E5D,docked_bike,2021-05-12 17:31:50,2021-05-12 17:44:52,Halsey St & Evergreen Ave,4474,Wyckoff Av & Stanhope St,4931,40.68858,-73.91227,40.703545,-73.917775,member
1728283,5FC0266A7EB21BDE,docked_bike,2021-05-14 08:26:23,2021-05-14 08:37:12,Halsey St & Evergreen Ave,4474,Wyckoff Av & Stanhope St,4931,40.68858,-73.91227,40.703545,-73.917775,casual
1738375,1368B1EE82950304,docked_bike,2021-05-10 08:24:53,2021-05-10 08:35:34,Halsey St & Evergreen Ave,4474,Willoughby Ave & Wyckoff Ave,5010,40.68858,-73.91227,40.705614,-73.92153,member
1738392,577DC779D0B7F274,docked_bike,2021-05-23 14:19:21,2021-05-23 14:38:21,Halsey St & Evergreen Ave,4474,Stagg St & Morgan Ave,5170,40.68858,-73.91227,40.710681,-73.93372,member
1769592,C1C1AB459E97FF7C,docked_bike,2021-05-20 09:50:31,2021-05-20 09:59:51,Halsey St & Evergreen Ave,4474,White St & Moore St,4987,40.68858,-73.91227,40.704508,-73.9351,member
1769659,0C11558396214DE5,docked_bike,2021-05-18 18:07:28,2021-05-18 18:20:53,Halsey St & Evergreen Ave,4474,White St & Moore St,4987,40.68858,-73.91227,40.704508,-73.9351,casual
1769709,58381EF6DA5070D2,docked_bike,2021-05-18 21:04:11,2021-05-18 21:20:53,Halsey St & Evergreen Ave,4474,White St & Moore St,4987,40.68858,-73.91227,40.704508,-73.9351,member
1769713,BCF8319E92A4F033,docked_bike,2021-05-01 15:25:07,2021-05-01 15:36:59,Halsey St & Evergreen Ave,4474,White St & Moore St,4987,40.68858,-73.91227,40.704508,-73.9351,member
1780850,69FD69BDEB341139,docked_bike,2021-05-20 11:17:45,2021-05-20 11:30:10,Halsey St & Evergreen Ave,4474,Bushwick Ave & McKibbin St,5027,40.68858,-73.91227,40.705517,-73.93936,casual
1808110,96D3495EE5E05E4E,docked_bike,2021-05-11 07:59:43,2021-05-11 08:04:50,Halsey St & Evergreen Ave,4474,Irving Ave & Halsey St,4695,40.68858,-73.91227,40.69467,-73.90663,member
1808117,6CDEE676C5573E16,docked_bike,2021-05-26 14:32:14,2021-05-26 14:35:05,Halsey St & Evergreen Ave,4474,Irving Ave & Halsey St,4695,40.68858,-73.91227,40.69467,-73.90663,member
1808118,D08E22A1CA8BE3A1,docked_bike,2021-05-23 13:33:11,2021-05-23 13:36:51,Halsey St & Evergreen Ave,4474,Irving Ave & Halsey St,4695,40.68858,-73.91227,40.69467,-73.90663,member
1808137,D28F67ED97577E97,docked_bike,2021-05-18 07:01:54,2021-05-18 07:05:36,Halsey St & Evergreen Ave,4474,Irving Ave & Halsey St,4695,40.68858,-73.91227,40.69467,-73.90663,casual
1808142,C1D1E6760E7F102D,docked_bike,2021-05-22 09:43:00,2021-05-22 09:45:51,Halsey St & Evergreen Ave,4474,Irving Ave & Halsey St,4695,40.68858,-73.91227,40.69467,-73.90663,casual
1808147,F283E6AA1A50A993,docked_bike,2021-05-20 18:13:38,2021-05-20 18:18:46,Halsey St & Evergreen Ave,4474,Irving Ave & Halsey St,4695,40.68858,-73.91227,40.69467,-73.90663,casual
1808153,6A68D74BEBF5D426,docked_bike,2021-05-02 07:17:19,2021-05-02 07:20:18,Halsey St & Evergreen Ave,4474,Irving Ave & Halsey St,4695,40.68858,-73.91227,40.69467,-73.90663,member
1808154,BA2E882EF36FDA8C,docked_bike,2021-05-08 10:01:45,2021-05-08 10:05:25,Halsey St & Evergreen Ave,4474,Irving Ave & Halsey St,4695,40.68858,-73.91227,40.69467,-73.90663,member
1808159,99AAAAEBF8A40CF3,docked_bike,2021-05-04 17:31:46,2021-05-04 17:35:29,Halsey St & Evergreen Ave,4474,Irving Ave & Halsey St,4695,40.68858,-73.91227,40.69467,-73.90663,member
1808184,75503A7C562C99A9,docked_bike,2021-05-22 13:53:34,2021-05-22 13:57:35,Halsey St & Evergreen Ave,4474,Irving Ave & Halsey St,4695,40.68858,-73.91227,40.69467,-73.90663,member
1808192,5185DA73E67D918D,docked_bike,2021-05-20 05:55:19,2021-05-20 06:00:21,Halsey St & Evergreen Ave,4474,Irving Ave & Halsey St,4695,40.68858,-73.91227,40.69467,-73.90663,casual
1808200,FA6022BD89B3F751,docked_bike,2021-05-07 00:29:00,2021-05-07 00:32:11,Halsey St & Evergreen Ave,4474,Irving Ave & Halsey St,4695,40.68858,-73.91227,40.69467,-73.90663,member
1812850,C42E22AF4D44876C,docked_bike,2021-05-14 13:29:45,2021-05-14 13:45:24,Halsey St & Evergreen Ave,4474,Devoe St & Morgan Ave,5282,40.68858,-73.91227,40.713811,-73.93515,casual
1820173,3C8BDB4329830918,docked_bike,2021-05-17 19:13:42,2021-05-17 21:04:53,Halsey St & Evergreen Ave,4474,Sullivan Pl & Franklin Ave,3704,40.68858,-73.91227,40.66407983678161,-73.96025128666679,casual
1821746,53163A07D1AEFEB9,docked_bike,2021-05-07 15:50:37,2021-05-07 16:00:45,Halsey St & Evergreen Ave,4474,Suydam St & Knickerbocker Ave,4939,40.68858,-73.91227,40.702013,-73.923769,casual
1821752,B72879C253A7872B,docked_bike,2021-05-12 18:42:58,2021-05-12 19:05:07,Halsey St & Evergreen Ave,4474,Sullivan Pl & Franklin Ave,3704,40.68858,-73.91227,40.66407983678161,-73.96025128666679,casual
1821755,01D1FC870410659D,docked_bike,2021-05-23 16:56:01,2021-05-23 17:08:52,Halsey St & Evergreen Ave,4474,Suydam St & Knickerbocker Ave,4939,40.68858,-73.91227,40.702013,-73.923769,member
1821770,84A240B07ACA8572,docked_bike,2021-05-08 21:44:47,2021-05-08 21:54:38,Halsey St & Evergreen Ave,4474,Suydam St & Knickerbocker Ave,4939,40.68858,-73.91227,40.702013,-73.923769,casual
1833650,4D2842FA90807DAD,docked_bike,2021-05-15 15:39:13,2021-05-15 16:31:39,Halsey St & Evergreen Ave,4474,Mott St & Prince St,5561,40.68858,-73.91227,40.72317958,-73.99480012,casual
1833774,6D1AA3E30701FACC,docked_bike,2021-05-07 13:05:36,2021-05-07 13:19:55,Halsey St & Evergreen Ave,4474,Central Ave & Flushing Ave,4947,40.68858,-73.91227,40.702831,-73.9333,casual
1843390,52081C60967B2AC7,docked_bike,2021-05-03 07:28:00,2021-05-03 08:04:27,Halsey St & Evergreen Ave,4474,W 30 St & 10 Ave,6459,40.68858,-73.91227,40.752694,-74.002353,member
1850194,11DF51507520FE7E,docked_bike,2021-05-14 09:22:21,2021-05-14 09:57:37,Halsey St & Evergreen Ave,4474,Sterling St & Bedford Ave,3665,40.68858,-73.91227,40.6627059,-73.9569115,member
1850195,A3C15A2E3ECFE1CF,docked_bike,2021-05-11 09:34:02,2021-05-11 10:07:13,Halsey St & Evergreen Ave,4474,Sterling St & Bedford Ave,3665,40.68858,-73.91227,40.6627059,-73.9569115,member
1850214,2B68070F9E5A754B,docked_bike,2021-05-22 09:17:30,2021-05-22 09:30:20,Halsey St & Evergreen Ave,4474,Madison St & Woodward Ave,4954,40.68858,-73.91227,40.70408,-73.90408,member
1850350,7FEC7355888B8399,docked_bike,2021-05-27 16:24:19,2021-05-27 16:32:06,Halsey St & Evergreen Ave,4474,Cypress Ave & George St,4765,40.68858,-73.91227,40.69812,-73.90271,casual
1867208,1348649AE6EFFE91,docked_bike,2021-05-21 09:56:08,2021-05-21 10:09:32,Halsey St & Evergreen Ave,4474,Leonard St & Boerum St,5036,40.68858,-73.91227,40.70583339,-73.94644578,casual
1867216,972BAB8532ACDF30,docked_bike,2021-05-11 16:54:06,2021-05-11 17:14:10,Halsey St & Evergreen Ave,4474,Leonard St & Boerum St,5036,40.68858,-73.91227,40.70583339,-73.94644578,member
1875475,FA10611013740348,docked_bike,2021-05-14 12:30:23,2021-05-14 15:43:01,Halsey St & Evergreen Ave,4474,Central Park West & W 68 St,7079,40.68858,-73.91227,40.7734066,-73.97782542,member
1875493,F21CBCFE889C564E,docked_bike,2021-05-16 08:22:40,2021-05-16 09:20:16,Halsey St & Evergreen Ave,4474,Central Park West & W 68 St,7079,40.68858,-73.91227,40.7734066,-73.97782542,member
1875686,EC1E88D39D197034,docked_bike,2021-05-14 12:31:29,2021-05-14 15:42:48,Halsey St & Evergreen Ave,4474,Central Park West & W 68 St,7079,40.68858,-73.91227,40.7734066,-73.97782542,casual
1879633,F64D70C39B23B0A8,docked_bike,2021-05-18 15:17:06,2021-05-18 15:36:49,Beaver St & Fayette St,4840,Halsey St & Evergreen Ave,4474,40.70099,-73.93921,40.68858,-73.91227,casual
1879906,E05C0DFCA09B8282,docked_bike,2021-05-25 22:35:33,2021-05-25 22:46:38,Knickerbocker Ave & George St,4979,Halsey St & Evergreen Ave,4474,40.704425,-73.92836,40.68858,-73.91227,casual
1880254,01466B634382DDFA,docked_bike,2021-05-17 20:37:56,2021-05-17 20:42:35,Irving Ave & Halsey St,4695,Halsey St & Evergreen Ave,4474,40.69467,-73.90663,40.68858,-73.91227,member
1880255,EBDD755D558C6392,docked_bike,2021-05-15 18:48:21,2021-05-15 18:53:18,Irving Ave & Halsey St,4695,Halsey St & Evergreen Ave,4474,40.69467,-73.90663,40.68858,-73.91227,member
1880273,34431A3AFE4FFD6F,docked_bike,2021-05-28 01:07:35,2021-05-28 01:10:26,Irving Ave & Halsey St,4695,Halsey St & Evergreen Ave,4474,40.69467,-73.90663,40.68858,-73.91227,member
1880285,08FAED046FD75143,docked_bike,2021-05-23 21:25:25,2021-05-23 21:29:36,Irving Ave & Halsey St,4695,Halsey St & Evergreen Ave,4474,40.69467,-73.90663,40.68858,-73.91227,member
1880301,AD4CCF1870272377,docked_bike,2021-05-21 00:56:27,2021-05-21 00:59:30,Irving Ave & Halsey St,4695,Halsey St & Evergreen Ave,4474,40.69467,-73.90663,40.68858,-73.91227,member
1880310,E7F001A1FB08205C,docked_bike,2021-05-21 20:28:43,2021-05-21 20:32:30,Irving Ave & Halsey St,4695,Halsey St & Evergreen Ave,4474,40.69467,-73.90663,40.68858,-73.91227,casual
1880327,CC233765E4A23974,docked_bike,2021-05-13 00:27:20,2021-05-13 00:31:15,Irving Ave & Halsey St,4695,Halsey St & Evergreen Ave,4474,40.69467,-73.90663,40.68858,-73.91227,member
1880328,642720FDA1F25679,docked_bike,2021-05-12 00:40:43,2021-05-12 00:43:37,Irving Ave & Halsey St,4695,Halsey St & Evergreen Ave,4474,40.69467,-73.90663,40.68858,-73.91227,member
1880329,44A0842AE083A640,docked_bike,2021-05-18 01:10:25,2021-05-18 01:13:41,Irving Ave & Halsey St,4695,Halsey St & Evergreen Ave,4474,40.69467,-73.90663,40.68858,-73.91227,member
1880330,5AEA73597FD901AD,docked_bike,2021-05-15 02:02:36,2021-05-15 02:07:14,Irving Ave & Halsey St,4695,Halsey St & Evergreen Ave,4474,40.69467,-73.90663,40.68858,-73.91227,member
1880335,8D82EE09BD501B1D,docked_bike,2021-05-26 20:00:58,2021-05-26 20:05:13,Irving Ave & Halsey St,4695,Halsey St & Evergreen Ave,4474,40.69467,-73.90663,40.68858,-73.91227,casual
1880394,DD034EC1B3A012C1,docked_bike,2021-05-31 01:22:43,2021-05-31 01:25:40,Irving Ave & Halsey St,4695,Halsey St & Evergreen Ave,4474,40.69467,-73.90663,40.68858,-73.91227,member
1880397,6F357C0C13C0589C,docked_bike,2021-05-24 00:27:34,2021-05-24 00:30:16,Irving Ave & Halsey St,4695,Halsey St & Evergreen Ave,4474,40.69467,-73.90663,40.68858,-73.91227,member
1880874,8F65125F601EA0E4,docked_bike,2021-05-22 15:12:18,2021-05-22 15:20:24,Madison St & Cypress Ave,4807,Halsey St & Evergreen Ave,4474,40.70068,-73.90742,40.68858,-73.91227,member
1880876,AB41155F81F2DFE9,docked_bike,2021-05-17 18:13:41,2021-05-17 18:54:57,11 Ave & W 27 St,6425,Halsey St & Evergreen Ave,4474,40.751396,-74.005226,40.68858,-73.91227,member
1881155,BB4512D53595EFD9,docked_bike,2021-05-14 20:25:23,2021-05-14 20:33:23,Central Ave & Melrose St,4832,Halsey St & Evergreen Ave,4474,40.70112,-73.93039,40.68858,-73.91227,casual
1881210,88DA21D06CDD024A,docked_bike,2021-05-13 11:13:46,2021-05-13 11:21:27,Central Ave & Melrose St,4832,Halsey St & Evergreen Ave,4474,40.70112,-73.93039,40.68858,-73.91227,member
1881225,4D0D7FF8E120D6BF,docked_bike,2021-05-06 23:15:48,2021-05-06 23:23:39,Menahan St & Wyckoff Ave,4890,Halsey St & Evergreen Ave,4474,40.70113,-73.91422,40.68858,-73.91227,casual
1881353,C899DFB0D0C5F9E2,docked_bike,2021-05-25 19:15:12,2021-05-25 19:30:10,Madison St & Woodward Ave,4954,Halsey St & Evergreen Ave,4474,40.70408,-73.90408,40.68858,-73.91227,casual
1881398,29893482A3AFBBEE,docked_bike,2021-05-18 09:37:14,2021-05-18 10:06:05,Kent Ave & S 11 St,5062,Halsey St & Evergreen Ave,4474,40.707644,-73.968415,40.68858,-73.91227,casual
1881454,D9113BD9840AB4B4,docked_bike,2021-05-27 15:31:20,2021-05-27 15:35:22,Central Ave & Woodbine St,4632,Halsey St & Evergreen Ave,4474,40.69296,-73.91605,40.68858,-73.91227,member
1881482,06561846AB69A197,docked_bike,2021-05-06 23:33:58,2021-05-07 00:14:30,Woodward Ave & Harman St,5074,Halsey St & Evergreen Ave,4474,40.70793,-73.91092,40.68858,-73.91227,casual
1881555,D9FCD8087FA370D4,docked_bike,2021-05-07 15:01:34,2021-05-07 15:33:08,Cypress Ave & Palmetto St,4921,Halsey St & Evergreen Ave,4474,40.701573,-73.908762,40.68858,-73.91227,member
1881924,5E261E1992BEBB8A,docked_bike,2021-05-05 00:32:57,2021-05-05 00:41:07,Marcus Garvey Blvd & Macon St,4278,Halsey St & Evergreen Ave,4474,40.682601,-73.938037,40.68858,-73.91227,casual
1881991,74AE39B9939D1D98,docked_bike,2021-05-08 21:07:28,2021-05-08 21:19:06,Putnam Ave & Throop Ave,4392,Halsey St & Evergreen Ave,4474,40.685153,-73.94111,40.68858,-73.91227,casual
1882072,543AB95183506FC3,docked_bike,2021-05-10 11:53:42,2021-05-10 12:02:03,Knickerbocker Ave & George St,4979,Halsey St & Evergreen Ave,4474,40.704425,-73.92836,40.68858,-73.91227,casual
1882106,77777CF6FCC7D477,docked_bike,2021-05-25 23:33:41,2021-05-25 23:37:28,Menahan St & Central Ave,4672,Halsey St & Evergreen Ave,4474,40.69543,-73.9196,40.68858,-73.91227,member
1882146,6431352D2FC26ACC,docked_bike,2021-05-23 15:57:13,2021-05-23 16:25:37,Henry St & Atlantic Ave,4531,Halsey St & Evergreen Ave,4474,40.690892,-73.996123,40.68858,-73.91227,member
1882174,C217C960716C33D3,docked_bike,2021-05-10 19:28:11,2021-05-10 19:40:18,Stockholm St & Wilson Ave,4824,Halsey St & Evergreen Ave,4474,40.699304,-73.923044,40.68858,-73.91227,casual
1882211,94CFE79FF951F977,docked_bike,2021-05-23 00:03:53,2021-05-23 00:11:08,Stockholm St & Wilson Ave,4824,Halsey St & Evergreen Ave,4474,40.699304,-73.923044,40.68858,-73.91227,casual
1882233,DB08AC3E7EFC1C53,docked_bike,2021-05-05 16:44:25,2021-05-05 16:50:21,Stockholm St & Wilson Ave,4824,Halsey St & Evergreen Ave,4474,40.699304,-73.923044,40.68858,-73.91227,casual
1882354,CF7BC9451D310E3E,docked_bike,2021-05-22 20:45:02,2021-05-22 20:58:21,Bushwick Ave & Forrest St,4914,Halsey St & Evergreen Ave,4474,40.70076,-73.93641,40.68858,-73.91227,casual
1882436,3B8A82871F44C4F7,docked_bike,2021-05-05 22:14:30,2021-05-05 22:26:54,Stagg St & Union Ave,5117,Halsey St & Evergreen Ave,4474,40.70877,-73.950952,40.68858,-73.91227,member
1882437,A78F1F90CEBC2FB9,docked_bike,2021-05-10 23:27:45,2021-05-10 23:53:27,S 5 Pl & S 5 St,5125,Halsey St & Evergreen Ave,4474,40.710451,-73.960876,40.68858,-73.91227,casual
1882481,71ADA856C469FC7C,docked_bike,2021-05-10 23:28:13,2021-05-10 23:53:30,S 5 Pl & S 5 St,5125,Halsey St & Evergreen Ave,4474,40.710451,-73.960876,40.68858,-73.91227,casual
1882503,074D88CE7B99E673,docked_bike,2021-05-13 11:14:15,2021-05-13 12:36:20,Broadway & Hancock St,4441,Halsey St & Evergreen Ave,4474,40.68663,-73.9168,40.68858,-73.91227,casual
1882507,5926DFDA1B227AE6,docked_bike,2021-05-11 21:23:44,2021-05-11 22:24:57,8 Ave & W 52 St,6816,Halsey St & Evergreen Ave,4474,40.763707,-73.985161,40.68858,-73.91227,casual
1882550,6DC3035C0D81C103,docked_bike,2021-05-01 21:38:48,2021-05-01 22:25:59,8 Ave & W 52 St,6816,Halsey St & Evergreen Ave,4474,40.763707,-73.985161,40.68858,-73.91227,member
1882565,E3F40654DF01F377,docked_bike,2021-05-12 18:19:23,2021-05-12 18:39:59,S 4 St & Wythe Ave,5204,Halsey St & Evergreen Ave,4474,40.712858,-73.965902,40.68858,-73.91227,casual
1882608,4935CD9DF6B2406D,docked_bike,2021-05-06 09:11:44,2021-05-06 09:35:56,S 4 St & Wythe Ave,5204,Halsey St & Evergreen Ave,4474,40.712858,-73.965902,40.68858,-73.91227,casual
1882667,B5092003C6E57B6A,docked_bike,2021-05-11 19:51:51,2021-05-11 20:14:34,S 4 St & Wythe Ave,5204,Halsey St & Evergreen Ave,4474,40.712858,-73.965902,40.68858,-73.91227,casual
1882809,60B8654305DF775F,docked_bike,2021-05-22 09:03:40,2021-05-22 11:29:52,Halsey St & Evergreen Ave,4474,Halsey St & Evergreen Ave,4474,40.68858,-73.91227,40.68858,-73.91227,casual
1882822,3CC1A682B5B18B02,docked_bike,2021-05-19 17:13:25,2021-05-19 17:53:42,Halsey St & Evergreen Ave,4474,Halsey St & Evergreen Ave,4474,40.68858,-73.91227,40.68858,-73.91227,casual
1882863,AE09A8EF3DE22E6D,docked_bike,2021-05-18 20:08:43,2021-05-18 21:01:45,Halsey St & Evergreen Ave,4474,Halsey St & Evergreen Ave,4474,40.68858,-73.91227,40.68858,-73.91227,casual
1882869,17089A8B16C0B545,docked_bike,2021-05-11 21:19:09,2021-05-11 21:37:25,Halsey St & Evergreen Ave,4474,DeKalb Ave & Franklin Ave,4528,40.68858,-73.91227,40.69064807082943,-73.95746178925037,member
1882907,154104C688FF6628,docked_bike,2021-05-05 18:00:23,2021-05-05 18:18:31,Lafayette Ave & Classon Ave,4452,Halsey St & Evergreen Ave,4474,40.689004,-73.960238,40.68858,-73.91227,casual
1882910,6FDFDAE541C6A088,docked_bike,2021-05-15 18:36:43,2021-05-15 19:21:36,Halsey St & Evergreen Ave,4474,Halsey St & Evergreen Ave,4474,40.68858,-73.91227,40.68858,-73.91227,casual
1882913,F715B31F5AAEF5FC,docked_bike,2021-05-13 06:47:22,2021-05-13 07:00:26,Halsey St & Evergreen Ave,4474,Cypress Ave & Palmetto St,4921,40.68858,-73.91227,40.70157340873792,-73.90876293182373,casual
1882943,9B530E6FC6A63D4C,docked_bike,2021-05-03 09:39:10,2021-05-03 09:50:31,Halsey St & Evergreen Ave,4474,Halsey St & Evergreen Ave,4474,40.68858,-73.91227,40.68858,-73.91227,casual
1882958,301CAC3CD370C3C8,docked_bike,2021-05-23 22:24:45,2021-05-23 22:26:00,Halsey St & Evergreen Ave,4474,Halsey St & Evergreen Ave,4474,40.68858,-73.91227,40.68858,-73.91227,casual
1883095,981B4575954B180B,docked_bike,2021-05-05 10:34:58,2021-05-05 10:56:26,Halsey St & Evergreen Ave,4474,Fulton St & Adams St,4637,40.68858,-73.91227,40.69241829257847,-73.98949474096298,casual
1883152,7F0793F446408563,docked_bike,2021-05-15 22:46:41,2021-05-15 23:52:11,Halsey St & Evergreen Ave,4474,Halsey St & Evergreen Ave,4474,40.68858,-73.91227,40.68858,-73.91227,casual
1883195,75368C236FADB8B3,docked_bike,2021-05-31 20:13:23,2021-05-31 20:27:28,Lafayette Ave & Classon Ave,4452,Halsey St & Evergreen Ave,4474,40.689004,-73.960238,40.68858,-73.91227,member
1883202,C896E0C067C17193,docked_bike,2021-05-31 14:32:18,2021-05-31 14:34:18,Halsey St & Evergreen Ave,4474,Halsey St & Evergreen Ave,4474,40.68858,-73.91227,40.68858,-73.91227,member
1883268,72CE5A868ED71CDB,docked_bike,2021-05-16 01:27:37,2021-05-16 01:28:11,Halsey St & Evergreen Ave,4474,Halsey St & Evergreen Ave,4474,40.68858,-73.91227,40.68858,-73.91227,casual
1883271,496AEB96AF319E3A,docked_bike,2021-05-01 11:46:33,2021-05-01 12:17:19,Halsey St & Evergreen Ave,4474,Halsey St & Evergreen Ave,4474,40.68858,-73.91227,40.68858,-73.91227,casual
1883297,9AB7BB406B62E48D,docked_bike,2021-05-15 22:49:49,2021-05-15 23:52:27,Halsey St & Evergreen Ave,4474,Halsey St & Evergreen Ave,4474,40.68858,-73.91227,40.68858,-73.91227,casual
1883320,CB6179D265965BAE,docked_bike,2021-05-20 19:41:25,2021-05-20 20:00:30,Halsey St & Evergreen Ave,4474,Halsey St & Evergreen Ave,4474,40.68858,-73.91227,40.68858,-73.91227,member
1883354,26628451B793D461,docked_bike,2021-05-22 15:59:53,2021-05-22 16:25:03,Halsey St & Evergreen Ave,4474,Halsey St & Evergreen Ave,4474,40.68858,-73.91227,40.68858,-73.91227,casual
1883367,6A0AEED5EE76A7CB,docked_bike,2021-05-01 13:25:59,2021-05-01 13:32:39,Halsey St & Evergreen Ave,4474,Halsey St & Evergreen Ave,4474,40.68858,-73.91227,40.68858,-73.91227,member
1883396,BBE801B31582418D,docked_bike,2021-05-23 01:01:20,2021-05-23 08:20:07,Halsey St & Evergreen Ave,4474,Halsey St & Evergreen Ave,4474,40.68858,-73.91227,40.68858,-73.91227,member
1883464,7A0FF8A5BD5ACEB9,docked_bike,2021-05-08 19:20:23,2021-05-08 19:20:25,Halsey St & Evergreen Ave,4474,Halsey St & Evergreen Ave,4474,40.68858,-73.91227,40.68858,-73.91227,member
1883479,CC607C1E0B32540C,docked_bike,2021-05-09 11:53:51,2021-05-09 12:02:03,Halsey St & Evergreen Ave,4474,Halsey St & Evergreen Ave,4474,40.68858,-73.91227,40.68858,-73.91227,casual
1883515,4EA83C51ADFBF967,docked_bike,2021-05-23 14:29:18,2021-05-23 14:35:23,Halsey St & Evergreen Ave,4474,Halsey St & Evergreen Ave,4474,40.68858,-73.91227,40.68858,-73.91227,casual
1883563,DC56A5E288ABA842,docked_bike,2021-05-07 07:26:18,2021-05-07 07:44:32,Halsey St & Evergreen Ave,4474,DeKalb Ave & Franklin Ave,4528,40.68858,-73.91227,40.69064807082943,-73.95746178925037,member
1883591,360466B0775A3DCA,docked_bike,2021-05-25 21:24:15,2021-05-25 21:34:46,Halsey St & Evergreen Ave,4474,Halsey St & Evergreen Ave,4474,40.68858,-73.91227,40.68858,-73.91227,member
1883680,A7CBFE1D036FAA11,docked_bike,2021-05-16 11:55:43,2021-05-16 12:01:59,Wyckoff Ave & Gates Ave,4847,Halsey St & Evergreen Ave,4474,40.699871,-73.911718,40.68858,-73.91227,member
1883695,CAE89DB1B3AA8DC2,docked_bike,2021-05-13 13:49:00,2021-05-13 14:12:17,Bedford Ave & Bergen St,4066,Halsey St & Evergreen Ave,4474,40.676368,-73.952918,40.68858,-73.91227,member
1883709,6C43EC4B0A7C61DF,docked_bike,2021-05-27 20:12:02,2021-05-27 20:21:50,Halsey St & Tompkins Ave,4319,Halsey St & Evergreen Ave,4474,40.682368,-73.944118,40.68858,-73.91227,casual
1883732,152DCE6466EDEC1E,docked_bike,2021-05-09 01:36:20,2021-05-09 01:48:08,Halsey St & Tompkins Ave,4319,Halsey St & Evergreen Ave,4474,40.682368,-73.944118,40.68858,-73.91227,casual
1883813,E579422130E4FE0F,docked_bike,2021-05-23 18:40:32,2021-05-23 18:52:59,Halsey St & Tompkins Ave,4319,Halsey St & Evergreen Ave,4474,40.682368,-73.944118,40.68858,-73.91227,casual
1883863,88BB3D5E46727AEF,docked_bike,2021-05-23 17:43:32,2021-05-23 17:50:22,Irving Ave & DeKalb Ave,4898,Halsey St & Evergreen Ave,4474,40.7027,-73.92095,40.68858,-73.91227,casual
1883893,1349819BC0911BF7,docked_bike,2021-05-02 10:41:16,2021-05-02 10:49:23,Irving Ave & DeKalb Ave,4898,Halsey St & Evergreen Ave,4474,40.7027,-73.92095,40.68858,-73.91227,casual
1883999,EB4E9EC8FE035A4D,docked_bike,2021-05-07 14:44:13,2021-05-07 15:08:49,Lawrence St & Willoughby St,4596,Halsey St & Evergreen Ave,4474,40.692361,-73.986317,40.68858,-73.91227,casual
1884091,F8149FB504047FAF,docked_bike,2021-05-24 19:44:16,2021-05-24 19:50:01,Menahan St & Central Ave,4672,Halsey St & Evergreen Ave,4474,40.69543,-73.9196,40.68858,-73.91227,member
1884093,DEC0E4B074A4E152,docked_bike,2021-05-10 10:43:49,2021-05-10 10:50:48,Broadway & Madison St,4483,Halsey St & Evergreen Ave,4474,40.68822,-73.91966,40.68858,-73.91227,member
1884129,2B6E5B2B8A369D7B,docked_bike,2021-05-10 19:50:45,2021-05-10 19:55:13,Broadway & Madison St,4483,Halsey St & Evergreen Ave,4474,40.68822,-73.91966,40.68858,-73.91227,member
1884131,D7644D5FEA33402E,docked_bike,2021-05-13 11:56:02,2021-05-13 12:02:14,Broadway & Madison St,4483,Halsey St & Evergreen Ave,4474,40.68822,-73.91966,40.68858,-73.91227,member
1884132,EF9B0BB619419A80,docked_bike,2021-05-07 15:40:20,2021-05-07 15:45:32,Broadway & Madison St,4483,Halsey St & Evergreen Ave,4474,40.68822,-73.91966,40.68858,-73.91227,member
1884270,11E72913CE89323B,docked_bike,2021-05-18 18:27:35,2021-05-18 18:41:36,Bushwick Ave & McKibbin St,5027,Halsey St & Evergreen Ave,4474,40.705517,-73.93936,40.68858,-73.91227,member
1884376,1C2A013B73F08056,docked_bike,2021-05-11 02:34:10,2021-05-11 02:46:08,Bushwick Ave & McKibbin St,5027,Halsey St & Evergreen Ave,4474,40.705517,-73.93936,40.68858,-73.91227,casual
1884396,DFBF8AE566161A98,docked_bike,2021-05-25 02:21:02,2021-05-25 02:32:56,Bushwick Ave & McKibbin St,5027,Halsey St & Evergreen Ave,4474,40.705517,-73.93936,40.68858,-73.91227,casual
1884433,19601079A90FA7C7,docked_bike,2021-05-10 10:42:57,2021-05-10 10:50:12,Forest Ave & Summerfield St,4798,Halsey St & Evergreen Ave,4474,40.69922,-73.89795,40.68858,-73.91227,member
1884466,CCCC63D5F2624982,docked_bike,2021-05-13 20:08:51,2021-05-13 20:15:54,Putnam Ave & Wyckoff Ave,4735,Halsey St & Evergreen Ave,4474,40.69811,-73.90904,40.68858,-73.91227,member
1884542,EF9A79FBB92D098F,docked_bike,2021-05-12 12:08:28,2021-05-12 12:18:56,Evergreen Ave & Noll St,4873,Halsey St & Evergreen Ave,4474,40.70106,-73.93318,40.68858,-73.91227,casual
1884605,67FAA45928EFED78,docked_bike,2021-05-11 21:02:56,2021-05-11 21:21:17,Park Pl & Vanderbilt Ave,4083,Halsey St & Evergreen Ave,4474,40.6767,-73.969024,40.68858,-73.91227,member
1884796,863FE3E428CC0672,docked_bike,2021-05-01 21:30:18,2021-05-01 21:47:01,Hancock St & Bedford Ave,4255,Halsey St & Evergreen Ave,4474,40.682165,-73.95399,40.68858,-73.91227,member
1884798,C46857A82C302681,docked_bike,2021-05-19 22:22:08,2021-05-19 22:38:07,Hancock St & Bedford Ave,4255,Halsey St & Evergreen Ave,4474,40.682165,-73.95399,40.68858,-73.91227,casual
1884877,035DCAD362300F5D,docked_bike,2021-05-08 22:37:47,2021-05-08 22:43:31,Putnam Ave & Wyckoff Ave,4735,Halsey St & Evergreen Ave,4474,40.69811,-73.90904,40.68858,-73.91227,casual
1884885,CA69A727EB343157,docked_bike,2021-05-14 00:08:41,2021-05-14 00:18:42,Putnam Ave & Wyckoff Ave,4735,Halsey St & Evergreen Ave,4474,40.69811,-73.90904,40.68858,-73.91227,casual
1884997,403C067CEAB06D3B,docked_bike,2021-05-03 17:12:26,2021-05-03 17:24:04,Kosciuszko St & Tompkins Ave,4553,Halsey St & Evergreen Ave,4474,40.691282,-73.945241,40.68858,-73.91227,casual
1885091,247320D753195B0E,docked_bike,2021-05-24 20:34:33,2021-05-24 20:47:57,Jefferson St & Cypress Ave,5082,Halsey St & Evergreen Ave,4474,40.70907,-73.92157,40.68858,-73.91227,member
1885100,2E825EB6A21B19FF,docked_bike,2021-05-02 23:39:49,2021-05-02 23:52:23,Jefferson St & Cypress Ave,5082,Halsey St & Evergreen Ave,4474,40.70907,-73.92157,40.68858,-73.91227,casual
1885157,9CBDEE65C333A76E,docked_bike,2021-05-20 08:33:32,2021-05-20 08:50:47,Fulton St & Utica Ave,4228,Halsey St & Evergreen Ave,4474,40.679426,-73.929891,40.68858,-73.91227,casual
1885158,F73B0A1355C4B0C2,docked_bike,2021-05-19 19:42:17,2021-05-19 19:51:05,Fulton St & Utica Ave,4228,Halsey St & Evergreen Ave,4474,40.679426,-73.929891,40.68858,-73.91227,casual
1885188,1421DE4F1703B021,docked_bike,2021-05-11 13:21:48,2021-05-11 13:41:16,Fulton St & Utica Ave,4228,Halsey St & Evergreen Ave,4474,40.679426,-73.929891,40.68858,-73.91227,casual
1885263,70C60847526E8B0A,docked_bike,2021-05-06 19:02:35,2021-05-06 19:14:28,Fulton St & Utica Ave,4228,Halsey St & Evergreen Ave,4474,40.679426,-73.929891,40.68858,-73.91227,member
1885265,814F772A31D415D5,docked_bike,2021-05-21 07:50:38,2021-05-21 08:06:27,Fulton St & Utica Ave,4228,Halsey St & Evergreen Ave,4474,40.679426,-73.929891,40.68858,-73.91227,casual
1885339,851E656CBB8749EC,docked_bike,2021-05-21 22:52:46,2021-05-21 23:01:57,Bushwick Ave & Dekalb Ave,4680,Halsey St & Evergreen Ave,4474,40.69502,-73.92825,40.68858,-73.91227,member
1885343,E6ADD791F983475C,docked_bike,2021-05-24 17:18:31,2021-05-24 17:31:19,Willoughby Ave & Tompkins Ave,4665,Halsey St & Evergreen Ave,4474,40.694254,-73.946269,40.68858,-73.91227,casual
1885361,FD82EB2467C30808,docked_bike,2021-05-17 10:07:53,2021-05-17 10:18:08,Willoughby Ave & Tompkins Ave,4665,Halsey St & Evergreen Ave,4474,40.694254,-73.946269,40.68858,-73.91227,casual
1885404,8D4FC35943309F55,docked_bike,2021-05-15 10:58:56,2021-05-15 11:07:13,Bushwick Ave & Dekalb Ave,4680,Halsey St & Evergreen Ave,4474,40.69502,-73.92825,40.68858,-73.91227,casual
1885435,4206CE034AC6C1FE,docked_bike,2021-05-17 22:31:53,2021-05-17 22:40:45,Bushwick Ave & Dekalb Ave,4680,Halsey St & Evergreen Ave,4474,40.69502,-73.92825,40.68858,-73.91227,member
1885436,B8C9CAC7270006F0,docked_bike,2021-05-12 09:10:00,2021-05-12 09:23:36,Willoughby Ave & Tompkins Ave,4665,Halsey St & Evergreen Ave,4474,40.694254,-73.946269,40.68858,-73.91227,casual
1885438,25DCC125D98FE82D,docked_bike,2021-05-19 21:14:26,2021-05-19 21:26:04,Willoughby Ave & Tompkins Ave,4665,Halsey St & Evergreen Ave,4474,40.694254,-73.946269,40.68858,-73.91227,casual
1885781,08F8910BC1A20C18,docked_bike,2021-05-03 16:52:03,2021-05-03 16:56:14,Putnam Ave & Wyckoff Ave,4735,Halsey St & Evergreen Ave,4474,40.69811,-73.90904,40.68858,-73.91227,member
1885782,33BDA3E348193DD2,docked_bike,2021-05-22 10:58:22,2021-05-22 11:04:19,Putnam Ave & Wyckoff Ave,4735,Halsey St & Evergreen Ave,4474,40.69811,-73.90904,40.68858,-73.91227,member
1885783,856FFB071BAA8F7A,docked_bike,2021-05-31 13:24:19,2021-05-31 13:54:58,Duffield St & Willoughby St,4596,Halsey St & Evergreen Ave,4474,40.692215,-73.984284,40.68858,-73.91227,member
1903524,CB9C88DE31B1DFDB,docked_bike,2021-05-16 01:52:38,2021-05-16 02:00:09,Halsey St & Evergreen Ave,4474,Madison St & Seneca Ave,4880,40.68858,-73.91227,40.70183,-73.90625,casual
1917015,F8124FBAAD521412,docked_bike,2021-05-26 02:59:59,2021-05-26 03:04:15,Halsey St & Evergreen Ave,4474,Central Ave & Himrod St,4713,40.68858,-73.91227,40.69676,-73.92302,member
1917060,BE8B9C72FB0370F5,docked_bike,2021-05-03 17:39:03,2021-05-03 17:50:56,Halsey St & Evergreen Ave,4474,Kosciuszko St & Tompkins Ave,4553,40.68858,-73.91227,40.69128258,-73.9452416,casual
1945746,A5DD0A3C6C380F2B,docked_bike,2021-05-20 21:17:59,2021-05-20 21:47:29,Halsey St & Evergreen Ave,4474,S Portland Ave & Hanson Pl,4354,40.68858,-73.91227,40.68539567,-73.97431458,casual
1952050,3CF2B71F10D96ACC,docked_bike,2021-05-18 16:27:01,2021-05-18 16:55:12,Halsey St & Evergreen Ave,4474,Lawrence St & Willoughby St,4596,40.68858,-73.91227,40.69236178,-73.98631746,casual
1956875,6FE048982A8D0062,docked_bike,2021-05-25 09:46:47,2021-05-25 10:10:54,Halsey St & Evergreen Ave,4474,Montgomery St & Franklin Ave,3776,40.68858,-73.91227,40.666439306870814,-73.9605563879013,member
1956877,499B9B34025B7271,docked_bike,2021-05-10 16:08:59,2021-05-10 16:37:30,Halsey St & Evergreen Ave,4474,Lawrence St & Willoughby St,4596,40.68858,-73.91227,40.69236178,-73.98631746,casual
1956896,67AA177255EA0A77,docked_bike,2021-05-07 13:37:42,2021-05-07 14:01:06,Halsey St & Evergreen Ave,4474,Lawrence St & Willoughby St,4596,40.68858,-73.91227,40.69236178,-73.98631746,casual
1972779,C2F8273212C6D234,docked_bike,2021-05-21 14:04:15,2021-05-21 14:13:35,Halsey St & Evergreen Ave,4474,Knickerbocker Ave & George St,4979,40.68858,-73.91227,40.704425,-73.92836,casual
1973617,424C545F1A514CCF,docked_bike,2021-05-13 18:31:06,2021-05-13 18:45:07,Halsey St & Evergreen Ave,4474,Knickerbocker Ave & George St,4979,40.68858,-73.91227,40.704425,-73.92836,member
1982151,61EF165BAF2812AF,docked_bike,2021-05-23 20:01:40,2021-05-23 21:14:22,Halsey St & Evergreen Ave,4474,Bushwick Ave & Furman Ave,4317,40.68858,-73.91227,40.68281,-73.90623,casual
1982159,63B53791BF536364,docked_bike,2021-05-17 17:45:07,2021-05-17 17:50:58,Halsey St & Evergreen Ave,4474,Grove St & Broadway,4526,40.68858,-73.91227,40.69047,-73.923511,member
1982197,11CD443D5A87DA7A,docked_bike,2021-05-08 13:52:55,2021-05-08 13:57:59,Halsey St & Evergreen Ave,4474,Grove St & Broadway,4526,40.68858,-73.91227,40.69047,-73.923511,casual
1982228,81A3B96F70EE07AC,docked_bike,2021-05-08 13:09:30,2021-05-08 13:15:08,Halsey St & Evergreen Ave,4474,Grove St & Broadway,4526,40.68858,-73.91227,40.69047,-73.923511,member
1982236,0AA5F9C6FE6D2F2B,docked_bike,2021-05-28 07:20:55,2021-05-28 07:26:34,Halsey St & Evergreen Ave,4474,Grove St & Broadway,4526,40.68858,-73.91227,40.69047,-73.923511,member
1982237,599E6B4EF6A382EA,docked_bike,2021-05-19 18:21:22,2021-05-19 18:27:39,Halsey St & Evergreen Ave,4474,Grove St & Broadway,4526,40.68858,-73.91227,40.69047,-73.923511,member
1982238,65A2AC997011960A,docked_bike,2021-05-07 13:41:18,2021-05-07 13:48:35,Halsey St & Evergreen Ave,4474,Grove St & Broadway,4526,40.68858,-73.91227,40.69047,-73.923511,member
1982239,A68DB473AB057EF0,docked_bike,2021-05-09 12:08:26,2021-05-09 12:15:55,Halsey St & Evergreen Ave,4474,Grove St & Broadway,4526,40.68858,-73.91227,40.69047,-73.923511,member
1982240,4009D221F12D0784,docked_bike,2021-05-10 09:31:31,2021-05-10 09:39:16,Halsey St & Evergreen Ave,4474,Grove St & Broadway,4526,40.68858,-73.91227,40.69047,-73.923511,member
1982241,28557D72F9B481B1,docked_bike,2021-05-20 11:09:59,2021-05-20 11:15:43,Halsey St & Evergreen Ave,4474,Grove St & Broadway,4526,40.68858,-73.91227,40.69047,-73.923511,member
1982242,0C21E3D88C13F579,docked_bike,2021-05-13 10:38:56,2021-05-13 10:46:51,Halsey St & Evergreen Ave,4474,Grove St & Broadway,4526,40.68858,-73.91227,40.69047,-73.923511,member
1982243,CA9AD7F0340E4C03,docked_bike,2021-05-27 15:45:30,2021-05-27 15:51:25,Halsey St & Evergreen Ave,4474,Grove St & Broadway,4526,40.68858,-73.91227,40.69047,-73.923511,member
1982253,AFA69133B403993F,docked_bike,2021-05-14 00:52:06,2021-05-14 00:58:17,Halsey St & Evergreen Ave,4474,Grove St & Broadway,4526,40.68858,-73.91227,40.69047,-73.923511,casual
1988615,954E025DA07FF1B3,docked_bike,2021-05-22 12:46:35,2021-05-22 12:51:10,Halsey St & Evergreen Ave,4474,Grove St & Broadway,4526,40.68858,-73.91227,40.69047,-73.923511,casual
2043512,E700AD36993072D4,docked_bike,2021-05-14 22:44:09,2021-05-14 22:46:28,Halsey St & Evergreen Ave,4474,Central Ave & Decatur St,4432,40.68858,-73.91227,40.6882,-73.90798,casual
2053682,698FD79207214D61,docked_bike,2021-05-29 07:25:15,2021-05-29 07:36:58,Halsey St & Evergreen Ave,4474,Jefferson St & Cypress Ave,5082,40.68858,-73.91227,40.70907,-73.92157,member
2053683,A4F1822A51BD5D90,docked_bike,2021-05-08 15:18:20,2021-05-08 15:29:12,Halsey St & Evergreen Ave,4474,Jefferson St & Cypress Ave,5082,40.68858,-73.91227,40.70907,-73.92157,casual
2059128,AB949F4733F7980C,docked_bike,2021-05-02 23:39:17,2021-05-02 23:54:06,Halsey St & Evergreen Ave,4474,Myrtle Ave & Marcy Ave,4707,40.68858,-73.91227,40.69539817,-73.94954908,member
2083729,3710453D317FC207,docked_bike,2021-05-20 13:48:45,2021-05-20 13:54:52,Halsey St & Evergreen Ave,4474,Wyckoff Ave & Gates Ave,4847,40.68858,-73.91227,40.699871408829885,-73.91171872615814,member
2083746,57988B37B613D1BC,docked_bike,2021-05-15 10:36:45,2021-05-15 10:51:45,Halsey St & Evergreen Ave,4474,Wyckoff Ave & Gates Ave,4847,40.68858,-73.91227,40.699871408829885,-73.91171872615814,casual
2084604,5909CC1E9FA7738C,docked_bike,2021-05-24 20:44:40,2021-05-24 20:50:10,Halsey St & Evergreen Ave,4474,Wyckoff Ave & Gates Ave,4847,40.68858,-73.91227,40.699871408829885,-73.91171872615814,casual
2084629,0E7D298A41C2FBF3,docked_bike,2021-05-16 09:55:58,2021-05-16 10:10:51,Halsey St & Evergreen Ave,4474,Wyckoff Ave & Gates Ave,4847,40.68858,-73.91227,40.699871408829885,-73.91171872615814,casual
2084632,75235421001EE30D,docked_bike,2021-05-08 18:34:52,2021-05-08 18:50:58,Halsey St & Evergreen Ave,4474,Wyckoff Ave & Gates Ave,4847,40.68858,-73.91227,40.699871408829885,-73.91171872615814,casual
2107335,70F6FC1BD9010404,docked_bike,2021-05-21 09:15:54,2021-05-21 09:40:31,Halsey St & Evergreen Ave,4474,DeKalb Ave & S Portland Ave,4546,40.68858,-73.91227,40.68981035,-73.97493121,casual
2111951,412534323130D4C2,docked_bike,2021-05-19 18:00:34,2021-05-19 18:12:20,Halsey St & Evergreen Ave,4474,Onderdonk Ave & Gates Ave,4994,40.68858,-73.91227,40.70413,-73.90737,casual
2111974,59044F796E49134E,docked_bike,2021-05-01 22:11:21,2021-05-01 22:31:11,Halsey St & Evergreen Ave,4474,DeKalb Ave & S Portland Ave,4546,40.68858,-73.91227,40.68981035,-73.97493121,casual
2149759,97F210997D2A41B6,docked_bike,2021-05-02 02:04:26,2021-05-02 02:29:30,Halsey St & Evergreen Ave,4474,Division Ave & Hooper St,5045,40.68858,-73.91227,40.70684203101325,-73.9544353965357,casual
2150905,38519F80F87A1E9F,docked_bike,2021-05-02 02:04:52,2021-05-02 02:29:53,Halsey St & Evergreen Ave,4474,Division Ave & Hooper St,5045,40.68858,-73.91227,40.70684203101325,-73.9544353965357,casual
2151066,78129B5E52BBB61C,docked_bike,2021-05-02 02:05:46,2021-05-02 02:29:53,Halsey St & Evergreen Ave,4474,Division Ave & Hooper St,5045,40.68858,-73.91227,40.70684203101325,-73.9544353965357,casual
2164981,84A74E18FFA22AE0,docked_bike,2021-05-22 16:52:34,2021-05-22 17:06:25,Halsey St & Evergreen Ave,4474,Central Ave & Melrose St,4832,40.68858,-73.91227,40.70112,-73.93039,member
2166191,F6BD1F72DFE951BC,docked_bike,2021-05-31 18:16:26,2021-05-31 18:43:39,Halsey St & Evergreen Ave,4474,Bond St & Fulton St,4479,40.68858,-73.91227,40.68962188790333,-73.98304268717766,casual
2167657,C4B6A6F752734C5C,docked_bike,2021-05-31 18:02:08,2021-05-31 18:09:18,Halsey St & Evergreen Ave,4474,Menahan St & Wyckoff Ave,4890,40.68858,-73.91227,40.70113,-73.91422,casual
2183005,AE39339C77A6B78A,docked_bike,2021-05-14 11:16:32,2021-05-14 11:27:46,Halsey St & Evergreen Ave,4474,Evergreen Ave & Noll St,4873,40.68858,-73.91227,40.70106,-73.93318,member
2226023,EFB6B6988ADA8842,docked_bike,2021-05-23 07:58:28,2021-05-23 08:08:16,Halsey St & Evergreen Ave,4474,Throop Ave & Myrtle Ave,4697,40.68858,-73.91227,40.69622937,-73.94371094,casual
2229086,720188911162E139,docked_bike,2021-05-31 14:36:14,2021-05-31 15:35:27,Halsey St & Evergreen Ave,4474,18 St & 27 Ave,7062,40.68858,-73.91227,40.772768286288304,-73.92743647098541,member
2235800,502CF61306D60B16,docked_bike,2021-05-07 21:54:34,2021-05-07 22:03:56,Halsey St & Evergreen Ave,4474,Central Ave & Weirfield St,4591,40.68858,-73.91227,40.69055,-73.91181,casual
2236024,2867B1D87B236D70,docked_bike,2021-05-09 15:40:19,2021-05-09 15:41:24,Halsey St & Evergreen Ave,4474,Central Ave & Weirfield St,4591,40.68858,-73.91227,40.69055,-73.91181,member
2236032,D5D575AA5F20D950,docked_bike,2021-05-25 16:59:22,2021-05-25 17:01:10,Halsey St & Evergreen Ave,4474,Central Ave & Weirfield St,4591,40.68858,-73.91227,40.69055,-73.91181,member
2236238,7A831647A146A541,docked_bike,2021-05-17 21:37:41,2021-05-17 21:39:43,Halsey St & Evergreen Ave,4474,Central Ave & Weirfield St,4591,40.68858,-73.91227,40.69055,-73.91181,member
2236250,33B142EA93208C0E,docked_bike,2021-05-18 16:56:48,2021-05-18 17:30:43,Halsey St & Evergreen Ave,4474,Central Ave & Weirfield St,4591,40.68858,-73.91227,40.69055,-73.91181,member
2236455,75F16D205B85E557,docked_bike,2021-05-11 18:35:27,2021-05-11 18:59:17,Halsey St & Evergreen Ave,4474,Bergen St & Vanderbilt Ave,4157,40.68858,-73.91227,40.6794388,-73.9680438,member
2236458,7AEAEAB67E06639B,docked_bike,2021-05-02 16:31:17,2021-05-02 16:50:35,Halsey St & Evergreen Ave,4474,Central Ave & Weirfield St,4591,40.68858,-73.91227,40.69055,-73.91181,casual
2246606,0E27BEAD5D479619,docked_bike,2021-05-13 10:21:23,2021-05-13 10:51:11,Halsey St & Evergreen Ave,4474,E 5 St & Cooper Sq,5712,40.68858,-73.91227,40.72769,-73.990993,casual
2246635,6EBAA4895E38207D,docked_bike,2021-05-15 14:43:54,2021-05-15 15:12:08,Halsey St & Evergreen Ave,4474,E 5 St & Cooper Sq,5712,40.68858,-73.91227,40.72769,-73.990993,casual
2246649,A43430C7BA5B2942,docked_bike,2021-05-06 10:25:56,2021-05-06 10:56:09,Halsey St & Evergreen Ave,4474,E 5 St & Cooper Sq,5712,40.68858,-73.91227,40.72769,-73.990993,casual
2255585,739DCEE493C4F7AA,docked_bike,2021-05-06 08:41:47,2021-05-06 08:43:33,Halsey St & Evergreen Ave,4474,Central Ave & Covert St,4550,40.68858,-73.91227,40.68929,-73.90951,member
2255624,150A96B65ED5373A,docked_bike,2021-05-26 12:34:22,2021-05-26 13:03:32,Halsey St & Evergreen Ave,4474,Vernon Blvd & 47 Rd,6212,40.68858,-73.91227,40.7449067,-73.9534573,member
2297386,65B9E65E39177F27,docked_bike,2021-05-23 19:19:05,2021-05-23 19:50:41,Halsey St & Evergreen Ave,4474,DeKalb Ave & Vanderbilt Ave,4461,40.68858,-73.91227,40.68940747,-73.96885458,casual
2298662,CFDCF86BBCB70DF2,docked_bike,2021-05-31 20:31:59,2021-05-31 20:58:55,Halsey St & Evergreen Ave,4474,Rogers Ave & Sterling St,3696,40.68858,-73.91227,40.6630619,-73.9538746,member
2298688,583E510FD26F2647,docked_bike,2021-05-23 13:16:23,2021-05-23 13:45:20,Halsey St & Evergreen Ave,4474,Parade Pl & Crooke Ave,3376,40.68858,-73.91227,40.651847,-73.965248,casual
2298701,C39F265FE43087D6,docked_bike,2021-05-28 08:59:55,2021-05-28 09:19:53,Halsey St & Evergreen Ave,4474,Grand St & Havemeyer St,5267,40.68858,-73.91227,40.71286844,-73.95698119,casual
2300964,D619ED48FAB74B84,docked_bike,2021-05-05 18:28:50,2021-05-05 19:04:33,Halsey St & Evergreen Ave,4474,Rogers Ave & Sterling St,3696,40.68858,-73.91227,40.6630619,-73.9538746,casual
2306130,685FC1E23FC4AC2E,docked_bike,2021-05-20 13:37:39,2021-05-20 14:07:33,Halsey St & Evergreen Ave,4474,Kingston Ave & Herkimer St,4205,40.68858,-73.91227,40.67890679,-73.94142771,casual
2306160,1E19E3D9BC1138C0,docked_bike,2021-05-23 17:56:46,2021-05-23 18:46:37,Halsey St & Evergreen Ave,4474,Kingston Ave & Herkimer St,4205,40.68858,-73.91227,40.67890679,-73.94142771,casual
2318532,718FC65EA8724677,docked_bike,2021-05-21 06:42:29,2021-05-21 07:00:59,Halsey St & Evergreen Ave,4474,Sharon St & Olive St,5323,40.68858,-73.91227,40.715353,-73.93856,member
2358989,FC8E97606A82189D,docked_bike,2021-05-21 10:51:27,2021-05-21 11:06:19,Halsey St & Evergreen Ave,4474,Clinton Ave & Myrtle Ave,4651,40.68858,-73.91227,40.693261,-73.968896,casual
2368215,BCA2C0931EBD23CD,docked_bike,2021-05-25 08:35:05,2021-05-25 09:18:55,Halsey St & Evergreen Ave,4474,W 18 St & 6 Ave,6064,40.68858,-73.91227,40.73971301,-73.99456405,member
2383002,79F31659F5667126,docked_bike,2021-05-10 16:25:04,2021-05-10 16:48:15,Halsey St & Evergreen Ave,4474,Boerum St & Broadway,5004,40.68858,-73.91227,40.70538077,-73.94976519,casual
2389049,7CACDBB0FEF9054A,docked_bike,2021-05-23 15:30:51,2021-06-07 08:55:27,Halsey St & Evergreen Ave,4474,Morgan Ave & Maspeth Ave,5354,40.68858,-73.91227,40.716657,-73.93637,casual
2389050,3D177E83A9637904,docked_bike,2021-05-24 08:17:36,2021-05-24 08:29:41,Halsey St & Evergreen Ave,4474,Menahan St & Onderdonk Ave,5034,40.68858,-73.91227,40.70553,-73.9096,member
2404177,1D85CE5FE5A8B1A4,docked_bike,2021-05-03 10:18:30,2021-05-03 10:52:22,Halsey St & Evergreen Ave,4474,Fulton St & Irving Pl,4263,40.68858,-73.91227,40.68186,-73.959432,member
2422831,15DB7912993DBF55,docked_bike,2021-05-11 07:17:14,2021-05-11 07:21:07,Halsey St & Evergreen Ave,4474,Madison St & Evergreen Ave,4560,40.68858,-73.91227,40.69122,-73.91693,member
2422836,04B920A89B024295,docked_bike,2021-05-25 09:17:19,2021-05-25 09:20:20,Halsey St & Evergreen Ave,4474,Halsey St & Broadway,4366,40.68858,-73.91227,40.68565,-73.91564,member
2422841,F5AA6B28178672B8,docked_bike,2021-05-19 11:17:20,2021-05-19 11:19:44,Halsey St & Evergreen Ave,4474,Halsey St & Broadway,4366,40.68858,-73.91227,40.68565,-73.91564,casual
2422848,573803172E194BF1,docked_bike,2021-05-28 10:52:48,2021-05-28 10:54:43,Halsey St & Evergreen Ave,4474,Halsey St & Broadway,4366,40.68858,-73.91227,40.68565,-73.91564,member
2422855,DD8945F877A9A227,docked_bike,2021-05-09 16:06:42,2021-05-09 16:09:14,Halsey St & Evergreen Ave,4474,Madison St & Evergreen Ave,4560,40.68858,-73.91227,40.69122,-73.91693,member
2422856,A976202D938B5054,docked_bike,2021-05-26 23:53:17,2021-05-26 23:55:19,Halsey St & Evergreen Ave,4474,Madison St & Evergreen Ave,4560,40.68858,-73.91227,40.69122,-73.91693,member
2422857,6B418875DE750FD4,docked_bike,2021-05-14 16:48:05,2021-05-14 16:50:56,Halsey St & Evergreen Ave,4474,Madison St & Evergreen Ave,4560,40.68858,-73.91227,40.69122,-73.91693,member
2422858,80C3BA0013066CE7,docked_bike,2021-05-26 09:34:48,2021-05-26 09:38:45,Halsey St & Evergreen Ave,4474,Halsey St & Broadway,4366,40.68858,-73.91227,40.68565,-73.91564,member
2422862,970116E45C5C734B,docked_bike,2021-05-20 14:30:31,2021-05-20 14:32:13,Halsey St & Evergreen Ave,4474,Halsey St & Broadway,4366,40.68858,-73.91227,40.68565,-73.91564,member
2422875,73D9EF9EF67C9F2D,docked_bike,2021-05-23 15:22:55,2021-05-23 15:24:43,Halsey St & Evergreen Ave,4474,Halsey St & Broadway,4366,40.68858,-73.91227,40.68565,-73.91564,member
2422878,84B8E050F3205A25,docked_bike,2021-05-23 22:26:33,2021-05-24 01:43:08,Halsey St & Evergreen Ave,4474,Halsey St & Broadway,4366,40.68858,-73.91227,40.68565,-73.91564,casual
2451257,C6B69A99CAE39E14,docked_bike,2021-05-14 15:29:15,2021-05-14 15:40:59,Halsey St & Evergreen Ave,4474,Marcus Garvey Blvd & Macon St,4278,40.68858,-73.91227,40.682601,-73.938037,member
2466330,28695E63610B0936,docked_bike,2021-05-06 17:13:05,2021-05-06 17:49:19,Halsey St & Evergreen Ave,4474,S 4 St & Wythe Ave,5204,40.68858,-73.91227,40.71285887,-73.96590294,member
2466387,E0E1B4F85D571AFF,docked_bike,2021-05-15 09:58:43,2021-05-15 10:20:22,Halsey St & Evergreen Ave,4474,S 4 St & Wythe Ave,5204,40.68858,-73.91227,40.71285887,-73.96590294,member
2466535,FD42BCD398CDEA29,docked_bike,2021-05-06 06:44:38,2021-05-06 07:02:49,Halsey St & Evergreen Ave,4474,S 4 St & Wythe Ave,5204,40.68858,-73.91227,40.71285887,-73.96590294,casual
2466557,356DAAFEDA103669,docked_bike,2021-05-01 14:45:28,2021-05-01 15:06:22,Halsey St & Evergreen Ave,4474,S 4 St & Wythe Ave,5204,40.68858,-73.91227,40.71285887,-73.96590294,casual
2471783,3ED2270BD175629A,docked_bike,2021-05-14 13:15:56,2021-05-14 14:05:14,Halsey St & Evergreen Ave,4474,43 St & 37 Ave,6401,40.68858,-73.91227,40.750181,-73.919998,casual
2492385,94B54779FE0E3281,docked_bike,2021-05-22 23:07:41,2021-05-22 23:32:03,Halsey St & Evergreen Ave,4474,Verona Pl & Fulton St,4124,40.68858,-73.91227,40.6803560840434,-73.9476791024208,member
2493141,2095BC3A4245059E,docked_bike,2021-05-23 12:16:05,2021-05-23 12:25:04,Halsey St & Evergreen Ave,4474,Knickerbocker Ave & Thames St,5018,40.68858,-73.91227,40.70539,-73.92976,casual
2501934,2C74E99E9F81A9BF,docked_bike,2021-05-11 23:34:02,2021-05-11 23:35:14,Halsey St & Evergreen Ave,4474,Jefferson Ave & Evergreen Ave,4517,40.68858,-73.91227,40.68989,-73.91458,casual
2501995,B8CE38D7D9475DD5,docked_bike,2021-05-11 10:23:26,2021-05-11 10:28:17,Halsey St & Evergreen Ave,4474,Jefferson Ave & Evergreen Ave,4517,40.68858,-73.91227,40.68989,-73.91458,casual
2501997,9134339FD62C3486,docked_bike,2021-05-03 08:59:38,2021-05-03 09:01:17,Halsey St & Evergreen Ave,4474,Jefferson Ave & Evergreen Ave,4517,40.68858,-73.91227,40.68989,-73.91458,casual
2501999,A21581984491DCAB,docked_bike,2021-05-12 10:27:26,2021-05-12 10:29:06,Halsey St & Evergreen Ave,4474,Jefferson Ave & Evergreen Ave,4517,40.68858,-73.91227,40.68989,-73.91458,casual
2502042,6F3A1EF8EEE8E43E,docked_bike,2021-05-12 11:08:26,2021-05-12 12:45:28,Halsey St & Evergreen Ave,4474,36 St & 3 Ave,3460,40.68858,-73.91227,40.655716,-74.006664,member
2502048,CC8C0035A312BF70,docked_bike,2021-05-12 21:07:46,2021-05-12 21:42:59,Halsey St & Evergreen Ave,4474,Jefferson Ave & Evergreen Ave,4517,40.68858,-73.91227,40.68989,-73.91458,casual
2516003,D8D6A15CCDBB8D43,docked_bike,2021-05-21 10:44:45,2021-05-21 10:59:33,Halsey St & Evergreen Ave,4474,Macon St & Nostrand Ave,4214,40.68858,-73.91227,40.6809833854,-73.9500479759,member
2516010,AB4D3D68ADB6A5CB,docked_bike,2021-05-02 11:53:27,2021-05-02 12:07:38,Halsey St & Evergreen Ave,4474,Cedar St & Myrtle Ave,4751,40.68858,-73.91227,40.697842,-73.926241,casual
2516054,0E0AEA70385A08B6,docked_bike,2021-05-13 08:15:09,2021-05-13 08:39:19,Halsey St & Evergreen Ave,4474,Macon St & Nostrand Ave,4214,40.68858,-73.91227,40.6809833854,-73.9500479759,casual
2516072,DBC79F241ED88C6D,docked_bike,2021-05-05 08:15:05,2021-05-05 08:28:20,Halsey St & Evergreen Ave,4474,Macon St & Nostrand Ave,4214,40.68858,-73.91227,40.6809833854,-73.9500479759,casual
2516087,D6DDCFDC6E36AC7A,docked_bike,2021-05-24 14:06:27,2021-05-24 14:23:25,Halsey St & Evergreen Ave,4474,Macon St & Nostrand Ave,4214,40.68858,-73.91227,40.6809833854,-73.9500479759,casual
2538392,0A3D0CF76E96765B,docked_bike,2021-05-18 11:27:24,2021-05-18 12:26:22,Halsey St & Evergreen Ave,4474,Bedford Ave & Nassau Ave,5550,40.68858,-73.91227,40.72311651,-73.95212324,member
2538410,D362A71F0EF757F3,docked_bike,2021-05-17 14:23:43,2021-05-17 14:57:54,Halsey St & Evergreen Ave,4474,Bedford Ave & Nassau Ave,5550,40.68858,-73.91227,40.72311651,-73.95212324,member
2543008,E634E050378696EB,docked_bike,2021-05-28 11:27:34,2021-05-28 11:51:27,Halsey St & Evergreen Ave,4474,Bedford Ave & Nassau Ave,5550,40.68858,-73.91227,40.72311651,-73.95212324,member
2558456,541BB7D364D9133B,docked_bike,2021-05-15 17:12:01,2021-05-15 17:35:08,Halsey St & Evergreen Ave,4474,Devoe St & Lorimer St,5259,40.68858,-73.91227,40.71335226222875,-73.9491033554077,member
2558462,044BB03BB32D757A,docked_bike,2021-05-31 23:55:02,2021-06-01 00:08:06,Halsey St & Evergreen Ave,4474,Stockholm St & Wilson Ave,4824,40.68858,-73.91227,40.699304,-73.923044,member
2558464,679B182C9ED2D031,docked_bike,2021-05-17 11:22:42,2021-05-17 11:48:33,Halsey St & Evergreen Ave,4474,Union Ave & N 12 St,5411,40.68858,-73.91227,40.71924,-73.95242,casual
2558499,9982A8C4B672DF93,docked_bike,2021-05-11 13:52:24,2021-05-11 14:21:06,Halsey St & Evergreen Ave,4474,Union Ave & N 12 St,5411,40.68858,-73.91227,40.71924,-73.95242,member
2558588,655185D07B10EA50,docked_bike,2021-05-05 17:11:09,2021-05-05 17:17:21,Halsey St & Evergreen Ave,4474,Stockholm St & Wilson Ave,4824,40.68858,-73.91227,40.699304,-73.923044,casual
2571907,75E20505941F25D2,docked_bike,2021-05-04 16:04:33,2021-05-04 16:28:09,Halsey St & Evergreen Ave,4474,Broadway & Roebling St,5125,40.68858,-73.91227,40.70924826276157,-73.96063148975372,member
2572023,5FE5FB67F13EF6AD,docked_bike,2021-05-13 22:10:27,2021-05-13 22:15:45,Halsey St & Evergreen Ave,4474,Willoughby Ave & Myrtle Ave,4759,40.68858,-73.91227,40.69757,-73.93098,member
2573993,5EA5EBADA88EA3BC,docked_bike,2021-05-18 17:48:51,2021-05-18 18:07:59,Halsey St & Evergreen Ave,4474,Willoughby Ave & Myrtle Ave,4759,40.68858,-73.91227,40.69757,-73.93098,member
2574417,2A19AEECAA72767A,docked_bike,2021-05-26 06:42:06,2021-05-26 06:49:21,Halsey St & Evergreen Ave,4474,Willoughby Ave & Myrtle Ave,4759,40.68858,-73.91227,40.69757,-73.93098,member
2594975,57B2B327EF704EA7,docked_bike,2021-05-20 21:17:48,2021-05-20 21:43:39,Halsey St & Evergreen Ave,4474,Atlantic Ave & Fort Greene Pl,4354,40.68858,-73.91227,40.68382604,-73.97632328,casual
2609822,11DD4A57D4B34A0D,docked_bike,2021-05-22 11:43:42,2021-05-22 12:00:34,Halsey St & Evergreen Ave,4474,Monroe St & Tompkins Ave,4434,40.68858,-73.91227,40.686203,-73.944694,casual
2609868,01D101B2915E0A83,docked_bike,2021-05-18 15:17:46,2021-05-18 15:34:48,Halsey St & Evergreen Ave,4474,Richardson St & N Henry St,5433,40.68858,-73.91227,40.71907891179564,-73.94223690032959,casual
2637705,3CEAE4DFE7516B48,docked_bike,2021-05-24 08:47:37,2021-05-24 09:27:07,Halsey St & Evergreen Ave,4474,10 Ave & W 28 St,6459,40.68858,-73.91227,40.75066386,-74.00176802,member
2637706,8B4E4BF095FC6955,docked_bike,2021-05-19 10:01:03,2021-05-19 10:40:57,Halsey St & Evergreen Ave,4474,10 Ave & W 28 St,6459,40.68858,-73.91227,40.75066386,-74.00176802,member
2637717,D3B5A8111C780AB8,docked_bike,2021-05-17 10:26:45,2021-05-17 11:01:15,Halsey St & Evergreen Ave,4474,10 Ave & W 28 St,6459,40.68858,-73.91227,40.75066386,-74.00176802,member
2637845,8A8F2C8047A8AD06,docked_bike,2021-05-01 11:46:22,2021-05-01 11:52:50,Halsey St & Evergreen Ave,4474,Broadway & Kosciuszko St,4608,40.68858,-73.91227,40.69329,-73.92852,member
2637855,FB52066DE27A08EA,docked_bike,2021-05-03 21:26:59,2021-05-03 21:39:56,Halsey St & Evergreen Ave,4474,Broadway & Furman Ave,4244,40.68858,-73.91227,40.68139,-73.90756,member
2637862,BF85DD93BFE8DB95,docked_bike,2021-05-07 16:13:06,2021-05-07 16:23:43,Halsey St & Evergreen Ave,4474,Broadway & Kosciuszko St,4608,40.68858,-73.91227,40.69329,-73.92852,casual
2638052,6AF6DE7FE2FA6C47,docked_bike,2021-05-01 15:08:40,2021-05-01 15:35:37,Halsey St & Evergreen Ave,4474,Eastern Pkwy & Franklin Ave,3919,40.68858,-73.91227,40.6707767,-73.9576801,member
2638065,9FF37B210D48580C,docked_bike,2021-05-06 16:07:16,2021-05-06 16:10:17,Halsey St & Evergreen Ave,4474,Knickerbocker Ave & Halsey St,4623,40.68858,-73.91227,40.693,-73.90824,member
2638071,020EBF15291615E8,docked_bike,2021-05-12 08:32:06,2021-05-12 09:13:00,Halsey St & Evergreen Ave,4474,10 Ave & W 28 St,6459,40.68858,-73.91227,40.75066386,-74.00176802,member
2638956,0DA41D50870086E2,docked_bike,2021-05-13 14:19:41,2021-05-13 14:26:56,Halsey St & Evergreen Ave,4474,Broadway & Furman Ave,4244,40.68858,-73.91227,40.68139,-73.90756,casual
2639222,9B9B32B973CA777C,docked_bike,2021-05-07 08:44:46,2021-05-07 09:22:30,Halsey St & Evergreen Ave,4474,10 Ave & W 28 St,6459,40.68858,-73.91227,40.75066386,-74.00176802,member
2639223,5ABF82DF97B00598,docked_bike,2021-05-14 09:54:05,2021-05-14 10:39:11,Halsey St & Evergreen Ave,4474,10 Ave & W 28 St,6459,40.68858,-73.91227,40.75066386,-74.00176802,member
2662712,83EE40DFBEEC2A43,docked_bike,2021-05-18 20:33:12,2021-05-18 20:57:15,Halsey St & Evergreen Ave,4474,Kingsland Ave & Nassau Ave,5613,40.68858,-73.91227,40.72577,-73.94173,casual
2698314,2830B6CE64CE7839,docked_bike,2021-05-18 18:55:24,2021-05-18 19:59:31,Halsey St & Evergreen Ave,4474,8 Ave & W 52 St,6816,40.68858,-73.91227,40.76370739,-73.9851615,member
2699510,3685479BCF333DD3,docked_bike,2021-05-23 22:25:49,2021-05-24 00:39:35,Halsey St & Evergreen Ave,4474,Broadway & Hancock St,4441,40.68858,-73.91227,40.68663,-73.9168,casual
2699526,8C2AB84D65A70EFC,docked_bike,2021-05-08 21:46:11,2021-05-08 22:02:16,Halsey St & Evergreen Ave,4474,Broadway & Hancock St,4441,40.68858,-73.91227,40.68663,-73.9168,member
2699532,AFF27F70EBDA253A,docked_bike,2021-05-23 22:24:24,2021-05-24 00:39:39,Halsey St & Evergreen Ave,4474,Broadway & Hancock St,4441,40.68858,-73.91227,40.68663,-73.9168,casual
2704044,7D82CEA3B94756A4,docked_bike,2021-05-20 11:04:41,2021-05-20 11:20:25,Halsey St & Evergreen Ave,4474,Van Sinderen Ave & Truxton St,4161,40.68858,-73.91227,40.6786,-73.90369,casual
2704045,F44CBF7769BFE958,docked_bike,2021-05-11 15:27:37,2021-05-11 15:33:43,Halsey St & Evergreen Ave,4474,Van Sinderen Ave & Truxton St,4161,40.68858,-73.91227,40.6786,-73.90369,casual
2706195,C77C2ACF84323CF9,docked_bike,2021-05-21 08:47:53,2021-05-21 08:55:46,Halsey St & Evergreen Ave,4474,Van Sinderen Ave & Truxton St,4161,40.68858,-73.91227,40.6786,-73.90369,casual
