,ride_id,rideable_type,started_at,ended_at,start_station_name,start_station_id,end_station_name,end_station_id,start_lat,start_lng,end_lat,end_lng,member_casual
11385,11C896870E985E46,classic_bike,2022-02-27 00:43:29,2022-02-27 00:56:07,Monroe St & Classon Ave,4336,Lewis Ave & Madison St,4425,40.6845683,-73.95881081,40.686312,-73.935775,member
11473,C96C6A813914E2B6,classic_bike,2022-02-12 15:50:59,2022-02-12 16:31:06,West Drive & Prospect Park West,3651,Lewis Ave & Madison St,4425,40.6610633719006,-73.97945255041122,40.686312,-73.935775,casual
11504,07AE164471D35BB9,electric_bike,2022-02-01 14:58:14,2022-02-01 15:22:53,Knickerbocker Ave & Thames St,5018,Lewis Ave & Madison St,4425,40.70539,-73.92976,40.686312,-73.935775,casual
11526,ADC9848DF850CD03,classic_bike,2022-02-09 23:05:11,2022-02-09 23:13:06,Greene Ave & Nostrand Ave,4519,Lewis Ave & Madison St,4425,40.6883337,-73.950916,40.686312,-73.935775,member
11544,7A202C8F78555D28,classic_bike,2022-02-07 16:48:12,2022-02-07 17:01:31,Beaver St & Fayette St,4840,Lewis Ave & Madison St,4425,40.70099,-73.93921,40.686312,-73.935775,casual
11546,2284E6FD3FE45671,classic_bike,2022-02-22 15:00:18,2022-02-22 15:11:49,Beaver St & Fayette St,4840,Lewis Ave & Madison St,4425,40.70099,-73.93921,40.686312,-73.935775,member
11589,ADC115409DDF6A7C,classic_bike,2022-02-10 22:46:27,2022-02-10 23:11:55,Grand St & Havemeyer St,5267,Lewis Ave & Madison St,4425,40.71286844,-73.95698119,40.686312,-73.935775,casual
11610,9905E1CAB9950F7B,electric_bike,2022-02-12 18:15:22,2022-02-12 18:30:28,Broadway & Roebling St,5125,Lewis Ave & Madison St,4425,40.70924826276157,-73.96063148975372,40.686312,-73.935775,member
11621,F950AECB4D5DD58B,electric_bike,2022-02-02 20:59:24,2022-02-02 21:07:22,Monroe St & Bedford Ave,4368,Lewis Ave & Madison St,4425,40.6851443,-73.95380904,40.686312,-73.935775,casual
11690,A705DD7AD7EF5B9E,electric_bike,2022-02-14 20:18:43,2022-02-14 20:32:01,Union St & Bedford Ave,3879,Lewis Ave & Madison St,4425,40.6691783,-73.9554162,40.686312,-73.935775,member
11762,C057CAD80CBE4105,classic_bike,2022-02-13 18:20:57,2022-02-13 18:29:24,Verona Pl & Fulton St,4124,Lewis Ave & Madison St,4425,40.6803560840434,-73.9476791024208,40.686312,-73.935775,casual
11767,F6B8A77E9AD1D7E1,classic_bike,2022-02-23 07:41:21,2022-02-23 07:49:35,Greene Ave & Throop Ave,4510,Lewis Ave & Madison St,4425,40.6894932,-73.942061,40.686312,-73.935775,member
11785,32CD1B56B247D09A,electric_bike,2022-02-27 20:41:43,2022-02-27 21:01:50,Berry St & N 8 St,5379,Lewis Ave & Madison St,4425,40.7190095,-73.95852515,40.686312,-73.935775,member
11844,2655F904B76D3AEF,electric_bike,2022-02-11 22:27:40,2022-02-11 22:45:06,Frost St & Meeker Ave,5371,Lewis Ave & Madison St,4425,40.71766197083994,-73.94880026578903,40.686312,-73.935775,casual
11886,E0659CD88E0FA4F4,classic_bike,2022-02-12 14:38:53,2022-02-12 14:56:07,Prospect Pl & Vanderbilt Ave,4157,Lewis Ave & Madison St,4425,40.67767534269111,-73.96902143955231,40.686312,-73.935775,member
12000,EC55079081CB9A83,classic_bike,2022-02-16 19:46:37,2022-02-16 20:34:32,E 68 St & 3 Ave,6896,Lewis Ave & Madison St,4425,40.76712840349542,-73.96224617958069,40.686312,-73.935775,member
65162,A1372E10BA882FDC,electric_bike,2022-02-01 23:58:47,2022-02-02 00:09:34,Bergen St & Vanderbilt Ave,4157,Lewis Ave & Madison St,4425,40.6794388,-73.9680438,40.686312,-73.935775,member
65188,5DA6BF492888637A,classic_bike,2022-02-24 22:58:44,2022-02-24 23:02:00,Putnam Ave & Throop Ave,4392,Lewis Ave & Madison St,4425,40.6851532,-73.94111,40.686312,-73.935775,member
65228,4CA16245AEE27867,electric_bike,2022-02-26 20:13:48,2022-02-26 20:22:10,Cedar St & Evergreen Ave,4721,Lewis Ave & Madison St,4425,40.69671,-73.92807,40.686312,-73.935775,member
65266,C9A1C0E220F1B635,electric_bike,2022-02-12 17:15:37,2022-02-12 17:28:07,Eastern Pkwy & Franklin Ave,3919,Lewis Ave & Madison St,4425,40.6707767,-73.9576801,40.686312,-73.935775,casual
65344,ED3147F5B4D0E061,classic_bike,2022-02-18 12:49:42,2022-02-18 13:18:14,DeKalb Ave & Franklin Ave,4528,Lewis Ave & Madison St,4425,40.69064807082943,-73.95746178925037,40.686312,-73.935775,casual
65348,A44C5DB59C97C7AA,electric_bike,2022-02-06 13:27:47,2022-02-06 13:45:01,DeKalb Ave & Franklin Ave,4528,Lewis Ave & Madison St,4425,40.69064807082943,-73.95746178925037,40.686312,-73.935775,casual
65407,2E2F01253F7EE70E,electric_bike,2022-02-23 12:51:08,2022-02-23 12:57:31,Broadway & Whipple St,4883,Lewis Ave & Madison St,4425,40.7016657,-73.9437303,40.686312,-73.935775,casual
65427,E913F8B02B0B5B94,electric_bike,2022-02-28 07:46:19,2022-02-28 07:52:05,Verona Pl & Fulton St,4124,Lewis Ave & Madison St,4425,40.6803560840434,-73.9476791024208,40.686312,-73.935775,member
65431,BB5563D9AD7C3669,electric_bike,2022-02-16 19:00:14,2022-02-16 19:12:24,Monroe St & Classon Ave,4336,Lewis Ave & Madison St,4425,40.6845683,-73.95881081,40.686312,-73.935775,member
65440,05583C6CEB881591,electric_bike,2022-02-11 23:59:09,2022-02-12 00:05:30,Fulton St & Irving Pl,4263,Lewis Ave & Madison St,4425,40.68186,-73.959432,40.686312,-73.935775,member
65485,7B2F34B06277E9BF,classic_bike,2022-02-10 21:54:32,2022-02-10 22:01:45,Monroe St & Classon Ave,4336,Lewis Ave & Madison St,4425,40.6845683,-73.95881081,40.686312,-73.935775,member
65488,37448302D39E63F8,electric_bike,2022-02-18 07:53:47,2022-02-18 08:02:40,Monroe St & Classon Ave,4336,Lewis Ave & Madison St,4425,40.6845683,-73.95881081,40.686312,-73.935775,casual
65578,2A55C289A067FD4B,electric_bike,2022-02-13 15:16:52,2022-02-13 15:21:35,Verona Pl & Fulton St,4124,Lewis Ave & Madison St,4425,40.6803560840434,-73.9476791024208,40.686312,-73.935775,member
65584,F6BA76B126521ADF,electric_bike,2022-02-05 13:44:38,2022-02-05 14:01:23,Graham Ave & Conselyea St,5291,Lewis Ave & Madison St,4425,40.715143,-73.944507,40.686312,-73.935775,casual
65607,FDB4FF6FEE009B43,electric_bike,2022-02-01 14:17:33,2022-02-01 14:53:01,Irving Ave & Jefferson St,5051,Lewis Ave & Madison St,4425,40.70538,-73.92535,40.686312,-73.935775,member
65754,B3C1D344020D937D,classic_bike,2022-02-07 21:10:33,2022-02-07 21:25:24,Park Pl & Franklin Ave,4033,Lewis Ave & Madison St,4425,40.6741806,-73.9564947,40.686312,-73.935775,casual
65755,8E489D1535F14F6B,electric_bike,2022-02-11 22:28:43,2022-02-11 22:40:10,Park Pl & Franklin Ave,4033,Lewis Ave & Madison St,4425,40.6741806,-73.9564947,40.686312,-73.935775,casual
65787,E80F4D093E466A7A,electric_bike,2022-02-07 18:37:48,2022-02-07 18:56:09,S 3 St & Bedford Ave,5235,Lewis Ave & Madison St,4425,40.71260486,-73.96264403,40.686312,-73.935775,member
65830,59A7D6816F1BFF30,electric_bike,2022-02-02 15:40:56,2022-02-02 16:24:43,Central Ave & Himrod St,4713,Lewis Ave & Madison St,4425,40.69676,-73.92302,40.686312,-73.935775,member
65903,AC3368D6991FBB2B,classic_bike,2022-02-19 10:59:22,2022-02-19 11:19:05,Grand St & Havemeyer St,5267,Lewis Ave & Madison St,4425,40.71286844,-73.95698119,40.686312,-73.935775,casual
65912,0518E4621A08A089,classic_bike,2022-02-09 13:01:44,2022-02-09 13:39:07,Norfolk St & Broome St,5374,Lewis Ave & Madison St,4425,40.7172274,-73.98802084,40.686312,-73.935775,member
65950,967819E8A939A727,classic_bike,2022-02-28 08:01:33,2022-02-28 08:04:53,Putnam Ave & Throop Ave,4392,Lewis Ave & Madison St,4425,40.6851532,-73.94111,40.686312,-73.935775,member
66046,81DED1075A13F30F,electric_bike,2022-02-24 17:50:35,2022-02-24 18:12:49,7 St & 5 Ave,3914,Lewis Ave & Madison St,4425,40.6704922,-73.98541675,40.686312,-73.935775,member
66226,8548FD15D025D143,classic_bike,2022-02-12 16:33:49,2022-02-12 16:41:46,Broadway & Madison St,4483,Lewis Ave & Madison St,4425,40.68822,-73.91966,40.686312,-73.935775,casual
66259,5EC388496331823D,classic_bike,2022-02-10 06:49:19,2022-02-10 07:01:20,Willoughby Ave & Walworth St,4634,Lewis Ave & Madison St,4425,40.69331716,-73.95381995,40.686312,-73.935775,casual
66464,B5962D61DFFEB1A0,electric_bike,2022-02-04 21:18:07,2022-02-04 21:32:50,Grand St & Havemeyer St,5267,Lewis Ave & Madison St,4425,40.71286844,-73.95698119,40.686312,-73.935775,member
66501,F64748878EDD9BB2,classic_bike,2022-02-05 10:40:12,2022-02-05 10:45:17,Putnam Ave & Throop Ave,4392,Lewis Ave & Madison St,4425,40.6851532,-73.94111,40.686312,-73.935775,member
66527,CCA4F93139D90C0C,electric_bike,2022-02-03 00:44:12,2022-02-03 00:53:55,Willoughby Ave & Walworth St,4634,Lewis Ave & Madison St,4425,40.69331716,-73.95381995,40.686312,-73.935775,casual
66556,7E3178F73727FCB1,classic_bike,2022-02-15 10:52:02,2022-02-15 11:07:53,Halsey St & Broadway,4366,Lewis Ave & Madison St,4425,40.68565,-73.91564,40.686312,-73.935775,member
66591,A24350DDA34BFD7A,electric_bike,2022-02-15 18:33:39,2022-02-15 18:55:46,Dean St & Hoyt St,4446,Lewis Ave & Madison St,4425,40.6864442,-73.98759104,40.686312,-73.935775,member
66645,DDCC2BDCF683AD97,classic_bike,2022-02-18 09:41:59,2022-02-18 09:47:55,Suydam St & Broadway,4689,Lewis Ave & Madison St,4425,40.69544,-73.93223,40.686312,-73.935775,casual
66689,4390D58F0A1717C5,electric_bike,2022-02-12 02:04:01,2022-02-12 02:30:56,E 5 St & Ave A,5626,Lewis Ave & Madison St,4425,40.72479007746337,-73.98430064320564,40.686312,-73.935775,casual
66736,780EFC63E46E91FB,electric_bike,2022-02-12 15:00:10,2022-02-12 15:10:24,Fulton St & Waverly Ave,4345,Lewis Ave & Madison St,4425,40.68323865460341,-73.96599590778351,40.686312,-73.935775,member
66829,4C80DBA190C73FCD,electric_bike,2022-02-12 01:08:21,2022-02-12 01:27:25,N 12 St & Bedford Ave,5450,Lewis Ave & Madison St,4425,40.72079821,-73.95484712,40.686312,-73.935775,casual
66853,BA808336EF3F1E05,electric_bike,2022-02-20 23:30:39,2022-02-20 23:35:23,Kingston Ave & Herkimer St,4205,Lewis Ave & Madison St,4425,40.67890679,-73.94142771,40.686312,-73.935775,member
66892,83D083021640A3B2,classic_bike,2022-02-21 21:39:28,2022-02-21 21:53:50,Flatbush Ave & Ocean Ave,3704,Lewis Ave & Madison St,4425,40.663657,-73.963014,40.686312,-73.935775,casual
66906,386D33E929FEF824,classic_bike,2022-02-24 09:58:24,2022-02-24 10:15:33,Eastern Pkwy & Washington Ave,3928,Lewis Ave & Madison St,4425,40.6716493,-73.9631145,40.686312,-73.935775,casual
66929,179D1FDDE0E92810,classic_bike,2022-02-17 15:22:33,2022-02-17 16:12:04,E 4 St & 2 Ave,5593,Lewis Ave & Madison St,4425,40.7262807,-73.98978041,40.686312,-73.935775,casual
66975,B269C89AA0DA51B2,classic_bike,2022-02-18 21:43:45,2022-02-18 21:52:06,Monroe St & Classon Ave,4336,Lewis Ave & Madison St,4425,40.6845683,-73.95881081,40.686312,-73.935775,member
66978,A7C4C4D864B14EFE,electric_bike,2022-02-11 15:11:14,2022-02-11 15:17:05,Greene Ave & Nostrand Ave,4519,Lewis Ave & Madison St,4425,40.6883337,-73.950916,40.686312,-73.935775,casual
67043,F998D934C49E3EC5,classic_bike,2022-02-26 23:19:37,2022-02-26 23:30:34,Monroe St & Bedford Ave,4368,Lewis Ave & Madison St,4425,40.6851443,-73.95380904,40.686312,-73.935775,member
67092,EFB5C954EBA04BFA,classic_bike,2022-02-19 15:20:03,2022-02-19 15:32:13,Monroe St & Bedford Ave,4368,Lewis Ave & Madison St,4425,40.6851443,-73.95380904,40.686312,-73.935775,member
67201,4129DBADAF4CF4DE,electric_bike,2022-02-09 22:28:36,2022-02-09 22:42:03,Leonard St & Maujer St,5148,Lewis Ave & Madison St,4425,40.7103685423523,-73.94705951213837,40.686312,-73.935775,casual
67203,2E549728A6960651,electric_bike,2022-02-16 22:28:30,2022-02-16 22:41:00,Leonard St & Maujer St,5148,Lewis Ave & Madison St,4425,40.7103685423523,-73.94705951213837,40.686312,-73.935775,casual
67232,D59CE13064B48ADD,electric_bike,2022-02-22 20:29:39,2022-02-22 20:49:31,Carroll St & 6 Ave,4019,Lewis Ave & Madison St,4425,40.6740886,-73.9787282,40.686312,-73.935775,member
67293,E1BC8B5BF9689FA7,electric_bike,2022-02-02 13:39:26,2022-02-02 14:10:35,Schermerhorn St & Bond St,4479,Lewis Ave & Madison St,4425,40.688417427540834,-73.98451656103134,40.686312,-73.935775,casual
67315,50799E95DABC57F0,classic_bike,2022-02-19 09:15:54,2022-02-19 09:30:55,Prospect Pl & Underhill Ave,4116,Lewis Ave & Madison St,4425,40.6769694,-73.96579,40.686312,-73.935775,member
67338,DDCD6FA3AA900E91,electric_bike,2022-02-02 22:07:25,2022-02-02 22:21:20,Rogers Ave & Sterling St,3696,Lewis Ave & Madison St,4425,40.6630619,-73.9538746,40.686312,-73.935775,member
67385,17D38C2F52B0EB8F,classic_bike,2022-02-13 22:43:59,2022-02-13 22:54:20,DeKalb Ave & Franklin Ave,4528,Lewis Ave & Madison St,4425,40.69064807082943,-73.95746178925037,40.686312,-73.935775,member
67399,DEF9B72C5BB23325,electric_bike,2022-02-12 01:19:41,2022-02-12 01:35:54,George St & Wilson Ave,4906,Lewis Ave & Madison St,4425,40.702997,-73.92997,40.686312,-73.935775,casual
67402,AB2860ED5FB56AF4,electric_bike,2022-02-12 00:51:24,2022-02-12 01:01:29,Central Ave & Flushing Ave,4947,Lewis Ave & Madison St,4425,40.702831,-73.9333,40.686312,-73.935775,casual
67436,E7746A90A85CD9BB,electric_bike,2022-02-04 00:57:03,2022-02-04 01:06:53,George St & Wilson Ave,4906,Lewis Ave & Madison St,4425,40.702997,-73.92997,40.686312,-73.935775,casual
67456,7E7B1247E109A1BA,electric_bike,2022-02-05 10:06:17,2022-02-05 10:14:31,DeKalb Ave & Franklin Ave,4528,Lewis Ave & Madison St,4425,40.69064807082943,-73.95746178925037,40.686312,-73.935775,member
67617,B3D10B32C936175C,electric_bike,2022-02-19 12:34:06,2022-02-19 12:47:40,Clinton Ave & Myrtle Ave,4651,Lewis Ave & Madison St,4425,40.693261,-73.968896,40.686312,-73.935775,member
67645,9ED5B4DA9099007A,electric_bike,2022-02-12 12:20:59,2022-02-12 12:32:36,DeKalb Ave & Franklin Ave,4528,Lewis Ave & Madison St,4425,40.69064807082943,-73.95746178925037,40.686312,-73.935775,member
67671,F17BC821FA520A2F,classic_bike,2022-02-14 22:28:22,2022-02-14 23:04:45,Cadman Plaza E & Red Cross Pl,4821,Lewis Ave & Madison St,4425,40.69991755,-73.98971773,40.686312,-73.935775,casual
67680,9A113A2148C72026,classic_bike,2022-02-02 15:02:13,2022-02-02 15:18:54,Fulton St & Waverly Ave,4345,Lewis Ave & Madison St,4425,40.68323865460341,-73.96599590778351,40.686312,-73.935775,member
67690,023AAD7A40826A6F,electric_bike,2022-02-08 17:33:50,2022-02-08 18:07:46,Broadway & Morris St,5033,Lewis Ave & Madison St,4425,40.705945132708806,-74.01321887969969,40.686312,-73.935775,casual
67762,A60C0B24BF501AF0,electric_bike,2022-02-21 15:32:39,2022-02-21 15:48:39,Frost St & Meeker Ave,5371,Lewis Ave & Madison St,4425,40.71766197083994,-73.94880026578903,40.686312,-73.935775,member
67767,A71C4AAFAA596200,electric_bike,2022-02-26 16:59:55,2022-02-26 17:13:07,Grand St & Havemeyer St,5267,Lewis Ave & Madison St,4425,40.71286844,-73.95698119,40.686312,-73.935775,member
67814,99994D85481DAC70,electric_bike,2022-02-23 12:29:50,2022-02-23 12:41:54,Knickerbocker Ave & Halsey St,4623,Lewis Ave & Madison St,4425,40.693,-73.90824,40.686312,-73.935775,member
67956,94B1FB8D7C6726A2,electric_bike,2022-02-15 23:55:40,2022-02-16 00:08:53,S 3 St & Bedford Ave,5235,Lewis Ave & Madison St,4425,40.71260486,-73.96264403,40.686312,-73.935775,casual
67957,1D3F00F8B28EED01,electric_bike,2022-02-10 00:49:58,2022-02-10 00:57:30,Wilson Ave & Troutman St,4864,Lewis Ave & Madison St,4425,40.70166,-73.92754,40.686312,-73.935775,casual
67973,B4F8C02B73704648,electric_bike,2022-02-02 16:03:26,2022-02-02 16:35:10,Washington Ave & Park Ave,4724,Lewis Ave & Madison St,4425,40.69610226,-73.96751037,40.686312,-73.935775,casual
68049,F90B10445DFCB069,electric_bike,2022-02-05 03:19:53,2022-02-05 03:42:28,Norfolk St & Broome St,5374,Lewis Ave & Madison St,4425,40.7172274,-73.98802084,40.686312,-73.935775,member
68111,AC5DB615005344CE,electric_bike,2022-02-16 18:21:41,2022-02-16 18:28:50,Suydam St & Broadway,4689,Lewis Ave & Madison St,4425,40.69544,-73.93223,40.686312,-73.935775,member
68120,6596A611BA2126C3,electric_bike,2022-02-13 23:43:29,2022-02-13 23:56:50,S 3 St & Bedford Ave,5235,Lewis Ave & Madison St,4425,40.71260486,-73.96264403,40.686312,-73.935775,casual
68123,692C1EFEBD4BB228,electric_bike,2022-02-23 23:48:23,2022-02-24 00:01:28,S 3 St & Bedford Ave,5235,Lewis Ave & Madison St,4425,40.71260486,-73.96264403,40.686312,-73.935775,casual
68130,2C5334E0B2875ACD,electric_bike,2022-02-20 13:25:36,2022-02-20 13:31:58,Suydam St & Broadway,4689,Lewis Ave & Madison St,4425,40.69544,-73.93223,40.686312,-73.935775,casual
68133,2ABFD3F19FBA4B14,electric_bike,2022-02-21 23:13:28,2022-02-21 23:26:53,S 3 St & Bedford Ave,5235,Lewis Ave & Madison St,4425,40.71260486,-73.96264403,40.686312,-73.935775,casual
68352,F772304D2A57159C,electric_bike,2022-02-16 16:29:19,2022-02-16 16:42:23,Adelphi St & Myrtle Ave,4620,Lewis Ave & Madison St,4425,40.69308257,-73.97178913,40.686312,-73.935775,member
68436,68A3519A97707DCD,electric_bike,2022-02-27 18:32:41,2022-02-27 18:41:51,Cambridge Pl & Gates Ave,4377,Lewis Ave & Madison St,4425,40.68488,-73.96304,40.686312,-73.935775,member
68468,74131C80D68E05B8,electric_bike,2022-02-25 00:04:20,2022-02-25 00:32:14,Rutgers St & Henry St,5230,Lewis Ave & Madison St,4425,40.71332151208186,-73.99009689688683,40.686312,-73.935775,casual
68479,0F85B30884A3C8CE,electric_bike,2022-02-22 12:32:56,2022-02-22 12:49:56,Grove St & Broadway,4526,Lewis Ave & Madison St,4425,40.69047,-73.923511,40.686312,-73.935775,member
68562,D24EDDB188EA6A44,electric_bike,2022-02-18 18:13:05,2022-02-18 18:32:48,Driggs Ave & N Henry St,5542,Lewis Ave & Madison St,4425,40.72325,-73.94308,40.686312,-73.935775,member
68618,8AD000C64E132457,classic_bike,2022-02-20 11:18:20,2022-02-20 11:27:26,Monroe St & Bedford Ave,4368,Lewis Ave & Madison St,4425,40.6851443,-73.95380904,40.686312,-73.935775,member
68619,F14D314A1795AC95,classic_bike,2022-02-15 18:51:31,2022-02-15 18:59:08,Monroe St & Bedford Ave,4368,Lewis Ave & Madison St,4425,40.6851443,-73.95380904,40.686312,-73.935775,member
68671,A1BBBDAF178369C0,electric_bike,2022-02-21 09:55:09,2022-02-21 10:04:18,Lafayette Ave & St James Pl,4494,Lewis Ave & Madison St,4425,40.68851534,-73.9647628,40.686312,-73.935775,member
68710,C463FFCB6C3CD8EB,classic_bike,2022-02-12 17:49:51,2022-02-12 17:57:21,Halsey St & Tompkins Ave,4319,Lewis Ave & Madison St,4425,40.6823687,-73.944118,40.686312,-73.935775,member
68711,5C55A1A0B3E93946,electric_bike,2022-02-12 20:12:48,2022-02-12 20:16:01,Halsey St & Tompkins Ave,4319,Lewis Ave & Madison St,4425,40.6823687,-73.944118,40.686312,-73.935775,member
68713,AF989D1F0DDDE7E1,classic_bike,2022-02-26 13:02:04,2022-02-26 13:06:20,Halsey St & Tompkins Ave,4319,Lewis Ave & Madison St,4425,40.6823687,-73.944118,40.686312,-73.935775,member
68730,3B4EEBE07D5A56AF,classic_bike,2022-02-17 15:22:51,2022-02-17 15:37:11,Lafayette Ave & St James Pl,4494,Lewis Ave & Madison St,4425,40.68851534,-73.9647628,40.686312,-73.935775,member
68762,80E6CEE483F1E93A,electric_bike,2022-02-10 15:34:51,2022-02-10 15:51:22,Clermont Ave & Park Ave,4692,Lewis Ave & Madison St,4425,40.69573398,-73.97129668,40.686312,-73.935775,member
68767,3303B40661CB9B0B,classic_bike,2022-02-12 01:58:28,2022-02-12 02:08:32,Cedar St & Myrtle Ave,4751,Lewis Ave & Madison St,4425,40.697842,-73.926241,40.686312,-73.935775,casual
68778,278CA577330F47D3,electric_bike,2022-02-24 19:13:22,2022-02-24 19:24:41,Division Ave & Hooper St,5045,Lewis Ave & Madison St,4425,40.70684203101325,-73.9544353965357,40.686312,-73.935775,member
68785,2C7C34D5F14E350E,electric_bike,2022-02-11 13:21:06,2022-02-11 13:38:52,S 5 Pl & S 5 St,5125,Lewis Ave & Madison St,4425,40.710451,-73.960876,40.686312,-73.935775,casual
68832,6D04A69808C7A399,electric_bike,2022-02-13 02:08:15,2022-02-13 02:22:11,Bond St & Bergen St,4404,Lewis Ave & Madison St,4425,40.6849668,-73.98620772,40.686312,-73.935775,member
68846,A0CD795272536A15,electric_bike,2022-02-15 18:38:31,2022-02-15 19:00:33,Monroe St & Tompkins Ave,4434,Lewis Ave & Madison St,4425,40.686203,-73.944694,40.686312,-73.935775,casual
68860,C69919665AE1EE79,electric_bike,2022-02-02 22:15:44,2022-02-02 22:29:10,Jackson St & Leonard St,5332,Lewis Ave & Madison St,4425,40.71638031973561,-73.94821286201477,40.686312,-73.935775,casual
68954,26FF81398483CF8E,electric_bike,2022-02-16 21:34:05,2022-02-16 21:56:36,Fulton St & Clermont Ave,4386,Lewis Ave & Madison St,4425,40.68415748,-73.96922273,40.686312,-73.935775,member
68968,3B0CF2DC63B6378A,classic_bike,2022-02-11 18:45:48,2022-02-11 19:00:23,Lorimer St & Broadway,4965,Lewis Ave & Madison St,4425,40.70411791,-73.94818595,40.686312,-73.935775,member
68996,DF059234343694C8,electric_bike,2022-02-07 16:47:17,2022-02-07 17:03:49,Prospect Pl & Underhill Ave,4116,Lewis Ave & Madison St,4425,40.6769694,-73.96579,40.686312,-73.935775,member
68998,17F348392EB1CD91,electric_bike,2022-02-17 19:37:22,2022-02-17 19:46:33,Greene Ave & Nostrand Ave,4519,Lewis Ave & Madison St,4425,40.6883337,-73.950916,40.686312,-73.935775,member
69000,BC1D053208532F9A,electric_bike,2022-02-05 00:43:51,2022-02-05 00:56:18,Park Pl & Franklin Ave,4033,Lewis Ave & Madison St,4425,40.6741806,-73.9564947,40.686312,-73.935775,member
69002,E3275B1CAF60B111,electric_bike,2022-02-14 12:36:16,2022-02-14 12:46:32,DeKalb Ave & Franklin Ave,4528,Lewis Ave & Madison St,4425,40.69064807082943,-73.95746178925037,40.686312,-73.935775,member
69015,33044D3C623B626E,electric_bike,2022-02-13 12:34:55,2022-02-13 12:46:37,DeKalb Ave & Franklin Ave,4528,Lewis Ave & Madison St,4425,40.69064807082943,-73.95746178925037,40.686312,-73.935775,member
69025,91E25BE3F7DC7334,electric_bike,2022-02-06 11:52:56,2022-02-06 12:04:04,DeKalb Ave & Franklin Ave,4528,Lewis Ave & Madison St,4425,40.69064807082943,-73.95746178925037,40.686312,-73.935775,member
69166,58C11F549E53C638,electric_bike,2022-02-21 18:26:12,2022-02-21 18:43:16,Plaza St East & Flatbush Ave,4010,Lewis Ave & Madison St,4425,40.673134,-73.969106,40.686312,-73.935775,member
69176,AD4E6CC5FDF5E7B1,classic_bike,2022-02-12 10:23:54,2022-02-12 10:39:10,Plaza St East & Flatbush Ave,4010,Lewis Ave & Madison St,4425,40.673134,-73.969106,40.686312,-73.935775,casual
69180,148683CCEEF0D805,electric_bike,2022-02-11 17:48:53,2022-02-11 18:12:52,Metropolitan Ave & Meeker Ave,5300,Lewis Ave & Madison St,4425,40.71413311,-73.95234386,40.686312,-73.935775,member
69182,89C178962C9B3C46,electric_bike,2022-02-15 01:07:19,2022-02-15 01:19:21,Metropolitan Ave & Meeker Ave,5300,Lewis Ave & Madison St,4425,40.71413311,-73.95234386,40.686312,-73.935775,casual
69508,EA8995D0B84A6C92,electric_bike,2022-02-17 13:07:19,2022-02-17 13:33:42,Driggs Ave & N Henry St,5542,Lewis Ave & Madison St,4425,40.72325,-73.94308,40.686312,-73.935775,member
69945,884CF3F2A8FC063C,classic_bike,2022-02-23 00:02:55,2022-02-23 00:08:42,Kingston Ave & Herkimer St,4205,Lewis Ave & Madison St,4425,40.67890679,-73.94142771,40.686312,-73.935775,member
70323,7F385C038702D256,classic_bike,2022-02-26 12:06:41,2022-02-26 12:32:01,West Drive & Prospect Park West,3651,Lewis Ave & Madison St,4425,40.6610633719006,-73.97945255041122,40.686312,-73.935775,casual
84063,272301E72EAE6604,electric_bike,2022-02-12 16:35:20,2022-02-12 16:58:13,Lewis Ave & Madison St,4425,10 St & 5 Ave,3842,40.686312,-73.935775,40.6686273,-73.98700053,casual
85194,122F979F0B117B8E,electric_bike,2022-02-01 08:49:39,2022-02-01 08:58:17,Lewis Ave & Madison St,4425,Monroe St & Classon Ave,4336,40.686312,-73.935775,40.6845683,-73.95881081,member
85198,0F6F07BA039CE42F,electric_bike,2022-02-21 16:36:10,2022-02-21 16:43:17,Lewis Ave & Madison St,4425,Monroe St & Classon Ave,4336,40.686312,-73.935775,40.6845683,-73.95881081,casual
85323,163268F130D9AD05,classic_bike,2022-02-10 16:55:24,2022-02-10 17:01:16,Lewis Ave & Madison St,4425,Putnam Ave & Nostrand Ave,4327,40.686312,-73.935775,40.68402,-73.94977,member
85324,2F8AA16F56B86BD0,electric_bike,2022-02-21 16:23:15,2022-02-21 16:33:55,Lewis Ave & Madison St,4425,Monroe St & Classon Ave,4336,40.686312,-73.935775,40.6845683,-73.95881081,member
86465,7D26502A150BBC7A,electric_bike,2022-02-17 19:55:52,2022-02-17 20:06:31,Lewis Ave & Madison St,4425,Monroe St & Classon Ave,4336,40.686312,-73.935775,40.6845683,-73.95881081,casual
94718,5DD45DD3EF9516C3,classic_bike,2022-02-18 23:19:09,2022-02-18 23:24:34,Lewis Ave & Madison St,4425,Myrtle Ave & Lewis Ave,4729,40.686312,-73.935775,40.69681963,-73.93756926,member
94723,85ED92C366456D4D,classic_bike,2022-02-10 08:29:31,2022-02-10 08:34:34,Lewis Ave & Madison St,4425,Myrtle Ave & Lewis Ave,4729,40.686312,-73.935775,40.69681963,-73.93756926,member
94724,7F779021F01E22D4,electric_bike,2022-02-11 08:01:54,2022-02-11 08:05:55,Lewis Ave & Madison St,4425,Myrtle Ave & Lewis Ave,4729,40.686312,-73.935775,40.69681963,-73.93756926,member
94761,6962DECFF25CB849,electric_bike,2022-02-13 03:07:07,2022-02-13 03:10:16,Lewis Ave & Madison St,4425,Myrtle Ave & Lewis Ave,4729,40.686312,-73.935775,40.69681963,-73.93756926,member
97510,39A3915D6EFD517E,classic_bike,2022-02-19 09:26:12,2022-02-19 09:41:33,Lewis Ave & Madison St,4425,Lorimer St & Broadway,4965,40.686312,-73.935775,40.70411791,-73.94818595,member
102493,093C767D822F372D,electric_bike,2022-02-10 07:39:33,2022-02-10 07:54:07,Lewis Ave & Madison St,4425,DeKalb Ave & Vanderbilt Ave,4461,40.686312,-73.935775,40.68940747,-73.96885458,casual
104236,ED026D988C1E0744,electric_bike,2022-02-13 17:42:10,2022-02-13 17:47:10,Lewis Ave & Madison St,4425,Albany Ave & Fulton St,4237,40.686312,-73.935775,40.6800105,-73.938475,casual
105198,42A158C88FCD97B0,electric_bike,2022-02-21 09:41:07,2022-02-21 10:30:15,Lewis Ave & Madison St,4425,Albany Ave & Fulton St,4237,40.686312,-73.935775,40.6800105,-73.938475,member
115725,9F3E790B01BAB40E,electric_bike,2022-02-17 12:56:29,2022-02-18 13:56:23,Lewis Ave & Madison St,4425,,nan,40.686312,-73.935775,,,member
115908,F4E055C62800FC72,classic_bike,2022-02-11 07:20:45,2022-02-11 12:31:59,Lewis Ave & Madison St,4425,,nan,40.686312,-73.935775,40.71,-73.97,member
115916,3DD3DCEB79CBEDBF,classic_bike,2022-02-28 09:29:30,2022-02-28 09:55:54,Lewis Ave & Madison St,4425,Dock St & Front St,4903,40.686312,-73.935775,40.702709,-73.99253,member
126201,DE96473D54891211,electric_bike,2022-02-21 20:49:25,2022-02-21 21:11:04,Berry St & N 8 St,5379,Lewis Ave & Madison St,4425,40.7190095,-73.95852515,40.686312,-73.935775,member
126219,9841B01A4EAD7D8D,electric_bike,2022-02-16 23:37:23,2022-02-17 00:01:48,Suffolk St & Stanton St,5445,Lewis Ave & Madison St,4425,40.72066442,-73.98517977,40.686312,-73.935775,member
126334,89E37FE2E69D16B3,electric_bike,2022-02-08 18:00:05,2022-02-08 18:30:31,4 Ave & E 12 St,5788,Lewis Ave & Madison St,4425,40.732647,-73.99011,40.686312,-73.935775,member
126335,93926AC582EFD46C,electric_bike,2022-02-07 12:10:37,2022-02-07 12:22:06,DeKalb Ave & Franklin Ave,4528,Lewis Ave & Madison St,4425,40.69064807082943,-73.95746178925037,40.686312,-73.935775,member
126337,C074F9350677381F,electric_bike,2022-02-09 12:06:44,2022-02-09 12:19:28,DeKalb Ave & Franklin Ave,4528,Lewis Ave & Madison St,4425,40.69064807082943,-73.95746178925037,40.686312,-73.935775,member
126338,911D3017C06AA3E0,electric_bike,2022-02-10 11:36:01,2022-02-10 11:49:00,DeKalb Ave & Franklin Ave,4528,Lewis Ave & Madison St,4425,40.69064807082943,-73.95746178925037,40.686312,-73.935775,member
126506,E76A0F60572DD932,electric_bike,2022-02-03 16:58:10,2022-02-03 17:06:10,Throop Ave & Myrtle Ave,4697,Lewis Ave & Madison St,4425,40.69622937,-73.94371094,40.686312,-73.935775,member
126527,90856E6AC3890F08,classic_bike,2022-02-23 08:29:00,2022-02-23 08:42:25,Sterling St & Bedford Ave,3665,Lewis Ave & Madison St,4425,40.6627059,-73.9569115,40.686312,-73.935775,member
126549,211DF48B180FF86E,electric_bike,2022-02-05 15:02:23,2022-02-05 15:29:46,Greene St & Prince St,5602,Lewis Ave & Madison St,4425,40.72511734422387,-73.99930492043495,40.686312,-73.935775,member
126561,EBE62CE3A380F1CE,classic_bike,2022-02-06 08:39:13,2022-02-06 08:51:48,Park Pl & Franklin Ave,4033,Lewis Ave & Madison St,4425,40.6741806,-73.9564947,40.686312,-73.935775,member
126590,436832F36BFECDED,classic_bike,2022-02-28 12:05:13,2022-02-28 12:17:56,Halsey St & Broadway,4366,Lewis Ave & Madison St,4425,40.68565,-73.91564,40.686312,-73.935775,casual
126605,5F4ABB9EB102E7E6,electric_bike,2022-02-11 16:26:37,2022-02-11 16:51:56,Onderdonk Ave & Dekalb Ave,5115,Lewis Ave & Madison St,4425,40.70863,-73.91497,40.686312,-73.935775,member
126606,BEA193B537E3FBF7,electric_bike,2022-02-08 09:43:43,2022-02-08 09:49:40,Grove St & Broadway,4526,Lewis Ave & Madison St,4425,40.69047,-73.923511,40.686312,-73.935775,member
126611,9D9EA936EC43E4D4,classic_bike,2022-02-20 14:24:58,2022-02-20 14:34:32,Cambridge Pl & Gates Ave,4377,Lewis Ave & Madison St,4425,40.68488,-73.96304,40.686312,-73.935775,member
126623,A2F8105027F2FFFE,electric_bike,2022-02-23 15:55:50,2022-02-23 16:08:51,Grove St & Broadway,4526,Lewis Ave & Madison St,4425,40.69047,-73.923511,40.686312,-73.935775,casual
126627,45E25DE4D0922F76,classic_bike,2022-02-10 15:00:14,2022-02-10 15:12:24,Fulton St & Waverly Ave,4345,Lewis Ave & Madison St,4425,40.68323865460341,-73.96599590778351,40.686312,-73.935775,member
126721,014A93A95745AEE8,electric_bike,2022-02-23 15:24:51,2022-02-23 15:47:12,Bergen St & Smith St,4446,Lewis Ave & Madison St,4425,40.6867443,-73.99063168,40.686312,-73.935775,casual
126737,89BF6E5A01344AC3,electric_bike,2022-02-08 19:10:15,2022-02-08 19:54:59,Lafayette Ave & Ft Greene Pl,4470,Lewis Ave & Madison St,4425,40.68700231292619,-73.97664964199066,40.686312,-73.935775,member
126745,AB60C35C3359FACB,electric_bike,2022-02-14 19:00:08,2022-02-14 19:14:19,Plaza St East & Flatbush Ave,4010,Lewis Ave & Madison St,4425,40.673134,-73.969106,40.686312,-73.935775,member
126751,043F84A8D6214175,classic_bike,2022-02-05 00:07:58,2022-02-05 00:43:44,Lafayette Ave & Ft Greene Pl,4470,Lewis Ave & Madison St,4425,40.68700231292619,-73.97664964199066,40.686312,-73.935775,casual
126784,E3BC04B55119D24D,classic_bike,2022-02-10 08:04:49,2022-02-10 08:22:31,Plaza St East & Flatbush Ave,4010,Lewis Ave & Madison St,4425,40.673134,-73.969106,40.686312,-73.935775,casual
126789,043D996997683290,electric_bike,2022-02-11 22:51:19,2022-02-11 23:17:58,Cooper Square & Astor Pl,5712,Lewis Ave & Madison St,4425,40.72951496224949,-73.99075269699097,40.686312,-73.935775,member
126790,64983A4A24DA974C,electric_bike,2022-02-21 01:20:59,2022-02-21 01:45:24,Cooper Square & Astor Pl,5712,Lewis Ave & Madison St,4425,40.72951496224949,-73.99075269699097,40.686312,-73.935775,member
126810,B9838BA3F23A7668,electric_bike,2022-02-08 07:29:45,2022-02-08 07:44:13,Plaza St East & Flatbush Ave,4010,Lewis Ave & Madison St,4425,40.673134,-73.969106,40.686312,-73.935775,casual
126833,3D2514AB3E7C6EA9,classic_bike,2022-02-18 20:42:53,2022-02-18 21:12:11,S 5 Pl & S 5 St,5125,Lewis Ave & Madison St,4425,40.710451,-73.960876,40.686312,-73.935775,member
126892,057C0DD4C6983EDF,electric_bike,2022-02-02 18:22:40,2022-02-02 18:46:27,Bergen St & Smith St,4446,Lewis Ave & Madison St,4425,40.6867443,-73.99063168,40.686312,-73.935775,member
126899,E29950789D3C41C1,electric_bike,2022-02-12 19:20:12,2022-02-12 19:30:26,Lorimer St & Broadway,4965,Lewis Ave & Madison St,4425,40.70411791,-73.94818595,40.686312,-73.935775,member
126907,30D07AB701E39EAC,classic_bike,2022-02-11 12:09:31,2022-02-11 12:22:28,DeKalb Ave & Franklin Ave,4528,Lewis Ave & Madison St,4425,40.69064807082943,-73.95746178925037,40.686312,-73.935775,member
126909,3006D382FF4A0267,classic_bike,2022-02-12 16:56:31,2022-02-12 17:18:46,Lorimer St & Broadway,4965,Lewis Ave & Madison St,4425,40.70411791,-73.94818595,40.686312,-73.935775,member
126913,70F1524A0AD11356,electric_bike,2022-02-10 01:51:01,2022-02-10 02:15:52,E 3 St & 1 Ave,5553,Lewis Ave & Madison St,4425,40.72467721,-73.98783413,40.686312,-73.935775,member
126920,A593828EB913DA76,classic_bike,2022-02-19 19:01:22,2022-02-19 19:17:09,Myrtle Ave & Linden St,4816,Lewis Ave & Madison St,4425,40.69943,-73.91337,40.686312,-73.935775,member
126930,8DE7C3921F4C4007,classic_bike,2022-02-12 19:58:22,2022-02-12 20:01:25,Putnam Ave & Throop Ave,4392,Lewis Ave & Madison St,4425,40.6851532,-73.94111,40.686312,-73.935775,member
126939,F34C4456B2840F00,classic_bike,2022-02-10 14:40:40,2022-02-10 14:58:37,Knickerbocker Ave & Thames St,5018,Lewis Ave & Madison St,4425,40.70539,-73.92976,40.686312,-73.935775,member
126942,7572AACC770D77F8,electric_bike,2022-02-07 18:20:23,2022-02-07 18:36:07,Knickerbocker Ave & Thames St,5018,Lewis Ave & Madison St,4425,40.70539,-73.92976,40.686312,-73.935775,member
126965,A0851F459D2D2466,classic_bike,2022-02-17 19:22:25,2022-02-17 19:45:53,Sterling St & Bedford Ave,3665,Lewis Ave & Madison St,4425,40.6627059,-73.9569115,40.686312,-73.935775,casual
126996,2255DAB5886B2226,electric_bike,2022-02-20 19:20:07,2022-02-20 19:33:10,Myrtle Ave & Linden St,4816,Lewis Ave & Madison St,4425,40.69943,-73.91337,40.686312,-73.935775,member
127036,1D5F9843FC4D896B,electric_bike,2022-02-23 01:08:55,2022-02-23 01:12:01,Pulaski St & Marcus Garvey Blvd,4656,Lewis Ave & Madison St,4425,40.6933982,-73.939877,40.686312,-73.935775,member
127039,CFF754D8CAFB20F9,electric_bike,2022-02-25 19:50:58,2022-02-25 19:54:23,Pulaski St & Marcus Garvey Blvd,4656,Lewis Ave & Madison St,4425,40.6933982,-73.939877,40.686312,-73.935775,member
127043,CA688C48A436FF0B,classic_bike,2022-02-12 11:06:10,2022-02-12 11:28:59,Pulaski St & Marcus Garvey Blvd,4656,Lewis Ave & Madison St,4425,40.6933982,-73.939877,40.686312,-73.935775,member
127055,4F97F93DA43BE415,classic_bike,2022-02-17 08:08:17,2022-02-17 08:16:51,Willoughby Ave & Tompkins Ave,4665,Lewis Ave & Madison St,4425,40.69425403,-73.94626915,40.686312,-73.935775,member
127084,552664EB5F684E4C,electric_bike,2022-02-12 00:50:59,2022-02-12 01:01:26,Central Ave & Flushing Ave,4947,Lewis Ave & Madison St,4425,40.702831,-73.9333,40.686312,-73.935775,casual
127091,9B00FF80517663A9,classic_bike,2022-02-16 18:57:18,2022-02-16 19:09:49,Fulton St & Waverly Ave,4345,Lewis Ave & Madison St,4425,40.68323865460341,-73.96599590778351,40.686312,-73.935775,member
127092,93A459E312741E1E,electric_bike,2022-02-28 12:03:45,2022-02-28 12:24:15,Park Pl & Franklin Ave,4033,Lewis Ave & Madison St,4425,40.6741806,-73.9564947,40.686312,-73.935775,casual
127112,42CD12655C7D0670,classic_bike,2022-02-20 13:36:25,2022-02-20 14:29:03,Queens Plaza North & Crescent St,6429,Lewis Ave & Madison St,4425,40.75110165,-73.94073717,40.686312,-73.935775,casual
127117,BCBB5A57767E849F,electric_bike,2022-02-26 12:23:12,2022-02-26 12:35:31,Park Pl & Franklin Ave,4033,Lewis Ave & Madison St,4425,40.6741806,-73.9564947,40.686312,-73.935775,member
127137,32363D975CCAC76D,electric_bike,2022-02-09 08:49:56,2022-02-09 08:57:36,Greene Ave & Nostrand Ave,4519,Lewis Ave & Madison St,4425,40.6883337,-73.950916,40.686312,-73.935775,casual
127139,B1DC4C2E95402DF2,electric_bike,2022-02-06 09:34:30,2022-02-06 09:56:33,Flatbush Ave & Eastern Pkwy,3856,Lewis Ave & Madison St,4425,40.668757,-73.966438,40.686312,-73.935775,casual
127165,D677ACAE04F5D2D5,electric_bike,2022-02-02 19:50:40,2022-02-02 20:02:24,S 4 St & Rodney St,5156,Lewis Ave & Madison St,4425,40.70934,-73.95608,40.686312,-73.935775,member
127191,966AF2431A4B4289,electric_bike,2022-02-27 21:26:57,2022-02-27 21:31:33,Monroe St & Tompkins Ave,4434,Lewis Ave & Madison St,4425,40.686203,-73.944694,40.686312,-73.935775,member
127215,9B6B2E2D17D17C3B,classic_bike,2022-02-11 16:07:14,2022-02-11 16:23:01,Bedford Ave & Bergen St,4066,Lewis Ave & Madison St,4425,40.676368,-73.952918,40.686312,-73.935775,casual
127291,B7AD9B468253242D,electric_bike,2022-02-21 00:33:58,2022-02-21 00:49:05,Roebling St & N 4 St,5267,Lewis Ave & Madison St,4425,40.71469,-73.95739,40.686312,-73.935775,casual
127604,35503E6070F2A6CC,classic_bike,2022-02-25 17:42:14,2022-02-25 17:49:11,Monroe St & Bedford Ave,4368,Lewis Ave & Madison St,4425,40.6851443,-73.95380904,40.686312,-73.935775,member
127607,D1CF63D91ADA78E2,classic_bike,2022-02-05 15:51:02,2022-02-05 16:30:01,N 12 St & Bedford Ave,5450,Lewis Ave & Madison St,4425,40.72079821,-73.95484712,40.686312,-73.935775,member
128892,E2AF0396513FA53E,electric_bike,2022-02-08 20:12:00,2022-02-08 20:18:21,Willoughby Ave & Tompkins Ave,4665,Lewis Ave & Madison St,4425,40.69425403,-73.94626915,40.686312,-73.935775,casual
129049,D34D83AB05023E11,classic_bike,2022-02-21 12:12:22,2022-02-21 12:18:27,Pulaski St & Marcus Garvey Blvd,4656,Lewis Ave & Madison St,4425,40.6933982,-73.939877,40.686312,-73.935775,member
134941,D019A10000B05CDC,electric_bike,2022-02-12 20:36:02,2022-02-12 20:57:01,Lewis Ave & Madison St,4425,Bond St & Bergen St,4404,40.686312,-73.935775,40.6849668,-73.98620772,member
135993,4110B8307D802CC9,electric_bike,2022-02-09 17:24:37,2022-02-09 17:58:39,Lewis Ave & Madison St,4425,10 St & 2 Ave,3922,40.686312,-73.935775,40.671907,-73.993612,member
140674,A994C6075989D7F5,electric_bike,2022-02-28 14:31:52,2022-02-28 14:58:45,Lewis Ave & Madison St,4425,Norfolk St & Broome St,5374,40.686312,-73.935775,40.7172274,-73.98802084,member
140741,68249E5B1910851B,electric_bike,2022-02-28 13:07:38,2022-02-28 13:21:20,Lewis Ave & Madison St,4425,S 3 St & Bedford Ave,5235,40.686312,-73.935775,40.71260486,-73.96264403,casual
140742,2CB8F9CD99625650,electric_bike,2022-02-16 18:10:53,2022-02-16 18:16:21,Lewis Ave & Madison St,4425,Suydam St & Broadway,4689,40.686312,-73.935775,40.69544,-73.93223,casual
140830,9047BBEBB58D974E,electric_bike,2022-02-07 17:30:02,2022-02-07 17:47:52,Lewis Ave & Madison St,4425,S 3 St & Bedford Ave,5235,40.686312,-73.935775,40.71260486,-73.96264403,member
141337,A48120F871A1C69C,classic_bike,2022-02-23 15:00:29,2022-02-23 15:06:30,Lewis Ave & Madison St,4425,Suydam St & Broadway,4689,40.686312,-73.935775,40.69544,-73.93223,member
141439,C1A02F1E3C2C2003,electric_bike,2022-02-11 18:34:47,2022-02-11 19:07:25,Lewis Ave & Madison St,4425,St Marks Pl & 2 Ave,5669,40.686312,-73.935775,40.7284186,-73.98713956,casual
149231,AFB5EEAA570CEBCC,classic_bike,2022-02-08 17:15:34,2022-02-08 17:29:00,Lewis Ave & Madison St,4425,Pacific St & Classon Ave,4148,40.686312,-73.935775,40.6791944,-73.9587903,member
149258,9513A4B4396C7892,electric_bike,2022-02-11 18:59:28,2022-02-11 19:34:03,Lewis Ave & Madison St,4425,Grove St & Broadway,4526,40.686312,-73.935775,40.69047,-73.923511,member
149266,B51E74351E50229B,classic_bike,2022-02-08 09:09:37,2022-02-08 09:16:04,Lewis Ave & Madison St,4425,Grove St & Broadway,4526,40.686312,-73.935775,40.69047,-73.923511,member
153836,8AB7998C23774280,classic_bike,2022-02-09 12:16:49,2022-02-09 12:38:51,Lewis Ave & Madison St,4425,Underhill Ave & Lincoln Pl,4042,40.686312,-73.935775,40.6740123,-73.9671457,member
153891,8BE5160CA3950B62,electric_bike,2022-02-05 11:45:16,2022-02-05 12:13:31,Lewis Ave & Madison St,4425,W Broadway & Spring St,5569,40.686312,-73.935775,40.72494672359416,-74.00165855884552,member
153892,008A7A1D82FED2CA,electric_bike,2022-02-26 23:22:13,2022-02-26 23:35:20,Lewis Ave & Madison St,4425,Cedar St & Myrtle Ave,4751,40.686312,-73.935775,40.697842,-73.926241,casual
154408,A0CF69CC2A9ADB88,classic_bike,2022-02-23 08:37:49,2022-02-23 08:58:25,Lewis Ave & Madison St,4425,Clermont Ave & Park Ave,4692,40.686312,-73.935775,40.69573398,-73.97129668,member
154410,ADC634E8393576DF,electric_bike,2022-02-26 19:06:40,2022-02-26 19:30:19,Lewis Ave & Madison St,4425,Clermont Ave & Park Ave,4692,40.686312,-73.935775,40.69573398,-73.97129668,casual
155100,4E179D86CEC044D0,electric_bike,2022-02-08 15:15:16,2022-02-08 15:23:13,Lewis Ave & Madison St,4425,Lewis Ave & Decatur St,4237,40.686312,-73.935775,40.6814598,-73.934903,casual
155203,C98B9D63264AA75B,electric_bike,2022-02-10 18:03:27,2022-02-10 18:28:59,Lewis Ave & Madison St,4425,Jefferson St & Cypress Ave,5082,40.686312,-73.935775,40.70907,-73.92157,member
155864,67087F68B1A2361E,electric_bike,2022-02-17 18:46:07,2022-02-17 19:05:48,Lewis Ave & Madison St,4425,Bergen St & Flatbush Ave,4281,40.686312,-73.935775,40.680944723477296,-73.97567331790923,member
156161,B90ED35FC499E794,electric_bike,2022-02-28 14:32:06,2022-02-28 14:43:23,Lewis Ave & Madison St,4425,Devoe St & Morgan Ave,5282,40.686312,-73.935775,40.713811,-73.93515,member
160705,CD426ADF95CD2B68,classic_bike,2022-02-23 13:46:05,2022-02-23 14:02:53,Lewis Ave & Madison St,4425,Park Pl & Franklin Ave,4033,40.686312,-73.935775,40.6741806,-73.9564947,casual
160706,2C4DDFAA3DE7BD55,electric_bike,2022-02-12 14:53:07,2022-02-12 15:05:23,Lewis Ave & Madison St,4425,Park Pl & Franklin Ave,4033,40.686312,-73.935775,40.6741806,-73.9564947,casual
165218,FB4280018C794698,electric_bike,2022-02-25 14:16:27,2022-02-25 14:28:31,Lewis Ave & Madison St,4425,Stockholm St & Wilson Ave,4824,40.686312,-73.935775,40.699304,-73.923044,casual
165249,9D4CDE138B39B1A3,electric_bike,2022-02-12 08:38:56,2022-02-12 08:49:02,Lewis Ave & Madison St,4425,Lorimer St & Broadway,4965,40.686312,-73.935775,40.70411791,-73.94818595,member
165257,DEC42F4EE1243F3E,classic_bike,2022-02-21 13:26:31,2022-02-21 13:37:52,Lewis Ave & Madison St,4425,Stockholm St & Wilson Ave,4824,40.686312,-73.935775,40.699304,-73.923044,member
169236,3EDBAC9270D16B4C,classic_bike,2022-02-10 08:58:06,2022-02-10 09:20:57,Lewis Ave & Madison St,4425,Washington Ave & Park Ave,4724,40.686312,-73.935775,40.69610226,-73.96751037,member
179624,C61453617E113665,electric_bike,2022-02-08 22:16:16,2022-02-08 22:26:39,Lewis Ave & Madison St,4425,Rockaway Ave & Bainbridge St,4285,40.686312,-73.935775,40.68319988172761,-73.91166642308235,casual
179636,473DB6A042DF2018,electric_bike,2022-02-20 22:39:00,2022-02-20 22:51:22,Lewis Ave & Madison St,4425,Willoughby Ave & Hall St,4611,40.686312,-73.935775,40.69196035,-73.96536851,member
179676,C5329C98B335ADAC,electric_bike,2022-02-13 17:54:12,2022-02-13 18:10:00,Lewis Ave & Madison St,4425,Willoughby Ave & Hall St,4611,40.686312,-73.935775,40.69196035,-73.96536851,member
179692,1CFCC8F9140A4F25,electric_bike,2022-02-07 23:32:02,2022-02-07 23:41:15,Lewis Ave & Madison St,4425,Rockaway Ave & Bainbridge St,4285,40.686312,-73.935775,40.68319988172761,-73.91166642308235,casual
179693,F7FDD7A85BFEC895,electric_bike,2022-02-10 00:04:57,2022-02-10 00:13:00,Lewis Ave & Madison St,4425,Rockaway Ave & Bainbridge St,4285,40.686312,-73.935775,40.68319988172761,-73.91166642308235,casual
181416,ECD8E807F88EF06E,electric_bike,2022-02-17 17:24:00,2022-02-17 17:37:17,Lewis Ave & Madison St,4425,Leonard St & Maujer St,5148,40.686312,-73.935775,40.7103685423523,-73.94705951213837,casual
181419,106F5CADD6ACD92B,electric_bike,2022-02-12 03:45:17,2022-02-12 03:56:30,Lewis Ave & Madison St,4425,Bushwick Ave & Linden St,4600,40.686312,-73.935775,40.69146,-73.92146,casual
181626,5F0ECC927506E81B,classic_bike,2022-02-12 18:20:01,2022-02-12 18:40:07,Lewis Ave & Madison St,4425,DeKalb Ave & Hudson Ave,4513,40.686312,-73.935775,40.689888,-73.981013,casual
185570,830F4FD94584D5D5,electric_bike,2022-02-28 20:28:27,2022-02-28 20:43:36,Lewis Ave & Madison St,4425,Manhattan Av & Leonard St,5442,40.686312,-73.935775,40.72084,-73.94844,member
190508,54546926550CD756,electric_bike,2022-02-23 12:44:14,2022-02-23 12:58:03,Lewis Ave & Madison St,4425,Sullivan Pl & Franklin Ave,3704,40.686312,-73.935775,40.66407983678161,-73.96025128666679,casual
192090,1D8A62F8A41BFF33,electric_bike,2022-02-18 21:56:15,2022-02-18 22:10:24,Lewis Ave & Madison St,4425,S 4 St & Rodney St,5156,40.686312,-73.935775,40.70934,-73.95608,casual
192676,B3D2B70B9E3636DA,electric_bike,2022-02-04 05:06:06,2022-02-04 05:17:36,Lewis Ave & Madison St,4425,S 4 St & Rodney St,5156,40.686312,-73.935775,40.70934,-73.95608,member
192681,2E499078A4FF3D22,electric_bike,2022-02-11 05:56:34,2022-02-11 06:08:44,Lewis Ave & Madison St,4425,S 4 St & Rodney St,5156,40.686312,-73.935775,40.70934,-73.95608,member
194909,E75B6B0777111354,electric_bike,2022-02-23 16:35:41,2022-02-23 16:43:21,Lewis Ave & Madison St,4425,Melrose St & Broadway,4801,40.686312,-73.935775,40.697481,-73.935877,casual
194910,F3CB05A89447AEAF,electric_bike,2022-02-25 18:22:25,2022-02-25 18:28:04,Lewis Ave & Madison St,4425,Melrose St & Broadway,4801,40.686312,-73.935775,40.697481,-73.935877,casual
194914,B4A09A08CBEFF640,classic_bike,2022-02-23 15:22:46,2022-02-23 15:30:41,Lewis Ave & Madison St,4425,Melrose St & Broadway,4801,40.686312,-73.935775,40.697481,-73.935877,casual
200721,0D532BFD156EB636,electric_bike,2022-02-20 15:25:33,2022-02-20 15:37:49,Lewis Ave & Madison St,4425,DeKalb Ave & Vanderbilt Ave,4461,40.686312,-73.935775,40.68940747,-73.96885458,member
202322,B03DA0DFAE16ABEF,electric_bike,2022-02-06 18:17:53,2022-02-06 18:34:52,Lewis Ave & Madison St,4425,Bergen St & 4 Ave,4322,40.686312,-73.935775,40.68256425759694,-73.9798977971077,member
202520,41EFD062E0380391,electric_bike,2022-02-04 18:05:13,2022-02-04 18:20:02,Lewis Ave & Madison St,4425,Myrtle Ave & Grove St,4816,40.686312,-73.935775,40.69905,-73.91516,casual
202952,5912FD073FD9C5D8,classic_bike,2022-02-20 15:55:54,2022-02-20 16:19:24,Lewis Ave & Madison St,4425,Carlton Ave & Dean St,4199,40.686312,-73.935775,40.6809741,-73.9710097,member
204570,38B88048ED35C79B,electric_bike,2022-02-02 11:26:28,2022-02-02 11:44:43,Lewis Ave & Madison St,4425,Frost St & Meeker Ave,5371,40.686312,-73.935775,40.71766197083994,-73.94880026578903,casual
204576,3A55D75469B8527A,classic_bike,2022-02-13 08:32:11,2022-02-13 08:47:44,Lewis Ave & Madison St,4425,Fulton St & Clermont Ave,4386,40.686312,-73.935775,40.68415748,-73.96922273,casual
204670,564C830B998C9422,classic_bike,2022-02-25 19:30:23,2022-02-25 19:48:18,Lewis Ave & Madison St,4425,Stewart Ave & Johnson Ave,5123,40.686312,-73.935775,40.70869,-73.92587,member
204677,58086AEF3B065C85,electric_bike,2022-02-11 20:07:07,2022-02-11 20:21:07,Lewis Ave & Madison St,4425,Frost St & Meeker Ave,5371,40.686312,-73.935775,40.71766197083994,-73.94880026578903,casual
204678,C1AFDE24EDA8E8A7,electric_bike,2022-02-10 10:12:36,2022-02-10 10:28:41,Lewis Ave & Madison St,4425,Frost St & Meeker Ave,5371,40.686312,-73.935775,40.71766197083994,-73.94880026578903,casual
205014,14FA31AEFB6FB6F6,electric_bike,2022-02-15 10:33:34,2022-02-15 10:49:55,Lewis Ave & Madison St,4425,Grand St & Havemeyer St,5267,40.686312,-73.935775,40.71286844,-73.95698119,member
208096,0FA3D5929CA26C85,classic_bike,2022-02-11 08:34:22,2022-02-11 08:45:37,Lewis Ave & Madison St,4425,Greene Av & Myrtle Av,4784,40.686312,-73.935775,40.698568,-73.918877,member
209197,0843887353A84034,classic_bike,2022-02-26 14:46:55,2022-02-26 14:56:25,Lewis Ave & Madison St,4425,Greene Av & Myrtle Av,4784,40.686312,-73.935775,40.698568,-73.918877,member
209201,A7C61FEA1D376F90,classic_bike,2022-02-18 08:46:41,2022-02-18 08:57:38,Lewis Ave & Madison St,4425,Greene Av & Myrtle Av,4784,40.686312,-73.935775,40.698568,-73.918877,member
209305,7C4EFB116127E395,classic_bike,2022-02-22 23:48:34,2022-02-23 00:02:36,Lewis Ave & Madison St,4425,Evergreen Ave & Noll St,4873,40.686312,-73.935775,40.70106,-73.93318,casual
209308,BA679336FC41271A,electric_bike,2022-02-10 19:20:53,2022-02-10 19:35:01,Lewis Ave & Madison St,4425,Myrtle Ave & Linden St,4816,40.686312,-73.935775,40.69943,-73.91337,casual
213900,21814CF9C2A884C9,classic_bike,2022-02-11 13:07:25,2022-02-11 13:21:30,Lewis Ave & Madison St,4425,Irving Ave & Jefferson St,5051,40.686312,-73.935775,40.70538,-73.92535,casual
213904,8B64A06D1E1B480C,classic_bike,2022-02-11 15:32:49,2022-02-11 15:41:57,Lewis Ave & Madison St,4425,Verona Pl & Fulton St,4124,40.686312,-73.935775,40.6803560840434,-73.9476791024208,casual
213910,C5EA29A771866C6A,electric_bike,2022-02-10 16:44:57,2022-02-10 16:50:04,Lewis Ave & Madison St,4425,Verona Pl & Fulton St,4124,40.686312,-73.935775,40.6803560840434,-73.9476791024208,member
213922,5C95C17C083F4ABA,electric_bike,2022-02-20 12:49:11,2022-02-20 13:02:03,Lewis Ave & Madison St,4425,Bushwick Ave & Stagg St,5140,40.686312,-73.935775,40.709897,-73.94008,casual
213929,ACE1934B0741FF97,electric_bike,2022-02-18 09:39:59,2022-02-18 09:48:36,Lewis Ave & Madison St,4425,Verona Pl & Fulton St,4124,40.686312,-73.935775,40.6803560840434,-73.9476791024208,member
214121,56CC61A687B85224,classic_bike,2022-02-23 18:05:26,2022-02-23 18:12:20,Lewis Ave & Madison St,4425,Verona Pl & Fulton St,4124,40.686312,-73.935775,40.6803560840434,-73.9476791024208,member
214144,A172FAD94DEAED9D,electric_bike,2022-02-11 18:35:07,2022-02-11 18:50:12,Lewis Ave & Madison St,4425,Graham Ave & Conselyea St,5291,40.686312,-73.935775,40.715143,-73.944507,casual
214146,2EC58ED4350839C1,classic_bike,2022-02-12 17:56:15,2022-02-12 18:08:07,Lewis Ave & Madison St,4425,Verona Pl & Fulton St,4124,40.686312,-73.935775,40.6803560840434,-73.9476791024208,casual
214189,84486CAE4A0181B7,electric_bike,2022-02-16 18:05:13,2022-02-16 18:10:53,Lewis Ave & Madison St,4425,Verona Pl & Fulton St,4124,40.686312,-73.935775,40.6803560840434,-73.9476791024208,member
214190,8E0E0EAA62F73C8F,classic_bike,2022-02-17 16:10:49,2022-02-17 16:16:32,Lewis Ave & Madison St,4425,Verona Pl & Fulton St,4124,40.686312,-73.935775,40.6803560840434,-73.9476791024208,member
214498,7450B394C78FB0D8,classic_bike,2022-02-10 23:12:58,2022-02-10 23:30:01,Lewis Ave & Madison St,4425,Verona Pl & Fulton St,4124,40.686312,-73.935775,40.6803560840434,-73.9476791024208,casual
214878,7E37E7E8877B64D7,electric_bike,2022-02-28 11:40:33,2022-02-28 11:55:29,Lewis Ave & Madison St,4425,Bergen St & Vanderbilt Ave,4157,40.686312,-73.935775,40.6794388,-73.9680438,member
215734,096EA125771D4B2E,classic_bike,2022-02-19 15:12:43,2022-02-19 15:29:40,Lewis Ave & Madison St,4425,Bergen St & Vanderbilt Ave,4157,40.686312,-73.935775,40.6794388,-73.9680438,member
231312,362DD90EF159DD4A,electric_bike,2022-02-10 10:58:16,2022-02-10 11:02:48,Lewis Ave & Madison St,4425,Kingston Ave & Herkimer St,4205,40.686312,-73.935775,40.67890679,-73.94142771,member
234140,E9370F312C412491,electric_bike,2022-02-27 17:25:15,2022-02-27 17:31:46,Lewis Ave & Madison St,4425,Kingston Ave & Herkimer St,4205,40.686312,-73.935775,40.67890679,-73.94142771,member
234684,B6E4AEF026EDE78C,electric_bike,2022-02-25 17:55:19,2022-02-25 17:59:56,Lewis Ave & Madison St,4425,Kingston Ave & Herkimer St,4205,40.686312,-73.935775,40.67890679,-73.94142771,casual
244948,1D92BBC630C86059,classic_bike,2022-02-16 09:29:36,2022-02-16 09:40:05,Lewis Ave & Madison St,4425,Nostrand Ave & Myrtle Ave,4707,40.686312,-73.935775,40.69527008,-73.95238108,member
247243,28EA7D7CFE0833B7,electric_bike,2022-02-17 17:28:17,2022-02-17 17:46:56,Lewis Ave & Madison St,4425,Eastern Pkwy & Washington Ave,3928,40.686312,-73.935775,40.6716493,-73.9631145,member
248215,1AF66140948ADD3C,electric_bike,2022-02-16 14:11:57,2022-02-16 14:42:53,Lewis Ave & Madison St,4425,University Pl & E 14 St,5905,40.686312,-73.935775,40.734814,-73.992085,member
248223,2C50704CF3E613E9,electric_bike,2022-02-12 12:54:27,2022-02-12 13:13:14,Lewis Ave & Madison St,4425,Madison St & Cypress Ave,4807,40.686312,-73.935775,40.70068,-73.90742,member
250418,ED1CC5FE006B9070,electric_bike,2022-02-26 19:34:48,2022-02-26 19:41:37,Lewis Ave & Madison St,4425,Marcy Ave & Lafayette Ave,4476,40.686312,-73.935775,40.6900815,-73.947915,casual
252410,F3314EEE431D22B4,classic_bike,2022-02-05 18:58:59,2022-02-05 19:20:06,Lewis Ave & Madison St,4425,Jackson St & Leonard St,5332,40.686312,-73.935775,40.71638031973561,-73.94821286201477,member
252447,31734CBBA3E6D0F5,electric_bike,2022-02-17 07:53:53,2022-02-17 08:38:00,Lewis Ave & Madison St,4425,Broadway\t& W 48 St,6708,40.686312,-73.935775,40.76017739537783,-73.98486793041229,member
252525,1E54BDC2723B7CB3,electric_bike,2022-02-26 16:19:50,2022-02-26 16:25:12,Lewis Ave & Madison St,4425,Marcy Ave & Lafayette Ave,4476,40.686312,-73.935775,40.6900815,-73.947915,member
252536,9DB94229CE046475,electric_bike,2022-02-20 07:37:19,2022-02-20 07:55:27,Lewis Ave & Madison St,4425,N 11 St & Kent Ave,5489,40.686312,-73.935775,40.72248188638219,-73.95921930670738,casual
252554,7C3A356ED4F226C4,electric_bike,2022-02-01 07:51:42,2022-02-01 08:29:45,Lewis Ave & Madison St,4425,University Pl & E 14 St,5905,40.686312,-73.935775,40.734814,-73.992085,member
252614,3313F909A9D72C27,electric_bike,2022-02-26 18:06:28,2022-02-26 18:12:50,Lewis Ave & Madison St,4425,Marcy Ave & Lafayette Ave,4476,40.686312,-73.935775,40.6900815,-73.947915,casual
252624,4D1922C4C352748D,electric_bike,2022-02-10 20:38:27,2022-02-10 20:51:19,Lewis Ave & Madison St,4425,Marcy Ave & Lafayette Ave,4476,40.686312,-73.935775,40.6900815,-73.947915,casual
253212,2451A8B6FC957B8E,classic_bike,2022-02-02 13:08:35,2022-02-02 13:21:44,Lewis Ave & Madison St,4425,Marcy Ave & Lafayette Ave,4476,40.686312,-73.935775,40.6900815,-73.947915,member
260573,D00C2BB6DB63218E,classic_bike,2022-02-23 08:32:42,2022-02-23 08:37:30,Lewis Ave & Madison St,4425,Myrtle Ave & Lewis Ave,4729,40.686312,-73.935775,40.69681963,-73.93756926,member
260574,C801660278CEA9E9,classic_bike,2022-02-18 08:43:57,2022-02-18 08:49:39,Lewis Ave & Madison St,4425,Myrtle Ave & Lewis Ave,4729,40.686312,-73.935775,40.69681963,-73.93756926,member
260611,5EB9839AE12E7E5D,classic_bike,2022-02-05 13:27:54,2022-02-05 13:33:46,Lewis Ave & Madison St,4425,Myrtle Ave & Lewis Ave,4729,40.686312,-73.935775,40.69681963,-73.93756926,member
260612,B74546B41343698A,classic_bike,2022-02-08 08:09:11,2022-02-08 08:15:19,Lewis Ave & Madison St,4425,Myrtle Ave & Lewis Ave,4729,40.686312,-73.935775,40.69681963,-73.93756926,member
260629,BF9E13ADBE287657,electric_bike,2022-02-24 18:41:10,2022-02-24 18:44:54,Lewis Ave & Madison St,4425,Myrtle Ave & Lewis Ave,4729,40.686312,-73.935775,40.69681963,-73.93756926,member
260642,0EBD9BEAF92F60E7,electric_bike,2022-02-16 08:50:24,2022-02-16 08:55:39,Lewis Ave & Madison St,4425,Myrtle Ave & Lewis Ave,4729,40.686312,-73.935775,40.69681963,-73.93756926,member
260657,2403588ED9536DD2,electric_bike,2022-02-05 08:47:33,2022-02-05 08:51:26,Lewis Ave & Madison St,4425,Myrtle Ave & Lewis Ave,4729,40.686312,-73.935775,40.69681963,-73.93756926,casual
260942,3FB7B68E4FC6D1D9,electric_bike,2022-02-26 07:27:38,2022-02-26 07:31:39,Lewis Ave & Madison St,4425,Myrtle Ave & Lewis Ave,4729,40.686312,-73.935775,40.69681963,-73.93756926,member
260945,BA49B489D8CC3B41,electric_bike,2022-02-10 07:41:34,2022-02-10 07:45:28,Lewis Ave & Madison St,4425,Myrtle Ave & Lewis Ave,4729,40.686312,-73.935775,40.69681963,-73.93756926,member
260947,949965432CC38F23,electric_bike,2022-02-17 07:40:43,2022-02-17 07:44:19,Lewis Ave & Madison St,4425,Myrtle Ave & Lewis Ave,4729,40.686312,-73.935775,40.69681963,-73.93756926,member
260977,CB0C8EDF64AF47C9,classic_bike,2022-02-17 08:48:05,2022-02-17 08:52:35,Lewis Ave & Madison St,4425,Myrtle Ave & Lewis Ave,4729,40.686312,-73.935775,40.69681963,-73.93756926,member
261034,7413826A9499BC70,classic_bike,2022-02-17 14:31:09,2022-02-17 14:36:46,Lewis Ave & Madison St,4425,Myrtle Ave & Lewis Ave,4729,40.686312,-73.935775,40.69681963,-73.93756926,member
261230,0792377EF16028AF,electric_bike,2022-02-11 08:33:46,2022-02-11 08:39:03,Lewis Ave & Madison St,4425,Myrtle Ave & Lewis Ave,4729,40.686312,-73.935775,40.69681963,-73.93756926,member
261240,C8A624BB0357AF21,classic_bike,2022-02-27 08:13:28,2022-02-27 08:19:09,Lewis Ave & Madison St,4425,Myrtle Ave & Lewis Ave,4729,40.686312,-73.935775,40.69681963,-73.93756926,casual
263215,7BFAB81D7DCE9B44,electric_bike,2022-02-14 14:22:01,2022-02-14 14:22:01,Lewis Ave & Madison St,4425,,nan,40.686312,-73.935775,40.69,-73.94,member
264532,A2F7AAA188849F48,electric_bike,2022-02-14 13:57:46,2022-02-15 14:57:42,Lewis Ave & Madison St,4425,,nan,40.686312,-73.935775,,,member
266442,3DF0E85D50115F37,electric_bike,2022-02-22 08:45:02,2022-02-22 09:09:15,Lewis Ave & Madison St,4425,Fulton St & Adams St,4637,40.686312,-73.935775,40.69241829257847,-73.98949474096298,member
266667,8BDE4208D1D7444F,electric_bike,2022-02-06 14:08:34,2022-02-06 14:29:21,Lewis Ave & Madison St,4425,3 St & 7 Ave,3905,40.686312,-73.935775,40.6703837,-73.97839676,casual
271596,D07FE324CD9D71C3,electric_bike,2022-02-02 10:53:33,2022-02-02 11:12:29,Lewis Ave & Madison St,4425,Berkeley Pl & 7 Ave,4051,40.686312,-73.935775,40.675146838709786,-73.97523209452629,member
271866,A688ECAB0D9B6C32,electric_bike,2022-02-08 15:37:18,2022-02-08 16:16:46,Lewis Ave & Madison St,4425,E 47 St & 1 Ave,6498,40.686312,-73.935775,40.75206862,-73.96784384,member
281857,BB8D799EAC3FF279,classic_bike,2022-02-12 16:41:39,2022-02-12 16:51:40,Lewis Ave & Madison St,4425,Kosciuszko St & Nostrand Ave,4519,40.686312,-73.935775,40.69072549,-73.95133465,member
281867,56C80A0660018AA5,classic_bike,2022-02-27 13:01:46,2022-02-27 13:10:13,Lewis Ave & Madison St,4425,Kosciuszko St & Nostrand Ave,4519,40.686312,-73.935775,40.69072549,-73.95133465,casual
282695,3573DFAE606584BF,classic_bike,2022-02-09 15:31:16,2022-02-09 15:42:18,Lewis Ave & Madison St,4425,Kosciuszko St & Nostrand Ave,4519,40.686312,-73.935775,40.69072549,-73.95133465,member
282755,637792B08332CCCE,classic_bike,2022-02-26 14:45:57,2022-02-26 14:54:08,Lewis Ave & Madison St,4425,Kosciuszko St & Nostrand Ave,4519,40.686312,-73.935775,40.69072549,-73.95133465,member
282775,E26537AB641F3208,classic_bike,2022-02-14 12:25:52,2022-02-14 12:32:38,Lewis Ave & Madison St,4425,Kosciuszko St & Nostrand Ave,4519,40.686312,-73.935775,40.69072549,-73.95133465,member
283202,0D402EAACD836DC2,electric_bike,2022-02-28 17:42:16,2022-02-28 17:58:46,Bond St & Fulton St,4479,Lewis Ave & Madison St,4425,40.68962188790333,-73.98304268717766,40.686312,-73.935775,member
283250,D2205E6329257F23,classic_bike,2022-02-24 12:28:49,2022-02-24 12:42:48,Lafayette Ave & Classon Ave,4452,Lewis Ave & Madison St,4425,40.68900443,-73.96023854,40.686312,-73.935775,member
283284,9185D0BCF3C8A215,electric_bike,2022-02-01 14:33:03,2022-02-01 14:41:21,Macon St & Nostrand Ave,4214,Lewis Ave & Madison St,4425,40.6809833854,-73.9500479759,40.686312,-73.935775,member
283285,7AD1A3A064822F96,classic_bike,2022-02-17 18:03:54,2022-02-17 18:09:52,Macon St & Nostrand Ave,4214,Lewis Ave & Madison St,4425,40.6809833854,-73.9500479759,40.686312,-73.935775,member
283334,56C18448CBB75D5E,classic_bike,2022-02-06 17:56:06,2022-02-06 18:02:04,Marcy Ave & Lafayette Ave,4476,Lewis Ave & Madison St,4425,40.6900815,-73.947915,40.686312,-73.935775,casual
283374,3B72BABA7957F982,classic_bike,2022-02-28 11:20:59,2022-02-28 11:53:28,Old Fulton St,4903,Lewis Ave & Madison St,4425,40.70277159,-73.99383605,40.686312,-73.935775,member
283427,72D31F37506714C9,classic_bike,2022-02-27 01:21:03,2022-02-27 01:28:53,Monroe St & Bedford Ave,4368,Lewis Ave & Madison St,4425,40.6851443,-73.95380904,40.686312,-73.935775,member
283487,CA4125F727ACCCA2,electric_bike,2022-02-17 20:58:12,2022-02-17 21:05:44,Monroe St & Bedford Ave,4368,Lewis Ave & Madison St,4425,40.6851443,-73.95380904,40.686312,-73.935775,casual
283548,603B3BDFB33E9326,electric_bike,2022-02-03 08:05:58,2022-02-03 08:15:33,Bedford Ave & Bergen St,4066,Lewis Ave & Madison St,4425,40.676368,-73.952918,40.686312,-73.935775,member
283550,4A9A434E6E83A75A,electric_bike,2022-02-20 13:17:30,2022-02-20 13:21:35,Pulaski St & Marcus Garvey Blvd,4656,Lewis Ave & Madison St,4425,40.6933982,-73.939877,40.686312,-73.935775,member
283612,B4C285C3F8A93E9F,electric_bike,2022-02-01 18:47:27,2022-02-01 18:55:53,Throop Ave & Myrtle Ave,4697,Lewis Ave & Madison St,4425,40.69622937,-73.94371094,40.686312,-73.935775,casual
283623,952C092676EDD4EA,electric_bike,2022-02-15 16:26:32,2022-02-15 16:47:21,Flatbush Ave & Eastern Pkwy,3856,Lewis Ave & Madison St,4425,40.668757,-73.966438,40.686312,-73.935775,casual
283627,C862EBC9D8201ADC,electric_bike,2022-02-03 09:39:41,2022-02-03 09:44:45,Greene Ave & Nostrand Ave,4519,Lewis Ave & Madison St,4425,40.6883337,-73.950916,40.686312,-73.935775,casual
283638,46D32BFA4E45AEFA,classic_bike,2022-02-17 19:18:54,2022-02-17 19:46:02,Sterling St & Bedford Ave,3665,Lewis Ave & Madison St,4425,40.6627059,-73.9569115,40.686312,-73.935775,casual
283650,F3C10B7FAF30794F,electric_bike,2022-02-02 21:29:34,2022-02-02 21:37:52,Tompkins Ave & Hopkins St,4850,Lewis Ave & Madison St,4425,40.69957608,-73.94708417,40.686312,-73.935775,member
283679,E9B0314D2A066A14,electric_bike,2022-02-28 13:44:46,2022-02-28 14:18:06,Bayard St & Baxter St,5351,Lewis Ave & Madison St,4425,40.71602118,-73.99974372,40.686312,-73.935775,member
283835,817E79391494517E,electric_bike,2022-02-07 21:00:27,2022-02-07 21:23:38,Cambridge Pl & Gates Ave,4377,Lewis Ave & Madison St,4425,40.68488,-73.96304,40.686312,-73.935775,member
283907,BECC46C61F35A705,electric_bike,2022-02-28 17:32:34,2022-02-28 17:51:45,Plaza St East & Flatbush Ave,4010,Lewis Ave & Madison St,4425,40.673134,-73.969106,40.686312,-73.935775,member
283908,41E74AC920C3F3A2,classic_bike,2022-02-14 16:58:37,2022-02-14 17:22:12,Plaza St East & Flatbush Ave,4010,Lewis Ave & Madison St,4425,40.673134,-73.969106,40.686312,-73.935775,member
283926,543F65D683003905,electric_bike,2022-02-04 16:43:30,2022-02-04 16:58:44,7 Ave & Park Pl,4125,Lewis Ave & Madison St,4425,40.6776147,-73.97324283,40.686312,-73.935775,member
283976,DCF1E5C6EE7C0D9F,electric_bike,2022-02-16 22:15:58,2022-02-16 22:28:24,Marcus Garvey Blvd & Macon St,4278,Lewis Ave & Madison St,4425,40.682601,-73.938037,40.686312,-73.935775,member
283999,113FCAD554A6AC80,electric_bike,2022-02-12 13:12:40,2022-02-12 13:18:05,Broadway & Madison St,4483,Lewis Ave & Madison St,4425,40.68822,-73.91966,40.686312,-73.935775,member
284048,C7E0D3347BEA97DD,electric_bike,2022-02-22 21:35:56,2022-02-22 21:51:02,Frost St & Meeker Ave,5371,Lewis Ave & Madison St,4425,40.71766197083994,-73.94880026578903,40.686312,-73.935775,casual
284052,95786466B9694267,electric_bike,2022-02-17 11:47:41,2022-02-17 12:00:15,Grand St & Havemeyer St,5267,Lewis Ave & Madison St,4425,40.71286844,-73.95698119,40.686312,-73.935775,member
284063,1ED574CE310B5056,classic_bike,2022-02-06 00:51:16,2022-02-06 01:03:35,Tompkins Ave & Hopkins St,4850,Lewis Ave & Madison St,4425,40.69957608,-73.94708417,40.686312,-73.935775,member
284097,04349E56BB216E51,classic_bike,2022-02-10 23:47:26,2022-02-11 00:02:04,Park Pl & Franklin Ave,4033,Lewis Ave & Madison St,4425,40.6741806,-73.9564947,40.686312,-73.935775,casual
284098,1B3089716FBA5B89,electric_bike,2022-02-17 13:17:57,2022-02-17 13:40:47,7 St & 3 Ave,3996,Lewis Ave & Madison St,4425,40.67260298150126,-73.98983001708984,40.686312,-73.935775,casual
284117,A8C8FC45AEB6FB8E,classic_bike,2022-02-26 12:27:09,2022-02-26 12:39:10,Grove St & Broadway,4526,Lewis Ave & Madison St,4425,40.69047,-73.923511,40.686312,-73.935775,casual
284168,075DB654DDF15CBD,electric_bike,2022-02-27 22:11:39,2022-02-27 22:26:44,Graham Ave & Herbert St,5403,Lewis Ave & Madison St,4425,40.71929301,-73.94500379,40.686312,-73.935775,member
284227,B3A98427A4A330A1,electric_bike,2022-02-15 19:02:03,2022-02-15 19:13:54,Rockaway Ave & Bainbridge St,4285,Lewis Ave & Madison St,4425,40.68319988172761,-73.91166642308235,40.686312,-73.935775,member
284271,C1DE77D3F0955BE2,electric_bike,2022-02-25 16:32:34,2022-02-25 17:07:13,Lewis Ave & Madison St,4425,Lewis Ave & Madison St,4425,40.686312,-73.935775,40.686312,-73.935775,member
284287,88F95D0C01722DCF,electric_bike,2022-02-02 10:52:20,2022-02-02 10:53:14,Lewis Ave & Madison St,4425,Lewis Ave & Madison St,4425,40.686312,-73.935775,40.686312,-73.935775,member
284291,23DF0E727367B736,classic_bike,2022-02-20 18:54:02,2022-02-20 19:03:58,DeKalb Ave & Franklin Ave,4528,Lewis Ave & Madison St,4425,40.69064807082943,-73.95746178925037,40.686312,-73.935775,casual
284305,50E0967C450AC3CA,classic_bike,2022-02-25 22:04:03,2022-02-25 22:58:07,Lewis Ave & Madison St,4425,E 44 St & Lexington Ave,6464,40.686312,-73.935775,40.752643,-73.974996,member
284307,0E90F8D9D81FD204,classic_bike,2022-02-17 07:27:34,2022-02-17 08:19:21,E 44 St & Lexington Ave,6464,Lewis Ave & Madison St,4425,40.752643,-73.974996,40.686312,-73.935775,member
284308,3A6F127EB220EFFC,classic_bike,2022-02-11 11:10:34,2022-02-11 12:08:22,E 44 St & Lexington Ave,6464,Lewis Ave & Madison St,4425,40.752643,-73.974996,40.686312,-73.935775,member
284347,79023B7256629A21,classic_bike,2022-02-07 00:43:52,2022-02-07 01:20:56,Lewis Ave & Madison St,4425,Lewis Ave & Madison St,4425,40.686312,-73.935775,40.686312,-73.935775,casual
284387,EF8E7F1C6C3D364F,classic_bike,2022-02-22 08:43:43,2022-02-22 09:20:28,Lewis Ave & Madison St,4425,Lewis Ave & Madison St,4425,40.686312,-73.935775,40.686312,-73.935775,member
284423,732F39D38BD0F6A9,classic_bike,2022-02-16 09:25:03,2022-02-16 09:36:41,Lewis Ave & Madison St,4425,Lefferts Pl & Franklin Ave,4222,40.686312,-73.935775,40.680342423,-73.9557689392,member
284445,77E03D59A2DBA152,electric_bike,2022-02-06 11:38:55,2022-02-06 11:39:18,Lewis Ave & Madison St,4425,Lewis Ave & Madison St,4425,40.686312,-73.935775,40.686312,-73.935775,casual
284452,DD121D946CA16919,electric_bike,2022-02-26 01:06:11,2022-02-26 01:54:09,Lewis Ave & Madison St,4425,Lewis Ave & Madison St,4425,40.686312,-73.935775,40.686312,-73.935775,casual
284459,6D7428F677F17D1B,electric_bike,2022-02-14 19:03:48,2022-02-14 19:21:29,Lefferts Pl & Franklin Ave,4222,Lewis Ave & Madison St,4425,40.680342423,-73.9557689392,40.686312,-73.935775,casual
284461,E21750E4862AD7B3,classic_bike,2022-02-26 12:18:28,2022-02-26 12:41:54,Lewis Ave & Madison St,4425,Lewis Ave & Madison St,4425,40.686312,-73.935775,40.686312,-73.935775,casual
284499,76E74993BA6D4E2D,classic_bike,2022-02-18 13:20:53,2022-02-18 13:42:16,Lewis Ave & Madison St,4425,DeKalb Ave & S Portland Ave,4546,40.686312,-73.935775,40.68981035,-73.97493121,member
284512,2D5E60A14FFF133D,classic_bike,2022-02-01 22:04:57,2022-02-01 22:53:40,Lewis Ave & Madison St,4425,E 44 St & Lexington Ave,6464,40.686312,-73.935775,40.752643,-73.974996,member
284583,757A4A74CA30B67F,classic_bike,2022-02-12 13:03:05,2022-02-12 13:22:44,DeKalb Ave & S Portland Ave,4546,Lewis Ave & Madison St,4425,40.68981035,-73.97493121,40.686312,-73.935775,member
284584,81B0823E973B346F,classic_bike,2022-02-12 16:03:02,2022-02-12 16:31:17,Lewis Ave & Madison St,4425,DeKalb Ave & S Portland Ave,4546,40.686312,-73.935775,40.68981035,-73.97493121,member
284657,FB18D87B9DE75FF0,electric_bike,2022-02-03 14:12:10,2022-02-03 14:12:55,Lewis Ave & Madison St,4425,Lewis Ave & Madison St,4425,40.686312,-73.935775,40.686312,-73.935775,member
284698,2C3D615DAF0B13CD,electric_bike,2022-02-05 08:45:49,2022-02-05 08:46:26,Lewis Ave & Madison St,4425,Lewis Ave & Madison St,4425,40.686312,-73.935775,40.686312,-73.935775,casual
284710,BAD1444A44F96281,electric_bike,2022-02-23 00:02:16,2022-02-23 00:23:10,Lewis Ave & Madison St,4425,Lewis Ave & Madison St,4425,40.686312,-73.935775,40.686312,-73.935775,casual
284711,83785A9AE9A67731,classic_bike,2022-02-11 16:46:09,2022-02-11 17:12:00,Lewis Ave & Madison St,4425,DeKalb Ave & S Portland Ave,4546,40.686312,-73.935775,40.68981035,-73.97493121,casual
284715,1DC84569976EF033,electric_bike,2022-02-28 10:01:57,2022-02-28 10:22:21,Lewis Ave & Madison St,4425,Lewis Ave & Madison St,4425,40.686312,-73.935775,40.686312,-73.935775,casual
284716,DEAA46707A36DDD9,electric_bike,2022-02-12 15:20:50,2022-02-12 15:50:50,Rivington St & Ridge St,5406,Lewis Ave & Madison St,4425,40.71850211,-73.98329859,40.686312,-73.935775,casual
284727,69CCF90BD9145A5C,classic_bike,2022-02-09 21:05:03,2022-02-09 21:31:04,Lewis Ave & Madison St,4425,Lewis Ave & Madison St,4425,40.686312,-73.935775,40.686312,-73.935775,casual
284769,2031AA2B4C0CBC9E,classic_bike,2022-02-22 22:06:01,2022-02-22 22:50:36,Lewis Ave & Madison St,4425,E 44 St & Lexington Ave,6464,40.686312,-73.935775,40.752643,-73.974996,member
284770,5DF7FA863886BC9C,electric_bike,2022-02-22 07:26:09,2022-02-22 08:02:44,E 44 St & Lexington Ave,6464,Lewis Ave & Madison St,4425,40.752643,-73.974996,40.686312,-73.935775,member
284774,1AFC7D9DB93B8CAD,classic_bike,2022-02-02 22:10:45,2022-02-02 22:56:19,Lewis Ave & Madison St,4425,E 44 St & Lexington Ave,6464,40.686312,-73.935775,40.752643,-73.974996,member
284776,B74E130B7FB801E5,classic_bike,2022-02-23 21:58:13,2022-02-23 22:53:49,Lewis Ave & Madison St,4425,E 44 St & Lexington Ave,6464,40.686312,-73.935775,40.752643,-73.974996,member
284777,231BEF5469144CDB,classic_bike,2022-02-24 11:33:09,2022-02-24 12:30:09,E 44 St & Lexington Ave,6464,Lewis Ave & Madison St,4425,40.752643,-73.974996,40.686312,-73.935775,member
284792,0B0BFEC00F2E7567,electric_bike,2022-02-26 14:05:38,2022-02-26 14:23:11,Lewis Ave & Madison St,4425,N 6 St & Bedford Ave,5379,40.686312,-73.935775,40.71745169,-73.95850939,member
284800,DCE52827D9377B87,electric_bike,2022-02-01 04:44:45,2022-02-01 04:51:30,Macon St & Nostrand Ave,4214,Lewis Ave & Madison St,4425,40.6809833854,-73.9500479759,40.686312,-73.935775,member
284861,67A23C1200C6F378,classic_bike,2022-02-17 17:33:53,2022-02-17 18:23:09,Broadway & Morris St,5033,Lewis Ave & Madison St,4425,40.705945132708806,-74.01321887969969,40.686312,-73.935775,casual
284897,D4AE1039566458C2,classic_bike,2022-02-17 22:19:08,2022-02-17 22:26:51,Monroe St & Classon Ave,4336,Lewis Ave & Madison St,4425,40.6845683,-73.95881081,40.686312,-73.935775,member
284903,C0DA91EC17263F21,electric_bike,2022-02-15 18:12:12,2022-02-15 18:25:18,Devoe St & Lorimer St,5259,Lewis Ave & Madison St,4425,40.71335226222875,-73.9491033554077,40.686312,-73.935775,casual
284906,6EF42B7DF6162950,electric_bike,2022-02-07 18:00:26,2022-02-07 18:09:41,Macon St & Nostrand Ave,4214,Lewis Ave & Madison St,4425,40.6809833854,-73.9500479759,40.686312,-73.935775,member
284907,B2BCE169A3D8D5E9,electric_bike,2022-02-10 17:18:41,2022-02-10 17:24:02,Macon St & Nostrand Ave,4214,Lewis Ave & Madison St,4425,40.6809833854,-73.9500479759,40.686312,-73.935775,member
284908,EF556347A75EC056,classic_bike,2022-02-28 21:11:09,2022-02-28 21:17:55,Macon St & Nostrand Ave,4214,Lewis Ave & Madison St,4425,40.6809833854,-73.9500479759,40.686312,-73.935775,member
284972,CAE8F54CD53D65D8,electric_bike,2022-02-21 11:47:36,2022-02-21 12:05:58,N 6 St & Bedford Ave,5379,Lewis Ave & Madison St,4425,40.71745169,-73.95850939,40.686312,-73.935775,member
284973,B63A6EEF8193D46E,electric_bike,2022-02-16 13:54:11,2022-02-16 14:06:54,Lewis Ave & Madison St,4425,Morgan Ave & Maspeth Ave,5354,40.686312,-73.935775,40.716657,-73.93637,member
285004,4C677A8027429762,classic_bike,2022-02-01 16:54:48,2022-02-01 17:19:56,Lewis Ave & Madison St,4425,Lewis Ave & Madison St,4425,40.686312,-73.935775,40.686312,-73.935775,member
285024,CEBB51F9AED453F4,electric_bike,2022-02-15 08:24:14,2022-02-15 08:24:48,Lewis Ave & Madison St,4425,Lewis Ave & Madison St,4425,40.686312,-73.935775,40.686312,-73.935775,casual
285044,4CCC65D0E65D8F0A,electric_bike,2022-02-22 07:11:55,2022-02-22 07:32:13,Lewis Ave & Madison St,4425,Calyer St & Jewel St,5743,40.686312,-73.935775,40.72984,-73.94839,casual
285051,1D48BD8BDAE2973C,classic_bike,2022-02-02 22:45:04,2022-02-02 23:03:40,Lewis Ave & Madison St,4425,Lewis Ave & Madison St,4425,40.686312,-73.935775,40.686312,-73.935775,casual
285052,05DB41A9AD008D14,electric_bike,2022-02-03 17:09:07,2022-02-03 17:27:29,Lewis Ave & Madison St,4425,Lewis Ave & Madison St,4425,40.686312,-73.935775,40.686312,-73.935775,casual
285054,E80C89994B10EB40,electric_bike,2022-02-09 09:20:16,2022-02-09 09:21:15,Lewis Ave & Madison St,4425,Lewis Ave & Madison St,4425,40.686312,-73.935775,40.686312,-73.935775,member
285094,0FC82A351B292557,classic_bike,2022-02-16 11:53:43,2022-02-16 12:11:13,Lewis Ave & Madison St,4425,DeKalb Ave & S Portland Ave,4546,40.686312,-73.935775,40.68981035,-73.97493121,member
285126,E3E5D88308C78F12,classic_bike,2022-02-21 10:54:11,2022-02-21 10:54:14,Lewis Ave & Madison St,4425,Lewis Ave & Madison St,4425,40.686312,-73.935775,40.686312,-73.935775,member
285151,EDC457699856D9FC,classic_bike,2022-02-11 16:44:53,2022-02-11 17:12:14,Lewis Ave & Madison St,4425,DeKalb Ave & S Portland Ave,4546,40.686312,-73.935775,40.68981035,-73.97493121,casual
285155,C458F7B6329B2564,electric_bike,2022-02-03 19:33:10,2022-02-03 19:47:39,Lewis Ave & Madison St,4425,Lefferts Pl & Franklin Ave,4222,40.686312,-73.935775,40.680342423,-73.9557689392,casual
285163,7D577E78801C19A0,electric_bike,2022-02-08 12:51:44,2022-02-08 12:59:34,Monroe St & Bedford Ave,4368,Lewis Ave & Madison St,4425,40.6851443,-73.95380904,40.686312,-73.935775,member
285165,F7888DBAAD188B5E,electric_bike,2022-02-11 03:01:48,2022-02-11 03:29:48,E 2 St & Avenue A,5553,Lewis Ave & Madison St,4425,40.72307749068673,-73.98583620786667,40.686312,-73.935775,member
285255,6642C02FEA806397,classic_bike,2022-02-28 14:30:13,2022-02-28 14:35:42,Macon St & Nostrand Ave,4214,Lewis Ave & Madison St,4425,40.6809833854,-73.9500479759,40.686312,-73.935775,member
285256,50E33B4C598CE7E7,classic_bike,2022-02-15 18:30:39,2022-02-15 18:36:54,Macon St & Nostrand Ave,4214,Lewis Ave & Madison St,4425,40.6809833854,-73.9500479759,40.686312,-73.935775,member
285278,43DBC74C7B8F61C2,classic_bike,2022-02-01 18:10:07,2022-02-01 18:34:35,Hanson Pl & Ashland Pl,4395,Lewis Ave & Madison St,4425,40.68506807308177,-73.97790759801863,40.686312,-73.935775,member
285412,A8235C5AC45BBC4F,classic_bike,2022-02-06 19:48:31,2022-02-06 20:10:15,Stockholm St & Wilson Ave,4824,Lewis Ave & Madison St,4425,40.699304,-73.923044,40.686312,-73.935775,casual
285413,40C1082E0A6EE477,classic_bike,2022-02-06 19:49:29,2022-02-06 20:10:14,Stockholm St & Wilson Ave,4824,Lewis Ave & Madison St,4425,40.699304,-73.923044,40.686312,-73.935775,casual
285433,9CCE86ABCEDEF1D5,electric_bike,2022-02-12 15:24:39,2022-02-12 15:44:04,Clermont Ave & Park Ave,4692,Lewis Ave & Madison St,4425,40.69573398,-73.97129668,40.686312,-73.935775,member
285471,0E1CC80DEA948694,classic_bike,2022-02-14 19:02:43,2022-02-14 19:18:31,Greene Av & Myrtle Av,4784,Lewis Ave & Madison St,4425,40.698568,-73.918877,40.686312,-73.935775,member
285562,0BE04CA6BCDE2D16,electric_bike,2022-02-25 17:31:48,2022-02-25 17:39:01,Monroe St & Bedford Ave,4368,Lewis Ave & Madison St,4425,40.6851443,-73.95380904,40.686312,-73.935775,member
285564,27BD3CDA4E64E8EC,classic_bike,2022-02-20 22:02:35,2022-02-20 22:12:21,Monroe St & Bedford Ave,4368,Lewis Ave & Madison St,4425,40.6851443,-73.95380904,40.686312,-73.935775,member
285591,35753A2294C607B8,electric_bike,2022-02-24 08:45:44,2022-02-24 08:50:53,Greene Ave & Nostrand Ave,4519,Lewis Ave & Madison St,4425,40.6883337,-73.950916,40.686312,-73.935775,casual
285596,38B3250E2668CB05,classic_bike,2022-02-12 15:24:04,2022-02-12 15:38:09,Greene Ave & Nostrand Ave,4519,Lewis Ave & Madison St,4425,40.6883337,-73.950916,40.686312,-73.935775,casual
285641,9C3F3F04D7951AB8,classic_bike,2022-02-23 10:49:41,2022-02-23 11:05:51,Union Ave & Jackson St,5300,Lewis Ave & Madison St,4425,40.7160751,-73.952029,40.686312,-73.935775,casual
285642,6D3A0C3BE51FABEF,classic_bike,2022-02-06 14:02:05,2022-02-06 14:08:05,Grove St & Broadway,4526,Lewis Ave & Madison St,4425,40.69047,-73.923511,40.686312,-73.935775,casual
285651,D2AAC3A50EF2BE59,electric_bike,2022-02-08 20:27:13,2022-02-08 20:40:30,Wyckoff Av & Jefferson St,5051,Lewis Ave & Madison St,4425,40.707165,-73.923711,40.686312,-73.935775,casual
285659,8B85EA67FCD6F4FE,electric_bike,2022-02-26 18:00:01,2022-02-26 18:02:44,Monroe St & Tompkins Ave,4434,Lewis Ave & Madison St,4425,40.686203,-73.944694,40.686312,-73.935775,member
285727,BBACAD91302E8065,classic_bike,2022-02-11 16:52:47,2022-02-11 17:03:34,Grove St & Broadway,4526,Lewis Ave & Madison St,4425,40.69047,-73.923511,40.686312,-73.935775,member
285732,7F91CC0E6E436753,electric_bike,2022-02-11 23:00:53,2022-02-11 23:05:49,Monroe St & Tompkins Ave,4434,Lewis Ave & Madison St,4425,40.686203,-73.944694,40.686312,-73.935775,member
285747,C3D0C9EC6D1CFB00,classic_bike,2022-02-26 17:44:07,2022-02-26 18:11:36,S 4 St & Wythe Ave,5204,Lewis Ave & Madison St,4425,40.71285887,-73.96590294,40.686312,-73.935775,casual
285840,3B6B9CC81817044F,electric_bike,2022-02-08 14:27:42,2022-02-08 14:47:44,7 Ave & Park Pl,4125,Lewis Ave & Madison St,4425,40.6776147,-73.97324283,40.686312,-73.935775,member
285845,93F8B60D75896229,classic_bike,2022-02-23 12:36:22,2022-02-23 12:43:15,Myrtle Ave & Lewis Ave,4729,Lewis Ave & Madison St,4425,40.69681963,-73.93756926,40.686312,-73.935775,casual
285872,B94995527DC7F12A,electric_bike,2022-02-28 19:30:36,2022-02-28 19:50:57,Sterling Pl & 5 Ave,4208,Lewis Ave & Madison St,4425,40.678970070475735,-73.97855266928671,40.686312,-73.935775,member
285904,E0B0B966E7824D66,classic_bike,2022-02-18 08:50:28,2022-02-18 09:05:52,Classon Ave & St Marks Ave,4074,Lewis Ave & Madison St,4425,40.6765198,-73.9596082,40.686312,-73.935775,member
285989,54DDBA5BF5D1298A,classic_bike,2022-02-17 12:32:11,2022-02-17 13:14:00,E 20 St & 2 Ave,5971,Lewis Ave & Madison St,4425,40.73587678,-73.98205027,40.686312,-73.935775,casual
286047,EE34F2DAF6F04839,electric_bike,2022-02-08 19:38:33,2022-02-08 19:43:32,Putnam Ave & Nostrand Ave,4327,Lewis Ave & Madison St,4425,40.68402,-73.94977,40.686312,-73.935775,member
286085,483ED637C8DBDFDE,electric_bike,2022-02-12 04:42:14,2022-02-12 04:57:21,Park Ave & Marcus Garvey Blvd,4768,Lewis Ave & Madison St,4425,40.698617,-73.941342,40.686312,-73.935775,member
286094,BCDF13FB1D925DB6,electric_bike,2022-02-02 01:18:01,2022-02-02 01:26:22,Lewis Ave & Madison St,4425,Lefferts Pl & Franklin Ave,4222,40.686312,-73.935775,40.680342423,-73.9557689392,member
286095,94C3C0A704D11711,classic_bike,2022-02-01 23:01:28,2022-02-01 23:10:37,Lefferts Pl & Franklin Ave,4222,Lewis Ave & Madison St,4425,40.680342423,-73.9557689392,40.686312,-73.935775,member
286133,3C5331E0C009C0C3,classic_bike,2022-02-05 03:20:33,2022-02-05 03:37:35,Lewis Ave & Madison St,4425,Lefferts Pl & Franklin Ave,4222,40.686312,-73.935775,40.680342423,-73.9557689392,casual
286246,238258A287C688D5,classic_bike,2022-02-28 21:57:12,2022-02-28 22:38:07,1 Ave & E 62 St,6753,Lewis Ave & Madison St,4425,40.7612274,-73.96094022,40.686312,-73.935775,member
286265,686B8AC274612136,electric_bike,2022-02-12 16:02:39,2022-02-12 16:25:44,4 Ave & 3 St,4028,Lewis Ave & Madison St,4425,40.673746,-73.985649,40.686312,-73.935775,casual
286286,4D3CC0E25FCEBD58,electric_bike,2022-02-18 17:31:42,2022-02-18 17:56:08,Eastern Pkwy & Washington Ave,3928,Lewis Ave & Madison St,4425,40.6716493,-73.9631145,40.686312,-73.935775,member
286300,0FB47261C20AAA1C,classic_bike,2022-02-12 09:47:36,2022-02-12 09:58:57,Lewis Ave & Madison St,4425,Lewis Ave & Madison St,4425,40.686312,-73.935775,40.686312,-73.935775,member
286301,A1EE5519C8A06012,electric_bike,2022-02-24 22:02:56,2022-02-24 22:45:57,Lewis Ave & Madison St,4425,E 44 St & Lexington Ave,6464,40.686312,-73.935775,40.752643,-73.974996,member
286303,7A8BBCC73A346A55,classic_bike,2022-02-14 22:01:54,2022-02-14 22:56:39,Lewis Ave & Madison St,4425,E 44 St & Lexington Ave,6464,40.686312,-73.935775,40.752643,-73.974996,member
286314,11D53E35166FFD6B,classic_bike,2022-02-04 22:09:03,2022-02-04 22:55:47,Lewis Ave & Madison St,4425,E 44 St & Lexington Ave,6464,40.686312,-73.935775,40.752643,-73.974996,member
286315,43ED4C3745F0FECF,classic_bike,2022-02-18 07:30:43,2022-02-18 08:22:54,E 44 St & Lexington Ave,6464,Lewis Ave & Madison St,4425,40.752643,-73.974996,40.686312,-73.935775,member
286336,B1F53B75F2E364D9,classic_bike,2022-02-02 11:41:28,2022-02-02 12:08:46,Lewis Ave & Madison St,4425,Lewis Ave & Madison St,4425,40.686312,-73.935775,40.686312,-73.935775,casual
286337,9B7A1DB7089B8B65,classic_bike,2022-02-02 11:32:49,2022-02-02 11:34:03,Lewis Ave & Madison St,4425,Lewis Ave & Madison St,4425,40.686312,-73.935775,40.686312,-73.935775,casual
286338,9109EDF8EADC43DF,electric_bike,2022-02-01 23:42:54,2022-02-01 23:58:50,Lewis Ave & Madison St,4425,Lewis Ave & Madison St,4425,40.686312,-73.935775,40.686312,-73.935775,casual
286339,4202E3DB569DF094,electric_bike,2022-02-01 19:46:09,2022-02-01 19:46:59,Lewis Ave & Madison St,4425,Lewis Ave & Madison St,4425,40.686312,-73.935775,40.686312,-73.935775,casual
286340,F0BAD9F38D4E435D,electric_bike,2022-02-01 19:47:49,2022-02-01 20:11:51,Lewis Ave & Madison St,4425,Lewis Ave & Madison St,4425,40.686312,-73.935775,40.686312,-73.935775,casual
286414,E729290F8E88E1A5,classic_bike,2022-02-27 16:33:48,2022-02-27 16:45:19,Lafayette Ave & Classon Ave,4452,Lewis Ave & Madison St,4425,40.68900443,-73.96023854,40.686312,-73.935775,casual
286457,3A0578BCCEB2C3AD,classic_bike,2022-02-10 08:41:23,2022-02-10 08:57:15,Lafayette Ave & Classon Ave,4452,Lewis Ave & Madison St,4425,40.68900443,-73.96023854,40.686312,-73.935775,member
286468,41B3536D8F17709C,electric_bike,2022-02-08 18:31:50,2022-02-08 18:48:25,Bedford Ave & Nassau Ave,5550,Lewis Ave & Madison St,4425,40.72311651,-73.95212324,40.686312,-73.935775,member
286475,A0722692BCD4CFED,electric_bike,2022-02-17 16:41:40,2022-02-17 17:19:56,Broadway\t& W 48 St,6708,Lewis Ave & Madison St,4425,40.76017739537783,-73.98486793041229,40.686312,-73.935775,member
286506,F1CD90338F98F56D,classic_bike,2022-02-12 16:43:25,2022-02-12 16:50:47,Marcy Ave & Lafayette Ave,4476,Lewis Ave & Madison St,4425,40.6900815,-73.947915,40.686312,-73.935775,casual
286621,D6CD719BA95BC6A3,classic_bike,2022-02-12 17:44:46,2022-02-12 17:52:19,Greene Ave & Nostrand Ave,4519,Lewis Ave & Madison St,4425,40.6883337,-73.950916,40.686312,-73.935775,member
286622,9C39DA0E1D18F8B3,classic_bike,2022-02-12 11:50:23,2022-02-12 11:57:12,Greene Ave & Nostrand Ave,4519,Lewis Ave & Madison St,4425,40.6883337,-73.950916,40.686312,-73.935775,member
286627,B42D22A0A501DF90,electric_bike,2022-02-20 07:56:05,2022-02-20 08:01:28,Greene Ave & Nostrand Ave,4519,Lewis Ave & Madison St,4425,40.6883337,-73.950916,40.686312,-73.935775,member
286628,CF2F29D21030C513,electric_bike,2022-02-16 22:19:53,2022-02-16 22:26:53,Greene Ave & Nostrand Ave,4519,Lewis Ave & Madison St,4425,40.6883337,-73.950916,40.686312,-73.935775,member
286642,E24F89B5C0007722,classic_bike,2022-02-05 00:09:25,2022-02-05 00:43:43,Lafayette Ave & Ft Greene Pl,4470,Lewis Ave & Madison St,4425,40.68700231292619,-73.97664964199066,40.686312,-73.935775,casual
286646,5D559FBD52C3DEB0,electric_bike,2022-02-17 12:49:34,2022-02-17 13:21:05,Carroll St & Smith St,4225,Lewis Ave & Madison St,4425,40.680611,-73.99475825,40.686312,-73.935775,casual
286754,9F0307C08629A5C6,electric_bike,2022-02-12 21:07:45,2022-02-12 21:49:01,E 7 St & Avenue A,5626,Lewis Ave & Madison St,4425,40.72621788,-73.98379855,40.686312,-73.935775,member
286812,67FDF0544D321641,classic_bike,2022-02-16 19:36:37,2022-02-16 19:45:50,Greene Ave & Nostrand Ave,4519,Lewis Ave & Madison St,4425,40.6883337,-73.950916,40.686312,-73.935775,member
286920,7A5D813378642B3F,electric_bike,2022-02-07 19:21:13,2022-02-07 19:35:30,Suydam St & Knickerbocker Ave,4939,Lewis Ave & Madison St,4425,40.702013,-73.923769,40.686312,-73.935775,member
287016,A389B792601CA4E6,electric_bike,2022-02-15 20:02:29,2022-02-15 20:34:04,E 20 St & Park Ave,6055,Lewis Ave & Madison St,4425,40.73827428,-73.98751968,40.686312,-73.935775,member
287040,667C5135C2424278,classic_bike,2022-02-12 18:38:38,2022-02-12 18:48:43,Humboldt St & Varet St,4956,Lewis Ave & Madison St,4425,40.7031724,-73.940636,40.686312,-73.935775,member
287104,D2EE8EF6FA40E04B,electric_bike,2022-02-10 22:35:11,2022-02-10 22:51:32,Frost St & Debevoise Ave,5433,Lewis Ave & Madison St,4425,40.71882,-73.93948,40.686312,-73.935775,member
287119,20F49980683B5460,electric_bike,2022-02-15 00:37:54,2022-02-15 00:43:46,Macon St & Nostrand Ave,4214,Lewis Ave & Madison St,4425,40.6809833854,-73.9500479759,40.686312,-73.935775,member
287145,F0786CF093DBD430,classic_bike,2022-02-12 07:30:46,2022-02-12 08:18:02,E 44 St & Lexington Ave,6464,Lewis Ave & Madison St,4425,40.752643,-73.974996,40.686312,-73.935775,member
287146,B47521D0820C3E5A,classic_bike,2022-02-11 22:05:27,2022-02-11 22:53:42,Lewis Ave & Madison St,4425,E 44 St & Lexington Ave,6464,40.686312,-73.935775,40.752643,-73.974996,member
287148,BDE20A776AFB3840,classic_bike,2022-02-15 22:01:58,2022-02-15 22:47:34,Lewis Ave & Madison St,4425,E 44 St & Lexington Ave,6464,40.686312,-73.935775,40.752643,-73.974996,member
287149,E37D1E4323C5526B,classic_bike,2022-02-16 18:55:56,2022-02-16 19:40:21,Lewis Ave & Madison St,4425,E 44 St & Lexington Ave,6464,40.686312,-73.935775,40.752643,-73.974996,member
287154,7A26C96B69D910F5,electric_bike,2022-02-27 13:30:18,2022-02-27 13:45:07,DeKalb Ave & S Portland Ave,4546,Lewis Ave & Madison St,4425,40.68981035,-73.97493121,40.686312,-73.935775,member
287157,FF88F0180CA6DEA9,electric_bike,2022-02-11 12:34:09,2022-02-11 13:45:27,Lewis Ave & Madison St,4425,Lewis Ave & Madison St,4425,40.686312,-73.935775,40.686312,-73.935775,member
287171,01DFD4ED72C07007,classic_bike,2022-02-11 12:50:51,2022-02-11 14:06:40,Lewis Ave & Madison St,4425,Lewis Ave & Madison St,4425,40.686312,-73.935775,40.686312,-73.935775,member
287179,3A41384AC164BEB7,electric_bike,2022-02-17 12:50:28,2022-02-17 13:21:29,Lewis Ave & Madison St,4425,Lewis Ave & Madison St,4425,40.686312,-73.935775,40.686312,-73.935775,member
287187,CAEE303B68B8A570,classic_bike,2022-02-10 12:12:27,2022-02-10 12:13:03,Lewis Ave & Madison St,4425,Lewis Ave & Madison St,4425,40.686312,-73.935775,40.686312,-73.935775,member
287211,A4BA56F601F1DFFE,electric_bike,2022-02-11 14:12:31,2022-02-11 14:20:47,Lewis Ave & Madison St,4425,Lefferts Pl & Franklin Ave,4222,40.686312,-73.935775,40.680342423,-73.9557689392,casual
287216,F1219B58F2813463,electric_bike,2022-02-23 10:16:45,2022-02-23 10:27:39,Montrose Ave & Bushwick Ave,5068,Lewis Ave & Madison St,4425,40.70767788,-73.94016171,40.686312,-73.935775,casual
287233,C41DA1D1ADFE6AD8,classic_bike,2022-02-26 15:18:16,2022-02-26 15:19:15,Lewis Ave & Madison St,4425,Lewis Ave & Madison St,4425,40.686312,-73.935775,40.686312,-73.935775,member
287278,42B8BFDB4F79AB62,classic_bike,2022-02-17 18:18:41,2022-02-17 19:01:41,Lewis Ave & Madison St,4425,Lewis Ave & Madison St,4425,40.686312,-73.935775,40.686312,-73.935775,member
287284,2CDDA5CF35732619,classic_bike,2022-02-28 15:46:41,2022-02-28 16:02:30,Bushwick Ave & Harman St,4640,Lewis Ave & Madison St,4425,40.69356,-73.92524,40.686312,-73.935775,member
287378,FCB2EA084D870F11,electric_bike,2022-02-27 00:26:46,2022-02-27 00:32:46,Willoughby Ave & Myrtle Ave,4759,Lewis Ave & Madison St,4425,40.69757,-73.93098,40.686312,-73.935775,member
287433,85E1B795B131CFF8,classic_bike,2022-02-02 20:39:08,2022-02-02 21:23:16,Menahan St & Seneca Ave,4963,Lewis Ave & Madison St,4425,40.70461,-73.91054,40.686312,-73.935775,member
287444,2A6E7C633C218E00,classic_bike,2022-02-12 16:34:09,2022-02-12 17:18:49,Marcus Garvey Blvd & Macon St,4278,Lewis Ave & Madison St,4425,40.682601,-73.938037,40.686312,-73.935775,member
287449,0A9682614BD12B46,classic_bike,2022-02-23 12:31:40,2022-02-23 12:52:13,Adelphi St & Myrtle Ave,4620,Lewis Ave & Madison St,4425,40.69308257,-73.97178913,40.686312,-73.935775,casual
287454,08F029457B99071D,electric_bike,2022-02-10 23:19:22,2022-02-11 00:02:16,W 11 St & 6 Ave,5914,Lewis Ave & Madison St,4425,40.73532427,-73.99800419,40.686312,-73.935775,casual
287555,F1A974C0A1672BF0,classic_bike,2022-02-06 13:05:32,2022-02-06 13:21:22,Bushwick Ave & Harman St,4640,Lewis Ave & Madison St,4425,40.69356,-73.92524,40.686312,-73.935775,member
287558,52878EBCD6C11CFD,classic_bike,2022-02-25 19:09:02,2022-02-25 19:23:38,Union St & Bedford Ave,3879,Lewis Ave & Madison St,4425,40.6691783,-73.9554162,40.686312,-73.935775,member
287608,9EDC063F7A3D8089,classic_bike,2022-02-17 18:42:42,2022-02-17 18:57:19,Sterling Pl & Bedford Ave,3993,Lewis Ave & Madison St,4425,40.672695,-73.954131,40.686312,-73.935775,casual
287659,25534F9646A30B67,electric_bike,2022-02-02 19:21:12,2022-02-02 19:36:25,Sterling St & Bedford Ave,3665,Lewis Ave & Madison St,4425,40.6627059,-73.9569115,40.686312,-73.935775,member
287788,6309201DFC1570EA,electric_bike,2022-02-06 00:58:11,2022-02-06 01:17:45,Driggs Ave & Lorimer St,5481,Lewis Ave & Madison St,4425,40.72179134,-73.9504154,40.686312,-73.935775,casual
287802,8A73A6C2A4EBF9FC,electric_bike,2022-02-27 16:50:21,2022-02-27 16:58:22,Monroe St & Bedford Ave,4368,Lewis Ave & Madison St,4425,40.6851443,-73.95380904,40.686312,-73.935775,member
287808,E0BB0C72ED6A4CB3,classic_bike,2022-02-16 21:04:44,2022-02-16 21:14:20,Monroe St & Bedford Ave,4368,Lewis Ave & Madison St,4425,40.6851443,-73.95380904,40.686312,-73.935775,casual
287812,D3C7BAAF568AA485,electric_bike,2022-02-15 08:00:29,2022-02-15 08:07:21,Monroe St & Bedford Ave,4368,Lewis Ave & Madison St,4425,40.6851443,-73.95380904,40.686312,-73.935775,casual
287813,A68D545D76F35F6C,electric_bike,2022-02-15 17:38:37,2022-02-15 17:46:37,Monroe St & Bedford Ave,4368,Lewis Ave & Madison St,4425,40.6851443,-73.95380904,40.686312,-73.935775,casual
287814,93617FFABCB2A4F5,classic_bike,2022-02-16 20:59:17,2022-02-16 21:09:14,Monroe St & Bedford Ave,4368,Lewis Ave & Madison St,4425,40.6851443,-73.95380904,40.686312,-73.935775,casual
287854,830DF82E2AA23971,electric_bike,2022-02-26 02:55:41,2022-02-26 03:00:50,Monroe St & Bedford Ave,4368,Lewis Ave & Madison St,4425,40.6851443,-73.95380904,40.686312,-73.935775,casual
287910,D741A101F438F2CB,electric_bike,2022-02-23 12:31:52,2022-02-23 12:51:53,Adelphi St & Myrtle Ave,4620,Lewis Ave & Madison St,4425,40.69308257,-73.97178913,40.686312,-73.935775,casual
287919,85E846406E2F6720,classic_bike,2022-02-24 19:37:24,2022-02-24 19:57:25,Halsey St & Broadway,4366,Lewis Ave & Madison St,4425,40.68565,-73.91564,40.686312,-73.935775,casual
287990,4F4C20749F714B94,classic_bike,2022-02-25 20:31:42,2022-02-25 21:02:06,Cumberland St & Lafayette Ave,4428,Lewis Ave & Madison St,4425,40.68753406,-73.97265183,40.686312,-73.935775,member
288011,C0CD73D8515E527B,classic_bike,2022-02-09 18:40:15,2022-02-09 18:51:38,Bushwick Ave & Dekalb Ave,4680,Lewis Ave & Madison St,4425,40.69502,-73.92825,40.686312,-73.935775,member
288023,7B4C341F7C5B6A27,electric_bike,2022-02-16 13:15:15,2022-02-16 13:49:00,7 St & 3 Ave,3996,Lewis Ave & Madison St,4425,40.67260298150126,-73.98983001708984,40.686312,-73.935775,member
288059,95B878AACF1A05E5,classic_bike,2022-02-09 08:46:26,2022-02-09 08:55:39,Kosciuszko St & Nostrand Ave,4519,Lewis Ave & Madison St,4425,40.69072549,-73.95133465,40.686312,-73.935775,member
288106,C4C3FD11F955F4FE,electric_bike,2022-02-22 11:49:22,2022-02-22 12:01:19,Sterling Pl & Bedford Ave,3993,Lewis Ave & Madison St,4425,40.672695,-73.954131,40.686312,-73.935775,member
288177,FF0789BBE60296D4,classic_bike,2022-02-18 12:56:57,2022-02-18 13:12:33,Irving Ave & Harman St,4856,Lewis Ave & Madison St,4425,40.70108,-73.9179,40.686312,-73.935775,casual
288198,A80B788D71BB57F4,electric_bike,2022-02-04 18:32:29,2022-02-04 18:44:48,Irving Ave & Harman St,4856,Lewis Ave & Madison St,4425,40.70108,-73.9179,40.686312,-73.935775,casual
288332,5F48EFD3013705F1,electric_bike,2022-02-02 23:29:07,2022-02-02 23:52:54,N 12 St & Bedford Ave,5450,Lewis Ave & Madison St,4425,40.72079821,-73.95484712,40.686312,-73.935775,casual
288402,19AE8CFEE1B9DEA9,classic_bike,2022-02-06 19:48:35,2022-02-06 20:10:23,Willoughby Ave & Wyckoff Ave,5010,Lewis Ave & Madison St,4425,40.705614,-73.92153,40.686312,-73.935775,casual
288434,890ACE3D67F38BA6,electric_bike,2022-02-07 15:22:06,2022-02-07 15:27:28,Van Buren St & Broadway,4568,Lewis Ave & Madison St,4425,40.692,-73.92617,40.686312,-73.935775,member
288455,015B1EB585215440,electric_bike,2022-02-24 18:59:55,2022-02-24 19:08:46,Rockaway Ave & Bainbridge St,4285,Lewis Ave & Madison St,4425,40.68319988172761,-73.91166642308235,40.686312,-73.935775,member
288456,A1D2EFAFFF435DFC,electric_bike,2022-02-09 20:12:54,2022-02-09 20:28:51,Willoughby Ave & Hall St,4611,Lewis Ave & Madison St,4425,40.69196035,-73.96536851,40.686312,-73.935775,casual
288476,6E1EF3B295B48C92,classic_bike,2022-02-10 09:54:09,2022-02-10 10:02:42,Broadway & Madison St,4483,Lewis Ave & Madison St,4425,40.68822,-73.91966,40.686312,-73.935775,member
288494,C4D6A13929082114,electric_bike,2022-02-03 18:11:08,2022-02-03 18:31:36,7 St & 5 Ave,3914,Lewis Ave & Madison St,4425,40.6704922,-73.98541675,40.686312,-73.935775,member
288495,BD4D370E7B483822,classic_bike,2022-02-10 07:42:12,2022-02-10 07:49:43,Verona Pl & Fulton St,4124,Lewis Ave & Madison St,4425,40.6803560840434,-73.9476791024208,40.686312,-73.935775,member
288497,D356F2057FDA161A,classic_bike,2022-02-03 18:32:01,2022-02-03 18:58:14,7 Ave & Park Pl,4125,Lewis Ave & Madison St,4425,40.6776147,-73.97324283,40.686312,-73.935775,member
288547,3749262D154414E4,electric_bike,2022-02-16 20:15:14,2022-02-16 20:22:28,Throop Ave & Myrtle Ave,4697,Lewis Ave & Madison St,4425,40.69622937,-73.94371094,40.686312,-73.935775,member
288607,98BC592AA88A8145,electric_bike,2022-02-05 18:21:13,2022-02-05 18:27:58,Halsey St & Tompkins Ave,4319,Lewis Ave & Madison St,4425,40.6823687,-73.944118,40.686312,-73.935775,member
288641,9E1640B93E6A6376,electric_bike,2022-02-08 22:07:55,2022-02-08 22:27:22,7 St & 5 Ave,3914,Lewis Ave & Madison St,4425,40.6704922,-73.98541675,40.686312,-73.935775,member
288646,F28F1D9802B09755,classic_bike,2022-02-10 18:17:59,2022-02-10 18:32:05,Verona Pl & Fulton St,4124,Lewis Ave & Madison St,4425,40.6803560840434,-73.9476791024208,40.686312,-73.935775,casual
288650,7005756F3261D124,electric_bike,2022-02-09 20:40:44,2022-02-09 20:52:17,DeKalb Ave & Vanderbilt Ave,4461,Lewis Ave & Madison St,4425,40.68940747,-73.96885458,40.686312,-73.935775,member
288665,ECAA3BB1B3711646,classic_bike,2022-02-21 16:15:10,2022-02-21 16:34:04,Knickerbocker Ave & Thames St,5018,Lewis Ave & Madison St,4425,40.70539,-73.92976,40.686312,-73.935775,member
288677,4D7E419A30DCBB78,electric_bike,2022-02-03 18:58:35,2022-02-03 19:12:33,S 4 St & Rodney St,5156,Lewis Ave & Madison St,4425,40.70934,-73.95608,40.686312,-73.935775,member
288678,F9A91F128143B24A,electric_bike,2022-02-10 19:05:29,2022-02-10 19:18:05,S 4 St & Rodney St,5156,Lewis Ave & Madison St,4425,40.70934,-73.95608,40.686312,-73.935775,member
288733,E0CDB005DAE596EC,electric_bike,2022-02-01 18:04:49,2022-02-01 18:21:43,Harrison Pl & Porter Ave,5090,Lewis Ave & Madison St,4425,40.70686,-73.92851,40.686312,-73.935775,member
288778,C292B05FDF649E4A,electric_bike,2022-02-21 11:23:28,2022-02-21 11:34:26,Sterling Pl & Bedford Ave,3993,Lewis Ave & Madison St,4425,40.672695,-73.954131,40.686312,-73.935775,member
288782,BC645914C92C162A,classic_bike,2022-02-17 11:27:50,2022-02-17 11:48:50,Emerson Pl & Myrtle Ave,4683,Lewis Ave & Madison St,4425,40.69363137,-73.96223558,40.686312,-73.935775,casual
288838,5350857D17A489D5,electric_bike,2022-02-01 20:42:47,2022-02-01 20:57:16,Driggs Ave & Lorimer St,5481,Lewis Ave & Madison St,4425,40.72179134,-73.9504154,40.686312,-73.935775,casual
288839,DB1F1F3F96C8D0A0,electric_bike,2022-02-27 23:10:17,2022-02-27 23:26:45,Bedford Ave & Montgomery St,3736,Lewis Ave & Madison St,4425,40.665816,-73.956934,40.686312,-73.935775,casual
288929,ABA934D9C4E6D983,electric_bike,2022-02-26 18:45:50,2022-02-26 19:02:45,Classon Ave & St Marks Ave,4074,Lewis Ave & Madison St,4425,40.6765198,-73.9596082,40.686312,-73.935775,member
288975,2F8149F7F7EAEBA1,electric_bike,2022-02-21 14:46:43,2022-02-21 15:03:00,Knickerbocker Ave & Halsey St,4623,Lewis Ave & Madison St,4425,40.693,-73.90824,40.686312,-73.935775,casual
289018,B12E50FCDDB219B3,electric_bike,2022-02-08 07:29:30,2022-02-08 07:39:34,Monroe St & Classon Ave,4336,Lewis Ave & Madison St,4425,40.6845683,-73.95881081,40.686312,-73.935775,casual
289020,B022AC5AEAECC690,electric_bike,2022-02-12 10:00:45,2022-02-12 10:09:57,Fulton St & Irving Pl,4263,Lewis Ave & Madison St,4425,40.68186,-73.959432,40.686312,-73.935775,casual
289045,F0DFC9C075B1F751,electric_bike,2022-02-27 11:21:46,2022-02-27 11:30:27,Madison St & Evergreen Ave,4560,Lewis Ave & Madison St,4425,40.69122,-73.91693,40.686312,-73.935775,member
289055,28961C468FD92CFC,electric_bike,2022-02-22 22:10:17,2022-02-22 22:17:01,Monroe St & Bedford Ave,4368,Lewis Ave & Madison St,4425,40.6851443,-73.95380904,40.686312,-73.935775,member
289097,74A278CC98FEB296,electric_bike,2022-02-20 12:30:08,2022-02-20 12:42:09,Washington Ave & Park Ave,4724,Lewis Ave & Madison St,4425,40.69610226,-73.96751037,40.686312,-73.935775,member
289111,6C8DA74FD8E7CE0B,electric_bike,2022-02-22 19:50:58,2022-02-22 20:13:59,Metropolitan Ave & Vandervoort Ave,5241,Lewis Ave & Madison St,4425,40.71429,-73.93323,40.686312,-73.935775,casual
289116,ECEDE25B4E6C6E75,classic_bike,2022-02-12 20:02:07,2022-02-12 20:23:04,Cumberland St & Lafayette Ave,4428,Lewis Ave & Madison St,4425,40.68753406,-73.97265183,40.686312,-73.935775,casual
289227,A8B9E23A58956F5F,classic_bike,2022-02-09 21:10:48,2022-02-09 21:23:43,Sterling Pl & Bedford Ave,3993,Lewis Ave & Madison St,4425,40.672695,-73.954131,40.686312,-73.935775,casual
289233,2246C49BD4DBFB23,classic_bike,2022-02-23 14:53:13,2022-02-23 15:04:40,Fulton St & Waverly Ave,4345,Lewis Ave & Madison St,4425,40.68323865460341,-73.96599590778351,40.686312,-73.935775,member
289263,AE991538C7837D1F,electric_bike,2022-02-03 23:02:03,2022-02-03 23:10:33,George St & Wilson Ave,4906,Lewis Ave & Madison St,4425,40.702997,-73.92997,40.686312,-73.935775,member
289283,1CDA99B5C7597014,electric_bike,2022-02-07 01:26:37,2022-02-07 01:38:59,Jefferson St & Cypress Ave,5082,Lewis Ave & Madison St,4425,40.70907,-73.92157,40.686312,-73.935775,casual
289356,102B1511D7D46857,classic_bike,2022-02-23 17:35:25,2022-02-23 17:43:03,Greene Ave & Nostrand Ave,4519,Lewis Ave & Madison St,4425,40.6883337,-73.950916,40.686312,-73.935775,member
289447,C1DDA83ACC376E3A,electric_bike,2022-02-12 12:37:10,2022-02-12 12:50:26,Rogers Ave & Sterling St,3696,Lewis Ave & Madison St,4425,40.6630619,-73.9538746,40.686312,-73.935775,casual
289451,8740958D3C1D60C0,electric_bike,2022-02-06 15:44:27,2022-02-06 15:55:53,Bergen St & Vanderbilt Ave,4157,Lewis Ave & Madison St,4425,40.6794388,-73.9680438,40.686312,-73.935775,member
289512,717CF6F4D749B2EB,electric_bike,2022-02-13 03:43:18,2022-02-13 03:56:57,Suydam St & St. Nicholas Ave,5043,Lewis Ave & Madison St,4425,40.70636,-73.91945,40.686312,-73.935775,casual
289525,E2B55FACDDE29164,electric_bike,2022-02-26 18:54:28,2022-02-26 19:08:03,Lafayette Ave & Classon Ave,4452,Lewis Ave & Madison St,4425,40.68900443,-73.96023854,40.686312,-73.935775,casual
289591,9B4653A8A430FC99,classic_bike,2022-02-10 09:31:00,2022-02-10 09:54:45,Bedford Ave & Nassau Ave,5550,Lewis Ave & Madison St,4425,40.72311651,-73.95212324,40.686312,-73.935775,member
289647,B86DEBD5E94DC048,classic_bike,2022-02-20 12:49:44,2022-02-20 13:04:27,Fulton St & Waverly Ave,4345,Lewis Ave & Madison St,4425,40.68323865460341,-73.96599590778351,40.686312,-73.935775,member
289651,953186E310556FDD,classic_bike,2022-02-24 14:57:11,2022-02-24 15:08:09,Fulton St & Waverly Ave,4345,Lewis Ave & Madison St,4425,40.68323865460341,-73.96599590778351,40.686312,-73.935775,member
289664,0CE3764B1B2850E6,classic_bike,2022-02-11 15:06:54,2022-02-11 15:18:33,Fulton St & Waverly Ave,4345,Lewis Ave & Madison St,4425,40.68323865460341,-73.96599590778351,40.686312,-73.935775,member
289704,0B08D0A92487F090,electric_bike,2022-02-20 16:55:24,2022-02-20 17:21:57,Parade Pl & Crooke Ave,3376,Lewis Ave & Madison St,4425,40.651847,-73.965248,40.686312,-73.935775,member
289720,9DCC0B767F19C9AF,classic_bike,2022-02-23 19:12:23,2022-02-23 19:27:34,Wyckoff Av & Stanhope St,4931,Lewis Ave & Madison St,4425,40.703545,-73.917775,40.686312,-73.935775,casual
289722,1CE68C0DEAFF1F43,electric_bike,2022-02-03 10:10:54,2022-02-03 10:36:16,Henry St & Bay St,3972,Lewis Ave & Madison St,4425,40.6725058,-74.00494695,40.686312,-73.935775,member
289751,BF9E6E74399EE72C,classic_bike,2022-02-17 15:11:52,2022-02-17 15:21:14,Pulaski St & Marcus Garvey Blvd,4656,Lewis Ave & Madison St,4425,40.6933982,-73.939877,40.686312,-73.935775,casual
289785,9F606891B1B4B1AC,electric_bike,2022-02-08 14:45:10,2022-02-08 15:00:37,Jefferson St & Cypress Ave,5082,Lewis Ave & Madison St,4425,40.70907,-73.92157,40.686312,-73.935775,member
289800,D50647B6AC0A84D6,classic_bike,2022-02-18 16:30:28,2022-02-18 16:49:03,Dock 72 Way & Market St,4804,Lewis Ave & Madison St,4425,40.69985,-73.97141,40.686312,-73.935775,member
289893,8CB55377EE438CD4,electric_bike,2022-02-26 13:37:30,2022-02-26 14:00:05,Nassau Ave & Russell St,5581,Lewis Ave & Madison St,4425,40.72557,-73.94434,40.686312,-73.935775,member
289895,71C8598422697472,electric_bike,2022-02-26 18:57:44,2022-02-26 19:03:26,Putnam Ave & Nostrand Ave,4327,Lewis Ave & Madison St,4425,40.68402,-73.94977,40.686312,-73.935775,casual
