,ride_id,rideable_type,started_at,ended_at,start_station_name,start_station_id,end_station_name,end_station_id,start_lat,start_lng,end_lat,end_lng,member_casual
908,BCE5E07BB8D37E35,docked_bike,2021-06-16 15:41:02,2021-06-16 15:49:50,Clinton St & Union St,4266,State St & Smith St,4565,40.683116,-73.997852,40.68926942,-73.98912867,casual
918,AAB255631BA84F01,docked_bike,2021-06-02 11:35:14,2021-06-02 11:42:55,Clark St & Henry St,4789,State St & Smith St,4565,40.697601,-73.993445,40.68926942,-73.98912867,member
919,390825B95DE8235F,classic_bike,2021-06-29 20:45:14,2021-06-29 20:51:02,Clark St & Henry St,4789,State St & Smith St,4565,40.69760127,-73.99344559,40.68926942,-73.98912867,member
928,C1C36EF46DDA8B26,classic_bike,2021-06-29 14:37:40,2021-06-29 14:53:28,3 St & 7 Ave,3905,State St & Smith St,4565,40.6703837,-73.97839676,40.68926942,-73.98912867,casual
950,B8CCC5428070D7B4,electric_bike,2021-06-21 15:10:03,2021-06-21 16:47:55,Carlton Ave & Dean St,4199,State St & Smith St,4565,40.6809741,-73.9710097,40.68926942,-73.98912867,casual
952,E4850458EB12B7E9,docked_bike,2021-06-11 13:33:14,2021-06-11 13:39:55,Smith St & 3 St,4151,State St & Smith St,4565,40.678724,-73.99599,40.68926942,-73.98912867,member
954,C19D6EC8CAE158D0,electric_bike,2021-06-10 18:45:26,2021-06-10 18:56:26,Plaza St West & Flatbush Ave,4010,State St & Smith St,4565,40.67502,-73.971114,40.68926942,-73.98912867,member
955,48CDA29221847E86,electric_bike,2021-06-11 10:32:03,2021-06-11 10:40:56,Front St & Jay St,4895,State St & Smith St,4565,40.702461,-73.986842,40.68926942,-73.98912867,member
956,A3B671D69D398CDA,docked_bike,2021-06-18 10:55:45,2021-06-18 11:04:01,Concord St & Bridge St,4781,State St & Smith St,4565,40.697665,-73.984764,40.68926942,-73.98912867,member
959,3C5152C49EEB044A,docked_bike,2021-06-01 09:54:24,2021-06-01 10:00:47,Concord St & Bridge St,4781,State St & Smith St,4565,40.697665,-73.984764,40.68926942,-73.98912867,member
965,FA85202D109111D1,docked_bike,2021-06-06 21:12:12,2021-06-06 21:29:53,Butler St & Court St,4339,State St & Smith St,4565,40.684989,-73.994403,40.68926942,-73.98912867,casual
975,41594BDC53A0FE02,classic_bike,2021-06-29 11:49:04,2021-06-29 11:52:50,Pacific St & Nevins St,4362,State St & Smith St,4565,40.6853761,-73.98302136,40.68926942,-73.98912867,member
984,587AA1140886D255,docked_bike,2021-06-17 11:25:13,2021-06-17 11:32:58,Adams St & Prospect St,4821,State St & Smith St,4565,40.700763,-73.988698,40.68926942,-73.98912867,member
986,33A18448B648A28C,docked_bike,2021-06-01 08:23:28,2021-06-01 08:33:46,Clinton Ave & Myrtle Ave,4651,State St & Smith St,4565,40.693261,-73.968896,40.68926942,-73.98912867,member
987,5DB617E1BCAE0BC3,docked_bike,2021-06-20 17:04:47,2021-06-20 17:12:47,Cumberland St & Lafayette Ave,4428,State St & Smith St,4565,40.687534,-73.972651,40.68926942,-73.98912867,member
991,1701C88ADB327159,docked_bike,2021-06-11 18:54:00,2021-06-11 19:02:53,Lafayette Ave & Fort Greene Pl,4395,State St & Smith St,4565,40.686918,-73.976682,40.68926942,-73.98912867,member
1003,4E94148A8E361997,docked_bike,2021-06-09 21:45:30,2021-06-09 21:53:01,Front St & Gold St,4927,State St & Smith St,4565,40.70224,-73.982578,40.68926942,-73.98912867,member
1011,47A9D199105EE1EF,docked_bike,2021-06-05 12:24:17,2021-06-05 12:33:51,St Marks Pl & 4 Ave,4249,State St & Smith St,4565,40.681778,-73.979889,40.68926942,-73.98912867,member
1012,C873BCA7E7C22E94,docked_bike,2021-06-20 14:20:15,2021-06-20 14:27:11,Kane St & Clinton St,4455,State St & Smith St,4565,40.686175,-73.996452,40.68926942,-73.98912867,member
1013,4162E8D152CCD1AE,electric_bike,2021-06-14 12:49:29,2021-06-14 13:10:17,Pulaski St & Marcus Garvey Blvd,4656,State St & Smith St,4565,40.693398,-73.939877,40.68926942,-73.98912867,member
1036,FDA24548A52885F2,docked_bike,2021-06-15 08:13:16,2021-06-15 08:30:17,14 St & 5 Ave,3771,State St & Smith St,4565,40.666287,-73.98895,40.68926942,-73.98912867,member
1045,CAFDEABF1F715C22,docked_bike,2021-06-16 15:05:00,2021-06-16 15:14:03,Montague St & Clinton St,4677,State St & Smith St,4565,40.694281,-73.9923,40.68926942,-73.98912867,member
1059,996AE0DE6623635E,docked_bike,2021-06-05 11:45:04,2021-06-05 12:21:18,Driggs Ave & N 9 St,5411,State St & Smith St,4565,40.718169,-73.955201,40.68926942,-73.98912867,member
1063,6A50826B8EC57D8C,docked_bike,2021-06-15 19:08:38,2021-06-15 19:14:51,Jay St & Tech Pl,4710,State St & Smith St,4565,40.695065,-73.987167,40.68926942,-73.98912867,member
1574,B10C2E9E1AA9698F,docked_bike,2021-06-14 16:51:33,2021-06-14 17:16:52,State St & Smith St,4565,Suydam St & Broadway,4689,40.689269,-73.989128,40.69544,-73.93223,member
2700,CE916F71D5FD9024,electric_bike,2021-06-10 19:14:56,2021-06-10 19:36:06,State St & Smith St,4565,Willoughby Ave & Myrtle Ave,4759,40.689269,-73.989128,40.69757,-73.93098,member
3658,C0453F25604A8C16,classic_bike,2021-06-28 13:53:18,2021-06-28 14:09:51,State St & Smith St,4565,4 Ave & 3 St,4028,40.68926942,-73.98912867,40.673746,-73.985649,member
3948,EF228BC0E2B2BB2C,docked_bike,2021-06-02 19:55:50,2021-06-02 19:59:49,State St & Smith St,4565,Duffield St & Willoughby St,4596,40.689269,-73.989128,40.69221589,-73.9842844,member
4688,07421DAB1784E45A,docked_bike,2021-06-11 19:20:56,2021-06-11 19:33:28,State St & Smith St,4565,Fulton St & Waverly Ave,4345,40.689269,-73.989128,40.68323865460341,-73.96599590778351,member
5097,445EE732AA149C05,docked_bike,2021-06-08 13:48:17,2021-06-08 13:51:48,Schermerhorn St & Court St,4565,Henry St & Remsen St,4645,40.691029,-73.991833,40.69400964865994,-73.99465128779411,member
5230,43F1795E006B5FFC,docked_bike,2021-06-16 00:43:43,2021-06-16 00:52:11,State St & Smith St,4565,DeKalb Ave & S Portland Ave,4546,40.689269,-73.989128,40.68981035,-73.97493121,member
5232,EB782F8E5E0E6389,docked_bike,2021-06-19 06:42:25,2021-06-19 06:50:07,State St & Smith St,4565,DeKalb Ave & S Portland Ave,4546,40.689269,-73.989128,40.68981035,-73.97493121,casual
5863,8BE5F76C05708077,electric_bike,2021-06-28 11:46:36,2021-06-28 12:01:52,State St & Smith St,4565,Front St & Gold St,4927,40.68926942,-73.98912867,40.70224,-73.982578,casual
6160,A69B87A906DF8A86,electric_bike,2021-06-08 09:05:23,2021-06-08 09:24:55,Schermerhorn St & Court St,4565,Pier 40 - Hudson River Park,5696,40.691029,-73.991833,40.7277140777778,-74.01129573583603,member
6165,14DDA8922D31E9E0,electric_bike,2021-06-30 12:08:55,2021-06-30 12:35:29,State St & Smith St,4565,1 Ave & E 30 St,6079,40.68926942,-73.98912867,40.74144387,-73.97536082,member
6780,0FFCCF3A4BFF0D26,classic_bike,2021-06-24 17:43:55,2021-06-24 17:52:13,State St & Smith St,4565,Warren St & Court St,4413,40.68926942,-73.98912867,40.686371,-73.99383324,member
7538,D3FE8AC1C47D96B2,docked_bike,2021-06-14 20:42:40,2021-06-14 20:46:11,Schermerhorn St & Court St,4565,Fulton St & Adams St,4637,40.691029,-73.991833,40.69241829257847,-73.98949474096298,member
11206,3D228F454D137B8A,docked_bike,2021-06-10 17:02:49,2021-06-10 17:17:23,State St & Smith St,4565,Carroll St & 5 Ave,4060,40.689269,-73.989128,40.6751622,-73.9814832,member
11920,7133C3E47BB0604B,docked_bike,2021-06-02 11:08:31,2021-06-02 11:31:26,State St & Smith St,4565,Forsyth St\t& Grand St,5382,40.689269,-73.989128,40.71779817737835,-73.99316132068634,member
12568,25E121498E9A4B8E,classic_bike,2021-06-26 13:30:51,2021-06-26 13:36:45,State St & Smith St,4565,Hoyt St & Warren St,4330,40.68926942,-73.98912867,40.6843549,-73.98901629,member
12569,F84D9D55C115A60A,electric_bike,2021-06-27 22:40:46,2021-06-27 22:55:50,State St & Smith St,4565,Henry St & Middagh St,4861,40.68926942,-73.98912867,40.7003,-73.991581,member
13042,2AAF56A8FA8E8E1C,electric_bike,2021-06-26 13:46:11,2021-06-26 14:03:15,St James Pl & Oliver St,5238,Schermerhorn St & Court St,4565,40.71307916,-73.99851193,40.69102925677968,-73.99183362722397,member
13052,B0BCB4BD17696FD5,docked_bike,2021-06-19 20:34:23,2021-06-19 20:46:16,Front St & Washington St,4936,Schermerhorn St & Court St,4565,40.70255,-73.989402,40.69102925677968,-73.99183362722397,member
13053,37AAED069574409B,docked_bike,2021-06-03 15:21:07,2021-06-03 15:32:16,Front St & Washington St,4936,Schermerhorn St & Court St,4565,40.70255,-73.989402,40.69102925677968,-73.99183362722397,casual
13062,932B1CFD7F5F28F4,docked_bike,2021-06-01 14:03:30,2021-06-01 14:07:18,Schermerhorn St & Court St,4565,Henry St & Degraw St,4380,40.691029,-73.991833,40.6847514,-73.99917254,casual
13067,D3BFE3A48D6BC55D,docked_bike,2021-06-21 08:01:27,2021-06-21 08:01:35,Schermerhorn St & Court St,4565,Schermerhorn St & Court St,4565,40.691029,-73.991833,40.69102925677968,-73.99183362722397,member
13084,C7BA69C4C5EC1B6F,docked_bike,2021-06-18 15:07:34,2021-06-18 15:09:37,Fulton St & Adams St,4637,Schermerhorn St & Court St,4565,40.692418,-73.989494,40.69102925677968,-73.99183362722397,member
13087,62D4797E5F1F3451,docked_bike,2021-06-13 10:37:13,2021-06-13 10:55:22,Putnam Ave & Throop Ave,4392,Schermerhorn St & Court St,4565,40.685153,-73.94111,40.69102925677968,-73.99183362722397,member
13101,8F15BB483626ABB0,docked_bike,2021-06-06 11:48:57,2021-06-06 11:57:14,Lafayette Ave & Fort Greene Pl,4395,Schermerhorn St & Court St,4565,40.686918,-73.976682,40.69102925677968,-73.99183362722397,member
13109,674EE0F926EAD1D0,classic_bike,2021-06-24 11:16:41,2021-06-24 11:24:09,Bond St & Bergen St,4404,Schermerhorn St & Court St,4565,40.6849668,-73.98620772,40.69102925677968,-73.99183362722397,member
13111,0E1FDA922668A527,docked_bike,2021-06-11 14:38:29,2021-06-11 14:57:47,10 St & 2 Ave,3922,Schermerhorn St & Court St,4565,40.671907,-73.993612,40.69102925677968,-73.99183362722397,member
13114,12D49042560904BF,docked_bike,2021-06-20 16:25:25,2021-06-20 16:30:44,Warren St & Smith St,4371,Schermerhorn St & Court St,4565,40.685424,-73.991277,40.69102925677968,-73.99183362722397,member
13115,AF5B27ABEA444472,electric_bike,2021-06-12 02:48:57,2021-06-12 02:59:35,Baltic St & 5 Ave,4208,Schermerhorn St & Court St,4565,40.679576,-73.978549,40.69102925677968,-73.99183362722397,casual
13140,1AF00C00B621B4B1,electric_bike,2021-06-26 13:44:19,2021-06-26 13:44:52,Schermerhorn St & Court St,4565,Schermerhorn St & Court St,4565,40.69102925677968,-73.99183362722397,40.69102925677968,-73.99183362722397,member
13156,99A8F0CA3C9EF01C,docked_bike,2021-06-06 14:11:05,2021-06-06 14:22:10,DeKalb Ave & S Portland Ave,4546,Schermerhorn St & Court St,4565,40.68981,-73.974931,40.69102925677968,-73.99183362722397,casual
13172,4B1F8ACC03532312,docked_bike,2021-06-11 10:29:39,2021-06-11 10:34:55,Clinton St & Union St,4266,Schermerhorn St & Court St,4565,40.683116,-73.997852,40.69102925677968,-73.99183362722397,member
13187,85022335A63A86D1,docked_bike,2021-06-18 11:19:56,2021-06-18 11:23:55,Pierrepont St & Monroe Pl,4718,Schermerhorn St & Court St,4565,40.695356,-73.99344,40.69102925677968,-73.99183362722397,member
13195,CA49317752BB05E5,electric_bike,2021-06-09 09:18:24,2021-06-09 09:28:45,Bergen St & Flatbush Ave,4281,Schermerhorn St & Court St,4565,40.680944,-73.975673,40.69102925677968,-73.99183362722397,casual
13196,9A4DA29A37403998,electric_bike,2021-06-14 12:35:46,2021-06-14 12:45:35,Carlton Ave & Flushing Ave,4732,Schermerhorn St & Court St,4565,40.697787,-73.973736,40.69102925677968,-73.99183362722397,casual
13198,78E0934D92103051,electric_bike,2021-06-05 15:42:00,2021-06-05 15:51:03,Pacific St & Nevins St,4362,Schermerhorn St & Court St,4565,40.685376,-73.983021,40.69102925677968,-73.99183362722397,member
13222,4C4B56AAECA0545F,electric_bike,2021-06-02 19:27:41,2021-06-02 19:50:02,Murray St & West St,5329,Schermerhorn St & Court St,4565,40.714978,-74.013012,40.69102925677968,-73.99183362722397,casual
13230,4B4BEB456E9D944D,docked_bike,2021-06-09 17:06:42,2021-06-09 17:11:51,3 Ave & Schermerhorn St,4437,Schermerhorn St & Court St,4565,40.686832,-73.979677,40.69102925677968,-73.99183362722397,member
13231,B1182B81589EEA0B,docked_bike,2021-06-09 07:39:53,2021-06-09 07:45:05,3 Ave & Schermerhorn St,4437,Schermerhorn St & Court St,4565,40.686832,-73.979677,40.69102925677968,-73.99183362722397,member
13235,924988624E3BAA8C,docked_bike,2021-06-18 07:44:58,2021-06-18 07:50:37,3 Ave & Schermerhorn St,4437,Schermerhorn St & Court St,4565,40.686832,-73.979677,40.69102925677968,-73.99183362722397,casual
13238,3AF10FDBD1D279A4,docked_bike,2021-06-01 09:27:55,2021-06-01 09:37:49,Commerce St & Van Brunt St,4243,Schermerhorn St & Court St,4565,40.681211,-74.008609,40.69102925677968,-73.99183362722397,member
13247,233A3B8230EC7836,electric_bike,2021-06-15 07:53:53,2021-06-15 08:08:48,Grand Army Plaza & Plaza St West,4010,Schermerhorn St & Court St,4565,40.672967,-73.970879,40.69102925677968,-73.99183362722397,member
13249,B1666486B44E01B5,electric_bike,2021-06-16 17:11:12,2021-06-16 17:31:41,Grand Army Plaza & Plaza St West,4010,Schermerhorn St & Court St,4565,40.6729679,-73.97087984,40.69102925677968,-73.99183362722397,casual
13286,3E1F54F904CD364A,classic_bike,2021-06-21 15:48:37,2021-06-21 16:14:19,6 Ave & Broome St,5610,Schermerhorn St & Court St,4565,40.724308321602166,-74.00473035871983,40.69102925677968,-73.99183362722397,member
13291,9CEE5FEA5959C491,electric_bike,2021-06-08 11:42:30,2021-06-08 12:04:49,W 20 St & 7 Ave,6182,Schermerhorn St & Court St,4565,40.742387,-73.997262,40.69102925677968,-73.99183362722397,member
13296,013D1BDA826845B3,docked_bike,2021-06-11 08:34:21,2021-06-11 09:02:27,Albemarle Rd & McDonald Ave,3166,Schermerhorn St & Court St,4565,40.645074,-73.979681,40.69102925677968,-73.99183362722397,member
13755,32D0B2C46D41A44A,electric_bike,2021-06-14 19:57:14,2021-06-14 19:59:17,Henry St & Remsen St,4645,Schermerhorn St & Court St,4565,40.694009,-73.994651,40.69102925677968,-73.99183362722397,member
13756,9EB531EC0B50FACF,electric_bike,2021-06-19 20:41:33,2021-06-19 21:07:13,E 25 St & 2 Ave,6046,Schermerhorn St & Court St,4565,40.739126,-73.979737,40.69102925677968,-73.99183362722397,casual
14074,47BFAF10500BB54C,classic_bike,2021-06-25 11:40:42,2021-06-25 12:06:39,E 1 St & 1 Ave,5593,Schermerhorn St & Court St,4565,40.72335597960796,-73.98864984512329,40.69102925677968,-73.99183362722397,member
14077,238BDA06383B23E0,electric_bike,2021-06-16 16:38:12,2021-06-16 16:58:55,Washington St & Gansevoort St,6039,Schermerhorn St & Court St,4565,40.739323,-74.008119,40.69102925677968,-73.99183362722397,member
16864,C1EDBE4B1B1CCA54,electric_bike,2021-06-11 14:53:03,2021-06-11 14:55:49,Schermerhorn St & Court St,4565,Kane St & Clinton St,4455,40.691029,-73.991833,40.6861758,-73.99645295,member
17128,04903FA8C4CA33C8,electric_bike,2021-06-02 07:21:09,2021-06-02 07:33:24,State St & Smith St,4565,Smith St & 3 St,4151,40.689269,-73.989128,40.6787242,-73.99599099,member
17129,1F03F787BF4F2ECB,docked_bike,2021-06-04 21:55:52,2021-06-04 22:10:18,State St & Smith St,4565,Plaza St West & Flatbush Ave,4010,40.689269,-73.989128,40.6750207,-73.97111473,member
17634,665312C4DD008106,docked_bike,2021-06-20 18:45:15,2021-06-20 18:48:39,State St & Smith St,4565,Dean St & Hoyt St,4446,40.689269,-73.989128,40.6864442,-73.98759104,member
18653,589D16896B6C63CD,classic_bike,2021-06-30 08:18:18,2021-06-30 08:42:32,Cambridge Pl & Gates Ave,4377,State St & Smith St,4565,40.68488,-73.96304,40.68926942,-73.98912867,member
18677,815633E1A9194146,docked_bike,2021-06-07 15:49:28,2021-06-07 15:57:56,Wyckoff St & Nevins St,4290,State St & Smith St,4565,40.683426,-73.984275,40.68926942,-73.98912867,member
18680,4BBD6F66EA96656F,docked_bike,2021-06-02 18:06:17,2021-06-02 18:48:29,Caton Ave & E 7 St,3199,State St & Smith St,4565,40.647718,-73.973663,40.68926942,-73.98912867,member
18689,F23B0DE0B55901B7,classic_bike,2021-06-25 11:24:23,2021-06-25 11:42:12,Mott St & Prince St,5561,State St & Smith St,4565,40.72317958,-73.99480012,40.68926942,-73.98912867,member
18705,61871F20D073EC36,docked_bike,2021-06-07 17:11:20,2021-06-07 17:48:41,E 56 St & Madison Ave,6732,State St & Smith St,4565,40.761573,-73.972628,40.68926942,-73.98912867,member
18706,CFFF857397B6478F,electric_bike,2021-06-24 17:09:02,2021-06-24 17:12:20,State St & Smith St,4565,Dean St & Hoyt St,4446,40.68926942,-73.98912867,40.6864442,-73.98759104,member
18715,A4C8CF155036B298,classic_bike,2021-06-22 09:02:40,2021-06-22 09:12:02,Union St & 4 Ave,4175,State St & Smith St,4565,40.6772744,-73.98282002,40.68926942,-73.98912867,member
18716,B8A4C3270AA599A7,docked_bike,2021-06-06 01:59:47,2021-06-06 02:03:36,Dean St & Hoyt St,4446,State St & Smith St,4565,40.686444,-73.987591,40.68926942,-73.98912867,member
18721,E4122BE8ABC46E9F,electric_bike,2021-06-24 15:35:14,2021-06-24 15:53:43,Grand St & Elizabeth St,5382,State St & Smith St,4565,40.718822,-73.99596,40.68926942,-73.98912867,member
18724,CD952D9E5BB85B3D,docked_bike,2021-06-17 14:13:14,2021-06-17 14:40:32,Eastern Pkwy & Washington Ave,3928,State St & Smith St,4565,40.671649,-73.963115,40.689269,-73.989129,casual
18729,C1E03F1AA3DFC7AE,docked_bike,2021-06-05 17:47:46,2021-06-05 18:31:55,FDR Drive & E 35 St,6230,State St & Smith St,4565,40.744219,-73.971212,40.68926942,-73.98912867,casual
18731,CE6A2B6BBCBA85B4,docked_bike,2021-06-01 14:22:43,2021-06-01 14:47:19,Eastern Pkwy & Washington Ave,3928,State St & Smith St,4565,40.671649,-73.963114,40.68926942,-73.98912867,casual
18746,7DC9F04ED779C225,electric_bike,2021-06-21 18:34:37,2021-06-21 19:09:42,Court St & State St,4488,State St & Smith St,4565,40.6902375,-73.99203074,40.68926942,-73.98912867,member
18753,0669EAB942988B09,classic_bike,2021-06-22 08:49:31,2021-06-22 09:01:44,DeKalb Ave & Franklin Ave,4528,State St & Smith St,4565,40.69064807082943,-73.95746178925037,40.68926942,-73.98912867,casual
18756,32E54EEEC1BBFD57,electric_bike,2021-06-24 09:20:50,2021-06-24 09:32:28,DeKalb Ave & Franklin Ave,4528,State St & Smith St,4565,40.69064807082943,-73.95746178925037,40.68926942,-73.98912867,casual
18759,B1C7C9D67BDE3E9A,electric_bike,2021-06-11 12:56:36,2021-06-11 13:39:16,E 58 St &  1 Ave (NW Corner),6723,State St & Smith St,4565,40.759125,-73.962658,40.68926942,-73.98912867,member
18765,3D3FA0C66B9C1230,electric_bike,2021-06-02 20:17:53,2021-06-02 20:36:40,Mercer St & Spring St,5532,State St & Smith St,4565,40.723627,-73.999496,40.68926942,-73.98912867,casual
18766,A5578ECCF405E613,docked_bike,2021-06-15 08:34:39,2021-06-15 08:38:15,Congress St & Clinton St,4455,State St & Smith St,4565,40.688152,-73.995209,40.68926942,-73.98912867,member
18772,B8EF3D876B9EA555,docked_bike,2021-06-03 17:37:02,2021-06-03 18:10:58,N 6 St & Bedford Ave,5379,State St & Smith St,4565,40.717451,-73.958509,40.68926942,-73.98912867,member
18779,F85A08C8EB4EBD84,docked_bike,2021-06-17 15:51:20,2021-06-17 16:40:31,DeKalb Ave & S Portland Ave,4546,State St & Smith St,4565,40.68981,-73.974931,40.68926942,-73.98912867,casual
18784,CE4BB629FDCA0983,classic_bike,2021-06-26 15:47:57,2021-06-26 16:12:57,Lewis Ave & Madison St,4425,State St & Smith St,4565,40.686312,-73.935775,40.68926942,-73.98912867,casual
18797,51FB7FBC05877D84,electric_bike,2021-06-17 08:48:50,2021-06-17 09:02:16,Murray St & Greenwich St,5288,State St & Smith St,4565,40.714851,-74.011223,40.68926942,-73.98912867,member
18806,96ED72DDA008A331,classic_bike,2021-06-26 14:38:58,2021-06-26 14:52:15,Atlantic Ave & Fort Greene Pl,4354,State St & Smith St,4565,40.68382604,-73.97632328,40.68926942,-73.98912867,casual
18811,3A197A26920EB5C7,docked_bike,2021-06-16 18:21:59,2021-06-16 18:28:18,S Portland Ave & Hanson Pl,4354,State St & Smith St,4565,40.685395,-73.974314,40.68926942,-73.98912867,member
18819,59582F655DDFCFFA,docked_bike,2021-06-13 15:11:39,2021-06-13 15:25:03,S Portland Ave & Hanson Pl,4354,State St & Smith St,4565,40.685395,-73.974314,40.68926942,-73.98912867,casual
18830,32F632E68BA79078,docked_bike,2021-06-09 17:12:23,2021-06-09 17:39:47,Parade Pl & Crooke Ave,3376,State St & Smith St,4565,40.651847,-73.965248,40.68926942,-73.98912867,member
18839,760C06E3E535B780,docked_bike,2021-06-07 10:34:11,2021-06-07 10:47:46,Columbia St & W 9 St,4086,State St & Smith St,4565,40.676999,-74.006471,40.68926942,-73.98912867,member
18880,106C2B8AA9F90F11,electric_bike,2021-06-04 13:08:25,2021-06-04 13:23:12,Cliff St & Fulton St,5065,State St & Smith St,4565,40.70838,-74.00495,40.68926942,-73.98912867,casual
18891,585D83CF09E72054,classic_bike,2021-06-22 10:26:07,2021-06-22 10:30:51,Pacific St & Nevins St,4362,State St & Smith St,4565,40.6853761,-73.98302136,40.68926942,-73.98912867,casual
18896,08C6097912B8AAE0,docked_bike,2021-06-06 21:32:12,2021-06-06 21:41:35,Atlantic Ave & Furman St,4614,State St & Smith St,4565,40.691651,-73.999978,40.68926942,-73.98912867,casual
18902,489A4190C19A56EE,docked_bike,2021-06-16 15:07:07,2021-06-16 15:13:47,Cadman Plaza E & Red Cross Pl,4821,State St & Smith St,4565,40.699917,-73.989717,40.68926942,-73.98912867,member
18923,1B0279658B6398D9,docked_bike,2021-06-02 13:39:46,2021-06-02 13:57:29,6 Ave & 9 St,3803,State St & Smith St,4565,40.668127,-73.983776,40.68926942,-73.98912867,casual
18930,9B4B9FD6F72C0A42,classic_bike,2021-06-24 16:50:50,2021-06-24 16:58:50,Lafayette Ave & Fort Greene Pl,4395,State St & Smith St,4565,40.68691865,-73.976682,40.68926942,-73.98912867,member
18936,93C910BEAB58386E,docked_bike,2021-06-03 17:26:48,2021-06-03 17:29:35,Lawrence St & Willoughby St,4596,State St & Smith St,4565,40.692361,-73.986317,40.68926942,-73.98912867,member
18940,B61C91C1C40EA86B,classic_bike,2021-06-26 14:40:16,2021-06-26 14:42:39,Schermerhorn St & Bond St,4479,State St & Smith St,4565,40.688417427540834,-73.98451656103134,40.68926942,-73.98912867,member
18943,B165E5B9BF29897E,classic_bike,2021-06-26 09:43:51,2021-06-26 09:50:49,Willoughby St & Ashland Pl,4587,State St & Smith St,4565,40.69178,-73.97877,40.68926942,-73.98912867,member
18948,61AE13BF54610CF4,docked_bike,2021-06-11 16:16:32,2021-06-11 16:22:33,Lafayette Ave & Fort Greene Pl,4395,State St & Smith St,4565,40.686918,-73.976682,40.68926942,-73.98912867,member
18956,C96B8BFD854D4583,docked_bike,2021-06-02 11:29:49,2021-06-02 11:38:39,Schermerhorn St & Bond St,4479,State St & Smith St,4565,40.688417,-73.984516,40.68926942,-73.98912867,member
18962,58766E67A1FD3310,docked_bike,2021-06-10 22:59:25,2021-06-10 23:06:54,President St & 4 Ave,4101,State St & Smith St,4565,40.676757,-73.983262,40.68926942,-73.98912867,member
18974,C2921793A27E2BE2,docked_bike,2021-06-12 14:55:13,2021-06-12 17:27:46,Court St & State St,4488,State St & Smith St,4565,40.690237,-73.99203,40.68926942,-73.98912867,member
18993,1B1845754E1C5ABB,classic_bike,2021-06-25 16:43:52,2021-06-25 16:46:13,Schermerhorn St & Bond St,4479,State St & Smith St,4565,40.688417427540834,-73.98451656103134,40.68926942,-73.98912867,casual
18999,FD8ADEA786C92263,docked_bike,2021-06-15 22:21:51,2021-06-15 22:33:58,Bridge St & Water St,4968,State St & Smith St,4565,40.702969,-73.98469,40.68926942,-73.98912867,member
19003,4F715D7751F89593,electric_bike,2021-06-10 10:50:57,2021-06-10 11:05:07,DeKalb Ave & Franklin Ave,4528,State St & Smith St,4565,40.690648,-73.957461,40.68926942,-73.98912867,casual
19011,5AED8F1C25C23043,docked_bike,2021-06-11 20:12:30,2021-06-11 20:22:18,Atlantic Ave & Fort Greene Pl,4354,State St & Smith St,4565,40.683826,-73.976323,40.68926942,-73.98912867,casual
19013,4A0716E292DE8A2D,classic_bike,2021-06-25 18:03:25,2021-06-25 18:12:07,Atlantic Ave & Fort Greene Pl,4354,State St & Smith St,4565,40.68382604,-73.97632328,40.68926942,-73.98912867,member
19020,A83A7DC0E3A5261A,classic_bike,2021-06-24 18:04:48,2021-06-24 18:14:52,Adelphi St & Myrtle Ave,4620,State St & Smith St,4565,40.69308257,-73.97178913,40.68926942,-73.98912867,casual
19041,68859AE71BD4074A,docked_bike,2021-06-14 18:50:09,2021-06-14 19:05:38,Lexington Ave & Classon Ave,4452,State St & Smith St,4565,40.686767,-73.959281,40.68926942,-73.98912867,member
19063,63F7839507DE7913,docked_bike,2021-06-08 13:43:10,2021-06-08 13:43:26,State St & Smith St,4565,State St & Smith St,4565,40.689269,-73.989128,40.68926942,-73.98912867,casual
19070,6D1601A49E94D68A,electric_bike,2021-06-02 18:27:19,2021-06-02 18:30:17,State St & Smith St,4565,State St & Smith St,4565,40.689269,-73.989128,40.68926942,-73.98912867,member
19077,0A09CC71AD1EC675,electric_bike,2021-06-23 16:54:55,2021-06-23 17:22:54,State St & Smith St,4565,Underhill Ave & Lincoln Pl,4042,40.68926942,-73.98912867,40.6740123,-73.9671457,casual
19093,3D21F4FDF7980C77,classic_bike,2021-06-22 20:54:48,2021-06-22 21:16:02,Hicks St & Montague St,4645,State St & Smith St,4565,40.69512845,-73.99595065,40.68926942,-73.98912867,member
19102,AC0FF92504ABFF6C,docked_bike,2021-06-04 17:13:35,2021-06-04 17:20:09,Kane St & Clinton St,4455,State St & Smith St,4565,40.686175,-73.996452,40.68926942,-73.98912867,member
19104,299146618BF483B5,docked_bike,2021-06-05 23:32:48,2021-06-05 23:38:04,Kane St & Clinton St,4455,State St & Smith St,4565,40.686175,-73.996452,40.68926942,-73.98912867,member
19105,C378F01E182CFB9E,classic_bike,2021-06-24 13:28:10,2021-06-24 13:52:55,Hicks St & Montague St,4645,State St & Smith St,4565,40.69512845,-73.99595065,40.68926942,-73.98912867,member
19106,7ED3167E286090F4,docked_bike,2021-06-08 09:51:37,2021-06-08 09:58:17,Hicks St & Montague St,4645,State St & Smith St,4565,40.695128,-73.99595,40.68926942,-73.98912867,member
19117,7A92975DC1458946,electric_bike,2021-06-03 09:21:04,2021-06-03 09:31:15,DeKalb Ave & Franklin Ave,4528,State St & Smith St,4565,40.690648,-73.957461,40.68926942,-73.98912867,casual
19119,A197C05636D426B0,docked_bike,2021-06-19 10:35:42,2021-06-19 10:43:26,Clinton St & Union St,4266,State St & Smith St,4565,40.683116,-73.997852,40.68926942,-73.98912867,member
19147,1C854A09EBFED58E,docked_bike,2021-06-19 20:27:04,2021-06-19 20:32:13,Bergen St & 4 Ave,4322,State St & Smith St,4565,40.682564,-73.979897,40.68926942,-73.98912867,member
19148,E237148BF6886717,docked_bike,2021-06-07 22:08:10,2021-06-07 22:16:00,Bergen St & 4 Ave,4322,State St & Smith St,4565,40.682564,-73.979897,40.68926942,-73.98912867,casual
19169,A04B6F86851773C3,docked_bike,2021-06-06 19:03:30,2021-06-06 19:05:59,Fulton St & Adams St,4637,State St & Smith St,4565,40.692418,-73.989494,40.68926942,-73.98912867,member
19172,E31AD1275B201053,classic_bike,2021-06-25 10:33:18,2021-06-25 10:47:25,Grand Army Plaza & Plaza St West,4010,State St & Smith St,4565,40.6729679,-73.97087984,40.68926942,-73.98912867,member
19175,C7939B72EE2F2A2A,docked_bike,2021-06-10 18:39:00,2021-06-10 18:50:49,Fulton St & Adams St,4637,State St & Smith St,4565,40.692418,-73.989494,40.68926942,-73.98912867,member
19201,C813E6537907E11F,classic_bike,2021-06-28 08:17:10,2021-06-28 08:28:30,Fulton St & Waverly Ave,4345,State St & Smith St,4565,40.68323865460341,-73.96599590778351,40.68926942,-73.98912867,member
19219,C1D5C18D18779C31,electric_bike,2021-06-11 11:06:46,2021-06-11 11:21:40,Fulton St & Broadway,5175,State St & Smith St,4565,40.711066,-74.009447,40.68926942,-73.98912867,member
19221,D51F378E212B4A71,docked_bike,2021-06-17 15:18:38,2021-06-17 15:33:34,Fulton St & Waverly Ave,4345,State St & Smith St,4565,40.683238,-73.965995,40.68926942,-73.98912867,member
19222,676570778E024110,classic_bike,2021-06-26 21:19:54,2021-06-26 21:36:46,Fulton St & Waverly Ave,4345,State St & Smith St,4565,40.68323865460341,-73.96599590778351,40.68926942,-73.98912867,member
19226,4D3E3999913D2E90,electric_bike,2021-06-07 14:30:20,2021-06-07 14:49:36,Fulton St & Broadway,5175,State St & Smith St,4565,40.711066,-74.009447,40.68926942,-73.98912867,member
19244,E71A61305DEE0AF9,electric_bike,2021-06-16 13:20:14,2021-06-16 13:28:58,Jay St & York St,4895,State St & Smith St,4565,40.701403,-73.986726,40.68926942,-73.98912867,member
19245,01FE5AF193D72E77,classic_bike,2021-06-22 17:20:24,2021-06-22 17:23:42,Warren St & Smith St,4371,State St & Smith St,4565,40.68542400997018,-73.99127773940563,40.68926942,-73.98912867,member
19246,2A271E9DBD65CA2A,docked_bike,2021-06-11 07:05:41,2021-06-11 07:14:00,Baltic St & 5 Ave,4208,State St & Smith St,4565,40.679576,-73.978549,40.68926942,-73.98912867,member
19259,C42A62605BD12144,docked_bike,2021-06-10 22:52:59,2021-06-10 22:58:09,Jay St & York St,4895,State St & Smith St,4565,40.701403,-73.986726,40.68926942,-73.98912867,member
19260,6B5075BFC38F7914,docked_bike,2021-06-11 18:25:37,2021-06-11 18:30:38,Jay St & York St,4895,State St & Smith St,4565,40.701403,-73.986726,40.68926942,-73.98912867,member
19269,D4A31E0096437FB7,electric_bike,2021-06-12 17:43:18,2021-06-12 18:20:32,E 25 St & 2 Ave,6046,State St & Smith St,4565,40.739126,-73.979737,40.68926942,-73.98912867,casual
19276,20C6C8413EB3E108,docked_bike,2021-06-14 20:08:46,2021-06-14 20:13:34,Henry St & Remsen St,4645,State St & Smith St,4565,40.694009,-73.994651,40.68926942,-73.98912867,member
19290,AB0A4AD38F377516,classic_bike,2021-06-26 13:53:05,2021-06-26 14:21:32,Brooklyn Bridge Park - Pier 2,4756,State St & Smith St,4565,40.698458,-73.997178,40.68926942,-73.98912867,member
19291,3B36E1B3B85B2C11,classic_bike,2021-06-27 12:31:57,2021-06-27 13:03:44,Brooklyn Bridge Park - Pier 2,4756,State St & Smith St,4565,40.698458,-73.997178,40.68926942,-73.98912867,member
19295,CD4D722C9D198528,electric_bike,2021-06-23 08:10:51,2021-06-23 08:16:32,Concord St & Bridge St,4781,State St & Smith St,4565,40.69766564,-73.98476437,40.68926942,-73.98912867,member
19297,7E705D41414B01F9,docked_bike,2021-06-10 09:28:39,2021-06-10 09:41:29,Columbia Heights & Cranberry St,4829,State St & Smith St,4565,40.700378,-73.99548,40.68926942,-73.98912867,casual
19299,B18AA9DDE96F94A1,docked_bike,2021-06-17 07:22:53,2021-06-17 07:32:47,Union St & Nevins St,4143,State St & Smith St,4565,40.679097,-73.987654,40.68926942,-73.98912867,member
19302,B8B59CA72CF7EC87,classic_bike,2021-06-22 05:23:19,2021-06-22 05:36:28,7 Ave & Park Pl,4125,State St & Smith St,4565,40.6776147,-73.97324283,40.68926942,-73.98912867,casual
19303,A1213CC7E003D8E9,docked_bike,2021-06-11 20:17:27,2021-06-11 20:29:50,7 Ave & Park Pl,4125,State St & Smith St,4565,40.677614,-73.973242,40.68926942,-73.98912867,member
19306,485A82930D051BA9,classic_bike,2021-06-25 05:13:57,2021-06-25 05:27:34,7 Ave & Park Pl,4125,State St & Smith St,4565,40.6776147,-73.97324283,40.68926942,-73.98912867,casual
19311,73D97E68404B19EC,electric_bike,2021-06-15 13:50:16,2021-06-15 14:02:35,7 Ave & Park Pl,4125,State St & Smith St,4565,40.677614,-73.973242,40.68926942,-73.98912867,member
19321,5975282C4D70F7C6,docked_bike,2021-06-12 13:11:13,2021-06-12 13:35:54,Union St & Nevins St,4143,State St & Smith St,4565,40.679097,-73.987654,40.68926942,-73.98912867,member
19325,A02A1928601EDDBA,docked_bike,2021-06-16 15:34:34,2021-06-16 15:49:49,Union St & Nevins St,4143,State St & Smith St,4565,40.679097,-73.987654,40.68926942,-73.98912867,member
19326,F499A8734454C24E,docked_bike,2021-06-06 08:16:32,2021-06-06 08:26:13,7 Ave & Park Pl,4125,State St & Smith St,4565,40.677614,-73.973242,40.68926942,-73.98912867,casual
19329,7069A29A8A0272E0,electric_bike,2021-06-15 06:51:26,2021-06-15 07:01:41,7 Ave & Park Pl,4125,State St & Smith St,4565,40.677614,-73.973242,40.68926942,-73.98912867,casual
19332,58846972815DD6C8,classic_bike,2021-06-25 20:12:08,2021-06-25 20:20:29,7 Ave & Park Pl,4125,State St & Smith St,4565,40.6776147,-73.97324283,40.68926942,-73.98912867,member
19333,78597C4E772DEE20,docked_bike,2021-06-06 14:02:21,2021-06-06 14:10:31,Union St & Nevins St,4143,State St & Smith St,4565,40.679097,-73.987654,40.68926942,-73.98912867,member
19339,0229A270F718D187,classic_bike,2021-06-26 22:47:17,2021-06-26 23:06:25,7 Ave & Park Pl,4125,State St & Smith St,4565,40.6776147,-73.97324283,40.68926942,-73.98912867,member
19341,F741BDB18956A16B,docked_bike,2021-06-18 06:43:05,2021-06-18 06:53:41,7 Ave & Park Pl,4125,State St & Smith St,4565,40.677614,-73.973242,40.68926942,-73.98912867,casual
19348,8907DD615ED1B1CC,classic_bike,2021-06-27 22:32:39,2021-06-27 22:40:24,3 St & Hoyt St,4110,State St & Smith St,4565,40.6777287,-73.99364123,40.68926942,-73.98912867,member
19349,32F75A357CFBA9FD,electric_bike,2021-06-11 17:11:47,2021-06-11 17:23:00,Richards St & Delavan St,4202,State St & Smith St,4565,40.679432,-74.00785,40.68926942,-73.98912867,member
19351,CAEB4913C8D1FE60,electric_bike,2021-06-20 13:57:04,2021-06-20 14:38:57,Richards St & Delavan St,4202,State St & Smith St,4565,40.6794327,-74.00785041,40.68926942,-73.98912867,casual
19353,F0B699871E8FDF5C,electric_bike,2021-06-14 16:09:46,2021-06-14 16:12:52,Jay St & Tech Pl,4710,State St & Smith St,4565,40.695065,-73.987167,40.68926942,-73.98912867,member
19354,EC57AA706BCC7280,electric_bike,2021-06-22 23:37:09,2021-06-22 23:56:54,34 St & 5 Ave,3451,State St & Smith St,4565,40.654098,-74.001131,40.68926942,-73.98912867,member
19356,C543A248DCD5855B,classic_bike,2021-06-22 13:38:33,2021-06-22 13:45:03,Jay St & Tech Pl,4710,State St & Smith St,4565,40.695065,-73.987167,40.68926942,-73.98912867,member
19362,A5B601FD40590B1C,electric_bike,2021-06-04 07:28:54,2021-06-04 07:39:21,Richards St & Delavan St,4202,State St & Smith St,4565,40.679432,-74.00785,40.68926942,-73.98912867,member
19364,501F1B6275F8F2A0,docked_bike,2021-06-03 23:42:45,2021-06-03 23:46:22,Jay St & Tech Pl,4710,State St & Smith St,4565,40.695065,-73.987167,40.68926942,-73.98912867,member
19371,CC388330089A36DC,electric_bike,2021-06-22 13:24:34,2021-06-22 13:35:11,3 St & Hoyt St,4110,State St & Smith St,4565,40.6777287,-73.99364123,40.68926942,-73.98912867,member
19372,0A6B7EE768B5266B,docked_bike,2021-06-12 18:56:59,2021-06-12 19:00:25,Jay St & Tech Pl,4710,State St & Smith St,4565,40.695065,-73.987167,40.68926942,-73.98912867,member
19383,09B951CF648BB823,classic_bike,2021-06-25 10:40:02,2021-06-25 10:45:17,3 St & Hoyt St,4110,State St & Smith St,4565,40.6777287,-73.99364123,40.68926942,-73.98912867,member
19384,01203D1E714FE295,docked_bike,2021-06-09 11:03:57,2021-06-09 11:09:57,3 St & Hoyt St,4110,State St & Smith St,4565,40.677728,-73.993641,40.68926942,-73.98912867,member
19389,D97AA39399F46723,docked_bike,2021-06-09 05:36:19,2021-06-09 05:40:21,Clinton St & Union St,4266,State St & Smith St,4565,40.683116,-73.997852,40.68926942,-73.98912867,member
19390,3D68BA5A56637577,electric_bike,2021-06-17 15:30:33,2021-06-17 15:34:58,Clinton St & Union St,4266,State St & Smith St,4565,40.683116,-73.997852,40.68926942,-73.98912867,member
19391,ACD25DE472FA361B,electric_bike,2021-06-20 13:59:02,2021-06-20 14:22:41,Richards St & Delavan St,4202,State St & Smith St,4565,40.6794327,-74.00785041,40.68926942,-73.98912867,member
19392,FB1E880DAEC98502,docked_bike,2021-06-15 20:48:35,2021-06-15 20:53:14,Jay St & Tech Pl,4710,State St & Smith St,4565,40.695065,-73.987167,40.68926942,-73.98912867,member
19398,17C4C36B28C2ACD4,docked_bike,2021-06-09 22:43:59,2021-06-09 22:48:35,Jay St & Tech Pl,4710,State St & Smith St,4565,40.695065,-73.987167,40.68926942,-73.98912867,member
19400,602B2985CEE6E630,classic_bike,2021-06-25 14:46:01,2021-06-25 14:54:49,3 St & Hoyt St,4110,State St & Smith St,4565,40.6777287,-73.99364123,40.68926942,-73.98912867,member
19402,A04F886E9714D767,docked_bike,2021-06-16 17:29:41,2021-06-16 17:35:55,3 St & Hoyt St,4110,State St & Smith St,4565,40.677728,-73.993641,40.68926942,-73.98912867,member
19418,2EAA908C582F618D,docked_bike,2021-06-09 17:00:42,2021-06-09 17:05:05,Henry St & Remsen St,4645,State St & Smith St,4565,40.694009,-73.994651,40.68926942,-73.98912867,member
19434,E92EC706E7C6DAE6,classic_bike,2021-06-17 06:18:57,2021-06-17 06:24:01,Degraw St & Hoyt St,4258,State St & Smith St,4565,40.68199044270703,-73.99079024791718,40.68926942,-73.98912867,member
19449,C556986085D38E92,docked_bike,2021-06-10 12:42:13,2021-06-10 12:47:11,Degraw St & Hoyt St,4258,State St & Smith St,4565,40.68199,-73.99079,40.68926942,-73.98912867,member
19458,ED3BC9211DA937C4,electric_bike,2021-06-10 09:48:32,2021-06-10 10:06:56,Kingston Ave & Herkimer St,4205,State St & Smith St,4565,40.678906,-73.941427,40.68926942,-73.98912867,member
19701,8C98FD41C16AE3A1,electric_bike,2021-06-12 11:09:14,2021-06-12 11:15:26,Atlantic Ave & Fort Greene Pl,4354,State St & Smith St,4565,40.683826,-73.976323,40.68926942,-73.98912867,member
19718,2ADA0CE1AFFD8726,electric_bike,2021-06-11 11:17:51,2021-06-11 11:29:32,Bridge St & Water St,4968,State St & Smith St,4565,40.702969,-73.98469,40.68926942,-73.98912867,member
19767,4BAB61F7BB493682,electric_bike,2021-06-11 15:21:57,2021-06-11 15:45:54,W 20 St & 8 Ave,6224,State St & Smith St,4565,40.743453,-74.00004,40.68926942,-73.98912867,member
19793,6A7EB2D1D51DF226,docked_bike,2021-06-07 16:09:51,2021-06-07 16:16:42,Pacific St & Nevins St,4362,State St & Smith St,4565,40.685376,-73.983021,40.68926942,-73.98912867,member
20258,58E1A90543F27991,electric_bike,2021-06-03 14:45:27,2021-06-03 14:52:26,Schermerhorn St & Court St,4565,Clark St & Henry St,4789,40.691029,-73.991833,40.69760127,-73.99344559,casual
20259,824BA3D65E8FA8F8,docked_bike,2021-06-09 10:13:10,2021-06-09 10:27:38,Schermerhorn St & Court St,4565,Clark St & Henry St,4789,40.691029,-73.991833,40.69760127,-73.99344559,member
20261,17130765D2EA61D6,classic_bike,2021-06-26 15:12:38,2021-06-26 15:17:45,Schermerhorn St & Court St,4565,Clark St & Henry St,4789,40.69102925677968,-73.99183362722397,40.69760127,-73.99344559,member
20347,11C3367586F98FB7,docked_bike,2021-06-02 16:08:48,2021-06-02 16:15:00,Jay St & Tech Pl,4710,State St & Smith St,4565,40.695065,-73.987167,40.68926942,-73.98912867,member
20348,7BA6392612B8AE69,docked_bike,2021-06-11 11:31:19,2021-06-11 11:38:27,Jay St & Tech Pl,4710,State St & Smith St,4565,40.695065,-73.987167,40.68926942,-73.98912867,member
23131,305F02C3A6B0B83A,electric_bike,2021-06-26 17:50:50,2021-06-26 18:15:27,Schermerhorn St & Court St,4565,Broadway & Roebling St,5125,40.69102925677968,-73.99183362722397,40.70924826276157,-73.96063148975372,member
23940,EA165B9605A1C917,classic_bike,2021-06-23 16:55:35,2021-06-23 17:06:44,State St & Smith St,4565,Columbia Heights & Cranberry St,4829,40.68926942,-73.98912867,40.70037867,-73.99548059,member
23943,DCE429538195F6E1,electric_bike,2021-06-28 09:48:30,2021-06-28 09:59:09,State St & Smith St,4565,Fulton St & William St,5137,40.68926942,-73.98912867,40.70960089363537,-74.00655090808868,member
26494,1BE7847C4736271D,classic_bike,2021-06-25 20:42:17,2021-06-25 20:43:41,Schermerhorn St & Court St,4565,Clinton St & Joralemon St,4605,40.69102925677968,-73.99183362722397,40.69239502,-73.99337909,member
27072,E167C193DD351D2D,docked_bike,2021-06-06 13:20:41,2021-06-06 13:31:55,Schermerhorn St & Court St,4565,Cumberland St & Lafayette Ave,4428,40.691029,-73.991833,40.68753406,-73.97265183,member
27203,B0D637D54F17BF40,docked_bike,2021-06-01 19:08:08,2021-06-01 19:36:01,State St & Smith St,4565,Parade Pl & Crooke Ave,3376,40.689269,-73.989128,40.651847,-73.965248,member
28494,99BC531AEC4ADB0B,docked_bike,2021-06-13 13:50:21,2021-06-13 14:07:52,Schermerhorn St & Court St,4565,Boerum Pl\t& Pacific St,4488,40.691029,-73.991833,40.68848905639242,-73.99116039276123,casual
28605,A74C0C008BA766EC,electric_bike,2021-06-11 12:45:20,2021-06-11 13:07:39,State St & Smith St,4565,Mott St & Prince St,5561,40.689269,-73.989128,40.72317958,-73.99480012,member
28610,AC3CED354793CD87,electric_bike,2021-06-18 13:02:04,2021-06-18 13:10:19,State St & Smith St,4565,Washington Ave & Greene Ave,4419,40.68926942,-73.98912867,40.68650065,-73.96563307,casual
28627,D2904EBB72A9A06E,docked_bike,2021-06-08 19:51:33,2021-06-08 19:52:57,State St & Smith St,4565,Boerum Pl\t& Pacific St,4488,40.689269,-73.989128,40.68848905639242,-73.99116039276123,member
28635,D06439E7CA1E135D,electric_bike,2021-06-04 09:59:24,2021-06-04 10:07:48,State St & Smith St,4565,Washington Ave & Greene Ave,4419,40.689269,-73.989128,40.68650065,-73.96563307,member
30315,10B7E7973AAB7950,electric_bike,2021-06-21 19:33:12,2021-06-21 19:44:06,State St & Smith St,4565,7 Ave & Park Pl,4125,40.68926942,-73.98912867,40.6776147,-73.97324283,member
30322,87D9161CCAA38189,electric_bike,2021-06-14 19:38:22,2021-06-14 19:53:30,State St & Smith St,4565,Commerce St & Van Brunt St,4243,40.689269,-73.989128,40.6812117,-74.00860912,member
30326,8EAC269F7415818A,electric_bike,2021-06-07 22:25:45,2021-06-07 22:53:47,State St & Smith St,4565,E 56 St & 3 Ave,6691,40.689269,-73.989128,40.75934501,-73.96759673,member
30327,310B19FAE7DD0F99,docked_bike,2021-06-13 13:20:24,2021-06-13 13:32:02,State St & Smith St,4565,7 Ave & Park Pl,4125,40.689269,-73.989128,40.6776147,-73.97324283,member
30330,B929EDC91D4500B4,electric_bike,2021-06-14 07:53:39,2021-06-14 08:03:35,State St & Smith St,4565,Commerce St & Van Brunt St,4243,40.689269,-73.989128,40.6812117,-74.00860912,member
30331,FA010C7F14E7642A,electric_bike,2021-06-16 07:38:37,2021-06-16 07:48:46,State St & Smith St,4565,Commerce St & Van Brunt St,4243,40.689269,-73.989128,40.6812117,-74.00860912,member
30344,553C3C02D7663701,docked_bike,2021-06-18 07:57:02,2021-06-18 08:03:48,State St & Smith St,4565,Union St & Nevins St,4143,40.689269,-73.989128,40.67909799721684,-73.98765474557877,member
30360,6ECDCD17DC47C18C,electric_bike,2021-06-03 07:34:27,2021-06-03 07:42:40,State St & Smith St,4565,Commerce St & Van Brunt St,4243,40.689269,-73.989128,40.6812117,-74.00860912,member
30368,5A3D9061E368E5F7,electric_bike,2021-06-15 11:09:00,2021-06-15 11:19:17,State St & Smith St,4565,7 Ave & Park Pl,4125,40.689269,-73.989128,40.6776147,-73.97324283,member
30382,560DDE06EC387B56,electric_bike,2021-06-18 15:39:02,2021-06-18 16:05:11,State St & Smith St,4565,Powers St & Olive St,5210,40.689269,-73.989128,40.71323,-73.93894,member
30395,8F7B15F2D45BAA89,electric_bike,2021-06-14 15:38:15,2021-06-14 15:50:28,State St & Smith St,4565,Pike St & Monroe St,5159,40.689269,-73.989128,40.71173107,-73.99193043,member
30448,4CA57527558BB38C,docked_bike,2021-06-11 11:38:11,2021-06-11 11:49:47,State St & Smith St,4565,Fulton St & Clermont Ave,4386,40.689269,-73.989128,40.68415748,-73.96922273,member
30449,7DFABF42105820C7,electric_bike,2021-06-06 02:04:15,2021-06-06 02:54:41,State St & Smith St,4565,Fulton St & Clermont Ave,4386,40.689269,-73.989128,40.68415748,-73.96922273,member
30450,272764A72458F33E,docked_bike,2021-06-10 14:46:57,2021-06-10 14:57:37,State St & Smith St,4565,Fulton St & Clermont Ave,4386,40.689269,-73.989128,40.68415748,-73.96922273,casual
30866,06A436F4565840C2,docked_bike,2021-06-13 18:04:36,2021-06-13 18:42:32,Schermerhorn St & Court St,4565,Grand St & Havemeyer St,5267,40.691029,-73.991833,40.71286844,-73.95698119,member
34177,7B0CCE10E7C975D6,docked_bike,2021-06-16 09:35:51,2021-06-16 09:41:46,Schermerhorn St & Court St,4565,Bond St & Fulton St,4479,40.691029,-73.991833,40.68962188790333,-73.98304268717766,member
34178,97FAAF56BBD640CF,docked_bike,2021-06-07 09:19:11,2021-06-07 09:23:02,Schermerhorn St & Court St,4565,Bond St & Fulton St,4479,40.691029,-73.991833,40.68962188790333,-73.98304268717766,member
34179,F3CAFCC8FAA56D9E,docked_bike,2021-06-02 09:49:34,2021-06-02 09:54:46,Schermerhorn St & Court St,4565,Bond St & Fulton St,4479,40.691029,-73.991833,40.68962188790333,-73.98304268717766,member
37433,408E28BAF989E852,electric_bike,2021-06-10 19:08:07,2021-06-10 19:18:51,Schermerhorn St & Court St,4565,Columbia St & Lorraine St,4013,40.691029,-73.991833,40.6747055,-74.0075572,member
37439,CDFB323111196D30,electric_bike,2021-06-11 18:47:45,2021-06-11 19:01:52,Schermerhorn St & Court St,4565,Allen St & Hester St,5342,40.691029,-73.991833,40.71605866,-73.99190759,member
37467,FEBB71A95C91DEB4,electric_bike,2021-06-25 09:16:50,2021-06-25 09:39:51,Schermerhorn St & Court St,4565,Gansevoort St & Hudson St,6072,40.69102925677968,-73.99183362722397,40.73944820130404,-74.00507032871246,member
37500,A3962AB46B72F58F,electric_bike,2021-06-18 19:22:45,2021-06-18 19:33:19,Schermerhorn St & Court St,4565,Allen St & Hester St,5342,40.691029,-73.991833,40.71605866,-73.99190759,member
43367,1220C5113BC68253,docked_bike,2021-06-12 11:43:30,2021-06-12 12:11:00,Schermerhorn St & Court St,4565,W 21 St & 6 Ave,6140,40.691029,-73.991833,40.74173969,-73.99415556,member
43713,3163181FE7AEDFCC,docked_bike,2021-06-06 20:27:41,2021-06-06 20:47:13,State St & Smith St,4565,Kosciuszko St & Nostrand Ave,4519,40.689269,-73.989128,40.69072549,-73.95133465,member
43736,40FA980CF3F408BA,classic_bike,2021-06-24 10:44:42,2021-06-24 12:13:16,State St & Smith St,4565,Leonard St & Nassau Ave,5550,40.68926942,-73.98912867,40.7239567849954,-73.94984364509583,casual
44352,B3DA25FA663356F2,docked_bike,2021-06-13 12:55:50,2021-06-13 13:46:09,State St & Smith St,4565,Montgomery St & Franklin Ave,3776,40.689269,-73.989128,40.666439306870814,-73.9605563879013,member
44906,2FD39DD39FA538CF,docked_bike,2021-06-11 11:51:02,2021-06-11 11:58:40,Schermerhorn St & Court St,4565,Duffield St & Willoughby St,4596,40.691029,-73.991833,40.69221589,-73.9842844,member
47933,EB2F44A3B21F935F,docked_bike,2021-06-17 19:01:44,2021-06-17 19:27:58,State St & Smith St,4565,Washington Park,4546,40.689269,-73.989128,40.6917823,-73.9737299,casual
51079,744734BF020F362F,electric_bike,2021-06-10 16:02:52,2021-06-10 16:10:07,Schermerhorn St & Court St,4565,Brooklyn Bridge Park - Pier 2,4756,40.691029,-73.991833,40.698458,-73.997178,member
51223,AB0455D8FEE9AC20,docked_bike,2021-06-14 15:06:49,2021-06-14 15:45:37,State St & Smith St,4565,Brooklyn Bridge Park - Pier 2,4756,40.689269,-73.989128,40.698458,-73.997178,member
51224,C174E15D034A8354,docked_bike,2021-06-15 12:17:50,2021-06-15 13:01:37,State St & Smith St,4565,Brooklyn Bridge Park - Pier 2,4756,40.689269,-73.989128,40.698458,-73.997178,member
51225,DDAF338A887B480C,docked_bike,2021-06-08 10:59:11,2021-06-08 11:43:21,State St & Smith St,4565,Brooklyn Bridge Park - Pier 2,4756,40.689269,-73.989128,40.698458,-73.997178,member
51227,A93143A66AA577D2,docked_bike,2021-06-07 21:52:34,2021-06-07 22:06:24,State St & Smith St,4565,Prospect Pl & 6 Ave,4166,40.689269,-73.989128,40.6793307,-73.97519523,casual
52308,FD9DD25658F8D982,docked_bike,2021-06-10 23:51:07,2021-06-10 23:56:56,Schermerhorn St & Court St,4565,Carroll St & Smith St,4225,40.691029,-73.991833,40.680611,-73.99475825,member
52415,7375190320741F32,electric_bike,2021-06-26 13:45:39,2021-06-26 14:05:47,Schermerhorn St & Court St,4565,W 4 St & 7 Ave S,5880,40.69102925677968,-73.99183362722397,40.73401143,-74.00293877,member
54217,032E733762D20B29,docked_bike,2021-06-17 14:10:50,2021-06-17 14:25:23,Schermerhorn St & Court St,4565,Clermont Ave & Lafayette Ave,4461,40.691029,-73.991833,40.68764484,-73.96968902,casual
56767,9743270156567877,electric_bike,2021-06-29 21:03:09,2021-06-29 22:11:03,Schermerhorn St & Court St,4565,Bedford Ave & Montgomery St,3736,40.69102925677968,-73.99183362722397,40.665816,-73.956934,member
57590,3135767320F05916,classic_bike,2021-06-19 13:11:29,2021-06-19 13:18:50,Schermerhorn St & Court St,4565,Wyckoff St & Nevins St,4290,40.69102925677968,-73.99183362722397,40.683426,-73.984275,member
57592,693720F7B1EF2E16,electric_bike,2021-06-17 17:28:04,2021-06-17 18:14:20,Schermerhorn St & Court St,4565,Van Brunt St & Wolcott St,4095,40.691029,-73.991833,40.6773429,-74.01275056,member
58247,07AEE885E7C15C30,classic_bike,2021-06-21 16:01:31,2021-06-21 16:07:06,State St & Smith St,4565,Wyckoff St & Nevins St,4290,40.68926942,-73.98912867,40.683426,-73.984275,member
58248,4327D01A507C44ED,classic_bike,2021-06-26 18:55:56,2021-06-26 19:23:14,State St & Smith St,4565,Fulton St & Irving Pl,4263,40.68926942,-73.98912867,40.68186,-73.959432,member
58250,6B5499462BD9087D,electric_bike,2021-06-29 16:19:24,2021-06-29 16:37:34,State St & Smith St,4565,Broadway & Whipple St,4883,40.68926942,-73.98912867,40.7016657,-73.9437303,member
59610,86F8CF71D24BD69C,docked_bike,2021-06-16 09:59:54,2021-06-16 10:24:41,Schermerhorn St & Court St,4565,Court St & Nelson St,4077,40.691029,-73.991833,40.6763947,-73.99869893,member
65610,DB72FDCF06935ED5,electric_bike,2021-06-15 08:53:58,2021-06-15 09:22:10,Schermerhorn St & Court St,4565,E 15 St & 3 Ave,5863,40.691029,-73.991833,40.734232,-73.986923,member
65670,80927922A09CE995,classic_bike,2021-06-24 12:34:12,2021-06-24 13:19:05,State St & Smith St,4565,Montrose Ave & Bushwick Ave,5068,40.68926942,-73.98912867,40.70767788,-73.94016171,casual
68018,15B0F68C0C1BF348,electric_bike,2021-06-22 17:30:34,2021-06-22 17:54:48,Schermerhorn St & Court St,4565,Greenwich Ave & Charles St,5914,40.69102925677968,-73.99183362722397,40.735238,-74.000271,member
69882,BF5069751F520D5E,electric_bike,2021-06-22 17:45:57,2021-06-22 17:53:30,Schermerhorn St & Court St,4565,Hanson Pl & Ashland Pl,4395,40.69102925677968,-73.99183362722397,40.68506807308177,-73.97790759801863,member
69883,5B3FB5569E84D79B,docked_bike,2021-06-02 13:26:58,2021-06-02 14:02:03,Schermerhorn St & Court St,4565,W 35 St & 9 Ave,6569,40.691029,-73.991833,40.75414519263519,-73.9960889518261,casual
70271,010AFA0F05EA69E8,docked_bike,2021-06-15 09:38:47,2021-06-15 09:43:26,State St & Smith St,4565,Hanson Pl & Ashland Pl,4395,40.689269,-73.989128,40.68506807308177,-73.97790759801863,member
70275,DE7F863E5095C247,classic_bike,2021-06-29 08:07:31,2021-06-29 08:13:30,State St & Smith St,4565,Hanson Pl & Ashland Pl,4395,40.68926942,-73.98912867,40.68506807308177,-73.97790759801863,member
70276,3BE0E51FB0AC407E,electric_bike,2021-06-16 19:20:06,2021-06-16 19:25:42,State St & Smith St,4565,Hanson Pl & Ashland Pl,4395,40.689269,-73.989128,40.68506807308177,-73.97790759801863,casual
74045,442F61FA0C4713CF,docked_bike,2021-06-15 12:05:29,2021-06-15 12:11:22,Schermerhorn St & Court St,4565,Jay St & Tech Pl,4710,40.691029,-73.991833,40.695065,-73.987167,member
78697,B506B23DDA3B2D79,docked_bike,2021-06-01 09:59:26,2021-06-01 10:18:18,State St & Smith St,4565,Kent Ave & N 7 St,5489,40.689269,-73.989128,40.72036775298455,-73.96165072917938,member
80403,9C83338CF0C19E4B,electric_bike,2021-06-06 02:50:19,2021-06-06 03:02:50,State St & Smith St,4565,Hancock St & Bedford Ave,4255,40.689269,-73.989128,40.68216564,-73.95399026,member
82795,6FE315716B292DED,electric_bike,2021-06-21 17:27:13,2021-06-21 17:41:26,State St & Smith St,4565,Fulton St & Adams St,4637,40.68926942,-73.98912867,40.69241829257847,-73.98949474096298,member
82810,3814F18679118132,classic_bike,2021-06-23 18:20:00,2021-06-23 18:36:14,State St & Smith St,4565,Grand Army Plaza & Plaza St West,4010,40.68926942,-73.98912867,40.6729679,-73.97087984,casual
82832,EAD9C952F6E18567,electric_bike,2021-06-14 08:48:44,2021-06-14 08:50:26,State St & Smith St,4565,Fulton St & Adams St,4637,40.689269,-73.989128,40.69241829257847,-73.98949474096298,member
82833,2DA473DD8FB18BF6,classic_bike,2021-06-28 09:08:25,2021-06-28 09:11:29,State St & Smith St,4565,Fulton St & Adams St,4637,40.68926942,-73.98912867,40.69241829257847,-73.98949474096298,member
82838,2C6AFE6748261611,classic_bike,2021-06-29 14:04:23,2021-06-29 14:07:13,State St & Smith St,4565,Fulton St & Adams St,4637,40.68926942,-73.98912867,40.69241829257847,-73.98949474096298,casual
82846,B42D5C21FE406220,classic_bike,2021-06-25 09:33:05,2021-06-25 09:35:19,State St & Smith St,4565,Fulton St & Adams St,4637,40.68926942,-73.98912867,40.69241829257847,-73.98949474096298,member
82853,541A1CBC3910674E,docked_bike,2021-06-15 15:33:03,2021-06-15 15:49:05,State St & Smith St,4565,3 St & 7 Ave,3905,40.689269,-73.989128,40.6703837,-73.97839676,casual
82859,E85F537CC31AA8B6,classic_bike,2021-06-29 14:06:09,2021-06-29 14:23:58,State St & Smith St,4565,3 St & 7 Ave,3905,40.68926942,-73.98912867,40.6703837,-73.97839676,casual
83646,A7E4002DD4B1655E,docked_bike,2021-06-16 21:14:27,2021-06-16 21:19:00,State St & Smith St,4565,Fulton St & Adams St,4637,40.689269,-73.989128,40.69241829257847,-73.98949474096298,casual
83649,1587B1DB83285299,classic_bike,2021-06-24 21:39:08,2021-06-24 21:41:44,State St & Smith St,4565,Fulton St & Adams St,4637,40.68926942,-73.98912867,40.69241829257847,-73.98949474096298,member
83677,201E043EF657502F,classic_bike,2021-06-26 13:52:59,2021-06-26 14:00:57,State St & Smith St,4565,Fulton St & Adams St,4637,40.68926942,-73.98912867,40.69241829257847,-73.98949474096298,member
83678,101F7F0E3C93DCE8,classic_bike,2021-06-26 17:48:24,2021-06-26 17:50:46,State St & Smith St,4565,Fulton St & Adams St,4637,40.68926942,-73.98912867,40.69241829257847,-73.98949474096298,casual
84483,5B377B9BE39B95D2,docked_bike,2021-06-18 18:32:33,2021-06-18 18:49:33,State St & Smith St,4565,Grand Army Plaza & Plaza St West,4010,40.689269,-73.989128,40.6729679,-73.97087984,casual
84626,685F5862B08822C8,docked_bike,2021-06-15 23:51:54,2021-06-16 00:57:38,Schermerhorn St & Court St,4565,44 St & 3 Ave,3315,40.691029,-73.991833,40.651173,-74.011405,casual
85251,4F4A3E32ACA86E3D,docked_bike,2021-06-21 07:44:47,2021-06-21 08:33:19,State St & Smith St,4565,West End Ave & W 94 St,7524,40.689269,-73.989128,40.7941654,-73.974124,member
85270,8010A7CD567AF6D4,docked_bike,2021-06-07 19:56:13,2021-06-07 20:08:49,State St & Smith St,4565,Carroll St & 5 Ave,4060,40.689269,-73.989128,40.6751622,-73.9814832,member
85275,671638CBE8B78207,docked_bike,2021-06-09 11:30:12,2021-06-09 11:41:01,State St & Smith St,4565,Carroll St & 5 Ave,4060,40.689269,-73.989128,40.6751622,-73.9814832,member
85285,378D4F3253E86339,classic_bike,2021-06-30 16:42:15,2021-06-30 16:56:11,State St & Smith St,4565,7 St & 5 Ave,3914,40.68926942,-73.98912867,40.6704922,-73.98541675,member
85287,1F76B115E21F3B34,docked_bike,2021-06-08 17:48:19,2021-06-08 18:01:52,State St & Smith St,4565,Carroll St & 5 Ave,4060,40.689269,-73.989128,40.6751622,-73.9814832,casual
86518,4CB40A9A4EEC239B,classic_bike,2021-06-29 18:54:52,2021-06-29 19:10:27,State St & Smith St,4565,16th St & 4th Ave,3811,40.68926942,-73.98912867,40.666197,-73.992466,member
87433,394C6B6FF3F426F3,electric_bike,2021-06-25 23:17:31,2021-06-25 23:23:04,Pacific St & Nevins St,4362,Schermerhorn St & Court St,4565,40.6853761,-73.98302136,40.69102925677968,-73.99183362722397,member
87435,D179FACB58D98CB1,docked_bike,2021-06-13 11:30:37,2021-06-13 11:47:20,Greene Ave & Nostrand Ave,4519,Schermerhorn St & Court St,4565,40.688333,-73.950916,40.69102925677968,-73.99183362722397,member
87453,2D0317DD35CF6415,docked_bike,2021-06-02 17:06:36,2021-06-02 17:09:55,Bergen St & Smith St,4446,Schermerhorn St & Court St,4565,40.686744,-73.990631,40.69102925677968,-73.99183362722397,member
87455,A677977226D770C9,docked_bike,2021-06-06 18:54:59,2021-06-06 18:59:24,Bergen St & Smith St,4446,Schermerhorn St & Court St,4565,40.686744,-73.990631,40.69102925677968,-73.99183362722397,member
87490,159F0BA68C579264,docked_bike,2021-06-03 14:41:34,2021-06-03 14:48:24,Schermerhorn St & Court St,4565,Henry St & Degraw St,4380,40.691029,-73.991833,40.6847514,-73.99917254,member
87497,0A5AD832C7450A8D,classic_bike,2021-06-29 07:28:28,2021-06-29 07:45:00,Schermerhorn St & Court St,4565,Schermerhorn St & Court St,4565,40.69102925677968,-73.99183362722397,40.69102925677968,-73.99183362722397,casual
87623,B635F6716EC47120,docked_bike,2021-06-14 17:39:51,2021-06-14 17:47:14,Front St & Washington St,4936,Schermerhorn St & Court St,4565,40.70255,-73.989402,40.69102925677968,-73.99183362722397,member
87640,79A70F8EE9FF96E7,docked_bike,2021-06-10 16:25:11,2021-06-10 16:26:29,Clinton St & Joralemon St,4605,Schermerhorn St & Court St,4565,40.692395,-73.993379,40.69102925677968,-73.99183362722397,member
87650,518DDBE0EBD587DB,docked_bike,2021-06-18 18:36:18,2021-06-18 18:38:14,State St & Smith St,4565,Schermerhorn St & Court St,4565,40.689269,-73.989128,40.69102925677968,-73.99183362722397,member
87652,294A1B55E9C07A18,electric_bike,2021-06-24 07:42:26,2021-06-24 07:46:50,1 Pl & Clinton St,4193,Schermerhorn St & Court St,4565,40.6809591,-73.99905709,40.69102925677968,-73.99183362722397,member
87710,0E962ACB90D95976,electric_bike,2021-06-14 19:21:53,2021-06-14 19:44:01,Grove St & Broadway,4526,Schermerhorn St & Court St,4565,40.69047,-73.923511,40.69102925677968,-73.99183362722397,member
87713,E3C67E8C52A82AE7,docked_bike,2021-06-02 23:58:12,2021-06-03 00:01:04,Congress St & Clinton St,4455,Schermerhorn St & Court St,4565,40.688152,-73.995209,40.69102925677968,-73.99183362722397,member
87723,E2D1135829AF85E2,docked_bike,2021-06-15 10:41:23,2021-06-15 11:04:00,Eastern Pkwy & Washington Ave,3928,Schermerhorn St & Court St,4565,40.671649,-73.963114,40.69102925677968,-73.99183362722397,member
87736,77FA03529609B42F,docked_bike,2021-06-07 09:23:04,2021-06-07 09:30:12,Butler St & Court St,4339,Schermerhorn St & Court St,4565,40.684989,-73.994403,40.69102925677968,-73.99183362722397,member
87761,F30F1289446AF380,electric_bike,2021-06-26 18:17:31,2021-06-26 18:21:25,Duffield St & Willoughby St,4596,Schermerhorn St & Court St,4565,40.69221589,-73.9842844,40.69102925677968,-73.99183362722397,member
87768,C907D9DC7E0E41F7,docked_bike,2021-06-03 11:57:33,2021-06-03 12:18:27,Dwight St & Van Dyke St,3981,Schermerhorn St & Court St,4565,40.673635,-74.011955,40.69102925677968,-73.99183362722397,member
87799,24D2669CFF2433A3,electric_bike,2021-06-22 17:30:14,2021-06-22 17:32:28,Pierrepont St & Monroe Pl,4718,Schermerhorn St & Court St,4565,40.69535693320225,-73.99344027042389,40.69102925677968,-73.99183362722397,member
87843,835A567027A0A14D,classic_bike,2021-06-23 13:05:16,2021-06-23 13:15:56,Bergen St & Flatbush Ave,4281,Schermerhorn St & Court St,4565,40.680944723477296,-73.97567331790923,40.69102925677968,-73.99183362722397,member
87861,55CA2F4F708966C6,electric_bike,2021-06-11 21:51:39,2021-06-11 22:31:15,Clark St & Henry St,4789,Schermerhorn St & Court St,4565,40.697601,-73.993445,40.69102925677968,-73.99183362722397,casual
87884,A1C9DABD2D3B2496,docked_bike,2021-06-17 17:23:25,2021-06-17 17:25:14,Court St & State St,4488,Schermerhorn St & Court St,4565,40.690237,-73.99203,40.69102925677968,-73.99183362722397,member
87894,F93FA2F454E5C080,classic_bike,2021-06-27 09:17:34,2021-06-27 09:34:27,6 St & 7 Ave,3834,Schermerhorn St & Court St,4565,40.6686627,-73.97988067,40.69102925677968,-73.99183362722397,member
87899,6F7C39C587243607,classic_bike,2021-06-25 21:40:03,2021-06-25 21:45:27,DeKalb Ave & Hudson Ave,4513,Schermerhorn St & Court St,4565,40.689888,-73.981013,40.69102925677968,-73.99183362722397,member
87901,8410F5D70DE8CAC0,electric_bike,2021-06-11 12:22:44,2021-06-11 12:28:11,Clinton St & Union St,4266,Schermerhorn St & Court St,4565,40.683116,-73.997852,40.69102925677968,-73.99183362722397,member
87904,A501EB654BAC4AA4,classic_bike,2021-06-23 18:51:38,2021-06-23 19:19:24,State St & Smith St,4565,Sterling Pl & Bedford Ave,3993,40.68926942,-73.98912867,40.672695,-73.954131,member
87907,5860E6117ECECB9F,docked_bike,2021-06-10 13:54:34,2021-06-10 14:04:43,Columbia St & W 9 St,4086,Schermerhorn St & Court St,4565,40.676999,-74.006471,40.69102925677968,-73.99183362722397,member
87962,A9ECAD7C0927E6F1,docked_bike,2021-06-19 18:05:18,2021-06-19 18:13:17,Congress St & Hicks St,4497,Schermerhorn St & Court St,4565,40.689395,-73.999512,40.69102925677968,-73.99183362722397,member
87993,FBFE50DEB77C6CC3,docked_bike,2021-06-12 10:57:54,2021-06-12 11:07:14,Front St & Washington St,4936,Schermerhorn St & Court St,4565,40.70255,-73.989402,40.69102925677968,-73.99183362722397,member
88027,05D20980FBC1ED07,classic_bike,2021-06-27 13:55:45,2021-06-27 13:58:54,Kane St & Clinton St,4455,Schermerhorn St & Court St,4565,40.6861758,-73.99645295,40.69102925677968,-73.99183362722397,member
88044,9E481C6B2A928E0A,electric_bike,2021-06-23 07:20:20,2021-06-23 07:37:03,Division Ave & Hooper St,5045,Schermerhorn St & Court St,4565,40.70684203101325,-73.9544353965357,40.69102925677968,-73.99183362722397,member
88062,F319D94F4989F103,classic_bike,2021-06-28 20:11:10,2021-06-28 20:19:21,Columbia Heights & Cranberry St,4829,Schermerhorn St & Court St,4565,40.70037867,-73.99548059,40.69102925677968,-73.99183362722397,member
88064,CD9D0E0F65709678,classic_bike,2021-06-27 14:12:20,2021-06-27 14:21:40,Columbia Heights & Cranberry St,4829,Schermerhorn St & Court St,4565,40.70037867,-73.99548059,40.69102925677968,-73.99183362722397,casual
89091,12228AE9C9140146,docked_bike,2021-06-07 15:37:25,2021-06-07 15:48:55,Front St & Washington St,4936,Schermerhorn St & Court St,4565,40.70255,-73.989402,40.69102925677968,-73.99183362722397,member
89253,9306AF06C0B3C465,electric_bike,2021-06-10 13:12:53,2021-06-10 13:27:45,Carlton Ave & Dean St,4199,Schermerhorn St & Court St,4565,40.680974,-73.971009,40.69102925677968,-73.99183362722397,member
89266,8AA471ED84EF1100,docked_bike,2021-06-19 12:55:22,2021-06-19 13:50:48,Hanson Pl & Ashland Pl,4395,Schermerhorn St & Court St,4565,40.685068,-73.977907,40.69102925677968,-73.99183362722397,casual
89273,8BA792D07B4B23AE,docked_bike,2021-06-03 07:34:16,2021-06-03 07:40:57,Hanson Pl & Ashland Pl,4395,Schermerhorn St & Court St,4565,40.685068,-73.977907,40.69102925677968,-73.99183362722397,member
89572,D6AD052E3AC1B79B,docked_bike,2021-06-13 14:34:04,2021-06-13 14:44:20,3 Ave & Schermerhorn St,4437,Schermerhorn St & Court St,4565,40.686832,-73.979677,40.69102925677968,-73.99183362722397,member
90515,882E66B05808F7C3,docked_bike,2021-06-20 13:52:28,2021-06-20 14:02:53,State St & Smith St,4565,Front St & Washington St,4936,40.689269,-73.989128,40.70255088,-73.98940236,member
91203,7B86F9317E4B341F,docked_bike,2021-06-04 21:10:15,2021-06-04 21:18:32,Schermerhorn St & Court St,4565,3 Ave & Schermerhorn St,4437,40.691029,-73.991833,40.68683208,-73.9796772,member
91373,4847BADA75902A9F,docked_bike,2021-06-14 18:55:49,2021-06-14 19:00:37,State St & Smith St,4565,3 Ave & Schermerhorn St,4437,40.689269,-73.989128,40.68683208,-73.9796772,casual
91374,E0E7253309211D0E,electric_bike,2021-06-07 16:07:10,2021-06-07 16:11:40,State St & Smith St,4565,3 Ave & Schermerhorn St,4437,40.689269,-73.989128,40.68683208,-73.9796772,member
93525,50B5E83B74AF57FD,electric_bike,2021-06-15 08:36:25,2021-06-15 08:59:24,State St & Smith St,4565,W 25 St & 6 Ave,6215,40.689269,-73.989128,40.74395411,-73.99144871,member
94117,E9009006034B913D,docked_bike,2021-06-10 16:45:34,2021-06-10 16:50:20,Schermerhorn St & Court St,4565,Clark St & Henry St,4789,40.691029,-73.991833,40.69760127,-73.99344559,member
94118,AE2FAA4EFBFB3764,docked_bike,2021-06-14 10:13:32,2021-06-14 10:33:04,Schermerhorn St & Court St,4565,Clark St & Henry St,4789,40.691029,-73.991833,40.69760127,-73.99344559,member
94119,2D243F1BB032F4DB,classic_bike,2021-06-30 13:02:26,2021-06-30 13:12:34,Schermerhorn St & Court St,4565,Clark St & Henry St,4789,40.69102925677968,-73.99183362722397,40.69760127,-73.99344559,member
94127,CF1922CD350E1936,docked_bike,2021-06-01 13:39:03,2021-06-01 13:45:23,Schermerhorn St & Court St,4565,Clark St & Henry St,4789,40.691029,-73.991833,40.69760127,-73.99344559,member
94128,D214400D56FDA5A4,docked_bike,2021-06-16 17:08:41,2021-06-16 17:20:18,Schermerhorn St & Court St,4565,Clark St & Henry St,4789,40.691029,-73.991833,40.69760127,-73.99344559,member
94266,8CF0E5FA607D573E,docked_bike,2021-06-05 10:54:07,2021-06-05 11:08:56,Schermerhorn St & Court St,4565,Clark St & Henry St,4789,40.691029,-73.991833,40.69760127,-73.99344559,member
94281,F2CCB10D62754549,docked_bike,2021-06-16 12:42:43,2021-06-16 13:02:55,Schermerhorn St & Court St,4565,Clark St & Henry St,4789,40.691029,-73.991833,40.69760127,-73.99344559,casual
94283,4CD16DA22EAA07C1,electric_bike,2021-06-07 21:53:47,2021-06-07 22:07:47,Schermerhorn St & Court St,4565,Kent Ave & S 11 St,5062,40.691029,-73.991833,40.707644944175705,-73.96841526031494,member
94292,1A95335ED956CD70,docked_bike,2021-06-03 14:42:46,2021-06-03 14:47:48,Schermerhorn St & Court St,4565,Clark St & Henry St,4789,40.691029,-73.991833,40.69760127,-73.99344559,member
94312,EFA5492F923E181E,docked_bike,2021-06-08 14:05:09,2021-06-08 14:16:03,Schermerhorn St & Court St,4565,Clark St & Henry St,4789,40.691029,-73.991833,40.69760127,-73.99344559,member
94321,F61617E720EFBC76,docked_bike,2021-06-15 23:54:23,2021-06-16 00:23:04,Schermerhorn St & Court St,4565,4 Ave & 9 St,3955,40.691029,-73.991833,40.6705135,-73.98876585,casual
94323,43C4D5FF0C704B28,docked_bike,2021-06-06 13:25:59,2021-06-06 13:28:34,Schermerhorn St & Court St,4565,Warren St & Court St,4413,40.691029,-73.991833,40.686371,-73.99383324,member
96671,AE17872E491FB032,docked_bike,2021-06-12 18:37:21,2021-06-12 19:06:12,Schermerhorn St & Court St,4565,E 2 St & 2 Ave,5593,40.691029,-73.991833,40.72502876,-73.99069656,casual
97178,BB97391819EFD856,electric_bike,2021-06-05 16:39:45,2021-06-05 16:45:54,State St & Smith St,4565,Warren St & Court St,4413,40.689269,-73.989128,40.686371,-73.99383324,casual
97181,E9F23283A3FD348B,classic_bike,2021-06-24 19:01:07,2021-06-24 19:16:36,State St & Smith St,4565,Berkeley Pl & 7 Ave,4051,40.68926942,-73.98912867,40.675146838709786,-73.97523209452629,member
97240,4EADD1F04D847983,docked_bike,2021-06-20 20:28:35,2021-06-20 21:01:37,State St & Smith St,4565,6 Ave & Canal St,5500,40.689269,-73.989128,40.72243797,-74.00566443,casual
97249,2A6043A23F4CC2AC,docked_bike,2021-06-17 06:01:29,2021-06-17 06:30:28,State St & Smith St,4565,Pier 40 - Hudson River Park,5696,40.689269,-73.989128,40.7277140777778,-74.01129573583603,casual
97253,414B2DA320E050E0,classic_bike,2021-06-24 16:29:31,2021-06-24 16:44:30,State St & Smith St,4565,4 Ave & 9 St,3955,40.68926942,-73.98912867,40.6705135,-73.98876585,member
103406,C370531A0AB54101,docked_bike,2021-06-10 09:17:15,2021-06-10 09:30:52,Schermerhorn St & Court St,4565,Spruce St & Nassau St,5137,40.691029,-73.991833,40.71146364,-74.00552427,member
105182,BD6051D564F3D30C,docked_bike,2021-06-08 12:27:59,2021-06-08 13:03:39,Schermerhorn St & Court St,4565,Atlantic Ave & Furman St,4614,40.691029,-73.991833,40.69165183,-73.9999786,member
107147,8DE019F762B55841,docked_bike,2021-06-09 11:29:25,2021-06-09 11:32:48,Schermerhorn St & Court St,4565,Pierrepont St & Monroe Pl,4718,40.691029,-73.991833,40.69535693320225,-73.99344027042389,member
107183,A6530C6C2ADC5EE5,classic_bike,2021-06-24 18:44:26,2021-06-24 18:53:02,State St & Smith St,4565,Atlantic Ave & Fort Greene Pl,4354,40.68926942,-73.98912867,40.68382604,-73.97632328,member
107372,0CFA6B46EACA5DD4,docked_bike,2021-06-19 11:33:54,2021-06-19 11:46:38,State St & Smith St,4565,S Portland Ave & Hanson Pl,4354,40.689269,-73.989128,40.68539567,-73.97431458,casual
107646,50BA65D5027D925A,classic_bike,2021-06-21 08:31:09,2021-06-21 08:51:02,Schermerhorn St & Court St,4565,Murray St & Greenwich St,5288,40.69102925677968,-73.99183362722397,40.71485150526252,-74.01122331619263,member
109060,E4A8E2E4CA557A4C,docked_bike,2021-06-17 13:52:42,2021-06-17 14:09:02,State St & Smith St,4565,Duane St & Greenwich St,5400,40.689269,-73.989128,40.71748752,-74.0104554,member
110503,CF3FD3124821AB62,classic_bike,2021-06-29 12:04:30,2021-06-29 12:07:31,State St & Smith St,4565,Dean St & Hoyt St,4446,40.68926942,-73.98912867,40.6864442,-73.98759104,member
113174,0AAE078A36D1CCE8,electric_bike,2021-06-16 17:23:57,2021-06-16 17:29:59,Schermerhorn St & Court St,4565,Smith St & 3 St,4151,40.691029,-73.991833,40.6787242,-73.99599099,member
113190,AD99BF3A9632DE3B,docked_bike,2021-06-15 21:37:15,2021-06-15 21:43:28,Schermerhorn St & Court St,4565,Smith St & 3 St,4151,40.691029,-73.991833,40.6787242,-73.99599099,member
113235,B59238D28218C65C,electric_bike,2021-06-01 23:15:30,2021-06-01 23:21:36,Schermerhorn St & Court St,4565,Smith St & 3 St,4151,40.691029,-73.991833,40.6787242,-73.99599099,casual
113718,F241D1BD4C222B8B,docked_bike,2021-06-04 13:37:40,2021-06-04 14:04:06,State St & Smith St,4565,14 St & 7 Ave,3731,40.689269,-73.989128,40.663779,-73.98396846,member
115121,371379D9E297B771,docked_bike,2021-06-05 21:46:32,2021-06-05 21:55:08,State St & Smith St,4565,Smith St & 3 St,4151,40.689269,-73.989128,40.6787242,-73.99599099,member
116561,E6F60C8CFCBB4EC6,docked_bike,2021-06-17 07:49:31,2021-06-17 08:27:40,State St & Smith St,4565,E 51 St & Lexington Ave,6659,40.689269,-73.989128,40.75714758,-73.97207836,member
117098,902C9D14B7002006,electric_bike,2021-06-28 17:08:48,2021-06-28 17:42:17,Schermerhorn St & Court St,4565,Kingston Ave & Herkimer St,4205,40.69102925677968,-73.99183362722397,40.67890679,-73.94142771,member
117159,97B7106A333F6FD8,electric_bike,2021-06-09 15:54:47,2021-06-09 16:20:41,State St & Smith St,4565,Kingston Ave & Herkimer St,4205,40.689269,-73.989128,40.67890679,-73.94142771,casual
117160,8CCB11987470574E,electric_bike,2021-06-12 18:55:55,2021-06-12 20:01:59,State St & Smith St,4565,Riverside Blvd & W 67 St,7183,40.689269,-73.989128,40.777507027547976,-73.98888587951659,member
117717,0FE18865945C2837,electric_bike,2021-06-17 15:50:42,2021-06-17 15:54:17,State St & Smith St,4565,Degraw St & Hoyt St,4258,40.689269,-73.989128,40.68199044270703,-73.99079024791718,member
118000,B3B64C8A35FDC431,classic_bike,2021-06-25 12:09:55,2021-06-25 12:22:17,Schermerhorn St & Court St,4565,Carroll St & Columbia St,4348,40.69102925677968,-73.99183362722397,40.6830456,-74.00348559,member
118005,43BA7400427AE9B1,docked_bike,2021-06-02 12:32:24,2021-06-02 12:41:37,Schermerhorn St & Court St,4565,Carroll St & Columbia St,4348,40.691029,-73.991833,40.6830456,-74.00348559,member
121082,7BFDE5C93BC3CCBD,electric_bike,2021-06-21 08:05:31,2021-06-21 08:41:56,1 Ave & E 68 St,6822,State St & Smith St,4565,40.765005,-73.958184,40.68926942,-73.98912867,member
121124,42D252EC163182D0,docked_bike,2021-06-17 14:57:55,2021-06-17 15:02:18,3 Ave & Schermerhorn St,4437,State St & Smith St,4565,40.686832,-73.979677,40.68926942,-73.98912867,member
121132,AB4103C394628FBD,docked_bike,2021-06-13 19:37:17,2021-06-13 19:45:57,3 Ave & Schermerhorn St,4437,State St & Smith St,4565,40.686832,-73.979677,40.68926942,-73.98912867,member
121135,CDCF29A2AE23EC6E,electric_bike,2021-06-27 11:41:17,2021-06-27 11:49:16,3 Ave & Schermerhorn St,4437,State St & Smith St,4565,40.68683208,-73.9796772,40.68926942,-73.98912867,casual
121163,68F30E52F3B738F3,classic_bike,2021-06-28 14:30:40,2021-06-28 14:36:28,3 Ave & Schermerhorn St,4437,State St & Smith St,4565,40.68683208,-73.9796772,40.68926942,-73.98912867,member
121165,82F49B159A88EE31,docked_bike,2021-06-17 22:36:15,2021-06-17 22:50:51,Cambridge Pl & Gates Ave,4377,State St & Smith St,4565,40.68488,-73.96304,40.68926942,-73.98912867,casual
121180,51E1356FAD73A802,electric_bike,2021-06-05 14:43:46,2021-06-05 15:03:46,Cambridge Pl & Gates Ave,4377,State St & Smith St,4565,40.68488,-73.96304,40.68926942,-73.98912867,member
121181,CC9F2956DDA7D73E,classic_bike,2021-06-25 18:44:47,2021-06-25 19:02:46,Cambridge Pl & Gates Ave,4377,State St & Smith St,4565,40.68488,-73.96304,40.68926942,-73.98912867,member
121201,3E4425BA7F2F1B91,docked_bike,2021-06-19 23:44:43,2021-06-19 23:51:11,Bergen St & 4 Ave,4322,State St & Smith St,4565,40.682564,-73.979897,40.68926942,-73.98912867,member
121242,86ED7EB856CFEFAC,docked_bike,2021-06-08 07:16:50,2021-06-08 07:43:10,Kosciuszko St & Tompkins Ave,4553,State St & Smith St,4565,40.691282,-73.945241,40.68926942,-73.98912867,member
121267,05A1A07CA1A1676C,classic_bike,2021-06-23 19:25:26,2021-06-23 20:39:43,Pioneer St & Van Brunt St,4169,State St & Smith St,4565,40.679043,-74.011169,40.68926942,-73.98912867,casual
121273,04678F121F3681DC,electric_bike,2021-06-06 10:08:13,2021-06-06 10:16:45,Clinton Ave & Myrtle Ave,4651,State St & Smith St,4565,40.693261,-73.968896,40.68926942,-73.98912867,member
121274,84553666399AED2F,classic_bike,2021-06-22 09:43:58,2021-06-22 09:57:12,Clinton Ave & Myrtle Ave,4651,State St & Smith St,4565,40.693261,-73.968896,40.68926942,-73.98912867,member
121279,2A8E3D7288E6A291,docked_bike,2021-06-06 11:13:39,2021-06-06 11:29:17,Columbia Heights & Cranberry St,4829,State St & Smith St,4565,40.700378,-73.99548,40.68926942,-73.98912867,member
121287,3995E9435245CC45,classic_bike,2021-06-23 12:39:59,2021-06-23 12:52:47,Clinton Ave & Myrtle Ave,4651,State St & Smith St,4565,40.693261,-73.968896,40.68926942,-73.98912867,member
121288,427818025D1FCA2B,classic_bike,2021-06-27 13:05:51,2021-06-27 13:30:37,E 2 St & Avenue B,5515,State St & Smith St,4565,40.72217444,-73.98368779,40.68926942,-73.98912867,member
121292,7851127770B5F733,electric_bike,2021-06-28 07:37:14,2021-06-28 07:56:06,Allen St & Rivington St,5414,State St & Smith St,4565,40.72019576,-73.98997825,40.68926942,-73.98912867,member
121296,30552D880C4BAA6B,docked_bike,2021-06-07 13:18:30,2021-06-07 13:30:02,Clinton Ave & Myrtle Ave,4651,State St & Smith St,4565,40.693261,-73.968896,40.68926942,-73.98912867,member
121325,5662B2A35B3F1EB5,electric_bike,2021-06-07 15:45:16,2021-06-07 15:53:18,Clinton Ave & Myrtle Ave,4651,State St & Smith St,4565,40.693261,-73.968896,40.68926942,-73.98912867,member
121330,16ECB9D945E2021D,electric_bike,2021-06-12 08:28:16,2021-06-12 08:48:21,E 2 St & Avenue B,5515,State St & Smith St,4565,40.722174,-73.983687,40.68926942,-73.98912867,member
121343,B2DBB55A72E4CD71,docked_bike,2021-06-05 14:34:26,2021-06-05 14:56:04,Howard St & Centre St,5422,State St & Smith St,4565,40.719105,-73.999733,40.68926942,-73.98912867,casual
121344,7B2F7DCFD795937E,classic_bike,2021-06-29 19:04:53,2021-06-29 19:15:27,Clinton Ave & Myrtle Ave,4651,State St & Smith St,4565,40.693261,-73.968896,40.68926942,-73.98912867,member
121348,F37D945FE8CCA9AC,electric_bike,2021-06-03 11:40:58,2021-06-03 11:49:16,Clinton Ave & Myrtle Ave,4651,State St & Smith St,4565,40.693261,-73.968896,40.68926942,-73.98912867,member
121354,C00F5A7F13BBBDCC,classic_bike,2021-06-16 23:10:52,2021-06-16 23:30:03,Van Brunt St & Wolcott St,4095,State St & Smith St,4565,40.6773429,-74.01275056,40.68926942,-73.98912867,casual
121362,3087BDF76B79729E,classic_bike,2021-06-24 17:09:49,2021-06-24 17:25:25,Van Brunt St & Wolcott St,4095,State St & Smith St,4565,40.6773429,-74.01275056,40.68926942,-73.98912867,member
121366,826422FDD295FC5F,electric_bike,2021-06-20 13:18:16,2021-06-20 14:12:46,Central Park West & W 85 St,7354,State St & Smith St,4565,40.78476,-73.969862,40.68926942,-73.98912867,member
121375,56F16761B0918967,electric_bike,2021-06-26 07:39:13,2021-06-26 07:47:18,Fulton St & Irving Pl,4263,State St & Smith St,4565,40.68186,-73.959432,40.68926942,-73.98912867,member
121385,03063F21EDCBDD84,docked_bike,2021-06-19 10:43:56,2021-06-19 10:58:51,Lafayette Ave & Classon Ave,4452,State St & Smith St,4565,40.689004,-73.960238,40.68926942,-73.98912867,member
121436,278EBBEF7691FEBF,classic_bike,2021-06-26 12:42:54,2021-06-26 12:56:36,5 Ave & 3 St,3987,State St & Smith St,4565,40.6728155,-73.98352355,40.68926942,-73.98912867,member
121449,C98B53DF3E7A3D88,electric_bike,2021-06-30 10:54:42,2021-06-30 11:07:29,Pike St & E Broadway,5270,State St & Smith St,4565,40.71406667,-73.99293911,40.68926942,-73.98912867,member
121466,2421757382E0FE64,docked_bike,2021-06-05 19:55:58,2021-06-05 20:05:05,Warren St & Court St,4413,State St & Smith St,4565,40.686371,-73.993833,40.68926942,-73.98912867,casual
121467,A7ED4306C68C18BE,docked_bike,2021-06-02 10:38:32,2021-06-02 10:50:57,Berkeley Pl & 7 Ave,4051,State St & Smith St,4565,40.675146,-73.975232,40.68926942,-73.98912867,member
121468,F5C4D9AFAA9F5C70,electric_bike,2021-06-04 15:48:28,2021-06-04 16:07:31,Warren St & W Broadway,5288,State St & Smith St,4565,40.714739,-74.009106,40.68926942,-73.98912867,casual
121474,F13392CE0856AF7A,docked_bike,2021-06-01 22:11:58,2021-06-01 22:17:56,Hanson Pl & Ashland Pl,4395,State St & Smith St,4565,40.685068,-73.977907,40.68926942,-73.98912867,member
121490,DCDB58BDF8EF7607,docked_bike,2021-06-16 15:44:52,2021-06-16 15:55:24,Hanson Pl & Ashland Pl,4395,State St & Smith St,4565,40.685068,-73.977907,40.68926942,-73.98912867,member
121503,262B367D89E1429E,docked_bike,2021-06-13 09:50:09,2021-06-13 09:54:40,Warren St & Court St,4413,State St & Smith St,4565,40.686371,-73.993833,40.68926942,-73.98912867,member
121504,CD72E763E9E67499,docked_bike,2021-06-05 09:52:59,2021-06-05 10:05:11,4 Ave & 9 St,3955,State St & Smith St,4565,40.670513,-73.988765,40.68926942,-73.98912867,member
121512,773405811AAB4992,docked_bike,2021-06-02 10:16:06,2021-06-02 11:00:39,Pier 40 - Hudson River Park,5696,State St & Smith St,4565,40.727714,-74.011295,40.68926942,-73.98912867,member
121515,C4816745D31892F1,classic_bike,2021-06-24 07:40:33,2021-06-24 07:54:17,4 Ave & 9 St,3955,State St & Smith St,4565,40.6705135,-73.98876585,40.68926942,-73.98912867,member
121516,92006713D3C02D0E,docked_bike,2021-06-10 00:20:16,2021-06-10 00:26:57,Hanson Pl & Ashland Pl,4395,State St & Smith St,4565,40.685068,-73.977907,40.68926942,-73.98912867,casual
121523,13535C9F279F504C,docked_bike,2021-06-05 17:13:32,2021-06-05 17:28:22,Bergen St & Vanderbilt Ave,4157,State St & Smith St,4565,40.679438,-73.968043,40.68926942,-73.98912867,member
121524,BF49877925275F71,docked_bike,2021-06-20 21:13:46,2021-06-20 21:25:35,Bergen St & Vanderbilt Ave,4157,State St & Smith St,4565,40.679438,-73.968043,40.68926942,-73.98912867,casual
121528,CE1518EF1E8BA5F5,docked_bike,2021-06-18 11:45:29,2021-06-18 11:57:54,Bergen St & Vanderbilt Ave,4157,State St & Smith St,4565,40.679438,-73.968043,40.68926942,-73.98912867,member
121530,0E81CB2AE6C37E9B,classic_bike,2021-06-25 21:52:28,2021-06-25 22:18:37,Hanson Pl & Ashland Pl,4395,State St & Smith St,4565,40.68506807308177,-73.97790759801863,40.68926942,-73.98912867,member
121532,959EE8FD52FB71F0,electric_bike,2021-06-16 07:24:48,2021-06-16 07:28:59,Hanson Pl & Ashland Pl,4395,State St & Smith St,4565,40.685068,-73.977907,40.68926942,-73.98912867,member
121549,428F0F382AAE0910,docked_bike,2021-06-14 08:39:35,2021-06-14 08:44:37,Hanson Pl & Ashland Pl,4395,State St & Smith St,4565,40.685068,-73.977907,40.68926942,-73.98912867,member
121552,715317948C4FCBBF,classic_bike,2021-06-20 13:27:07,2021-06-20 13:37:03,Douglass St & 3 Ave,4217,State St & Smith St,4565,40.6802133,-73.98432695,40.68926942,-73.98912867,member
121562,F7D7D029037D3E2B,classic_bike,2021-06-30 10:17:56,2021-06-30 10:19:28,Court St & State St,4488,State St & Smith St,4565,40.6902375,-73.99203074,40.68926942,-73.98912867,member
121572,B49CE584C7CBDC0A,docked_bike,2021-06-13 23:38:23,2021-06-13 23:50:23,Douglass St & 3 Ave,4217,State St & Smith St,4565,40.680213,-73.984326,40.68926942,-73.98912867,member
121574,153E3B61D2F7F911,docked_bike,2021-06-16 13:15:20,2021-06-16 13:22:09,Hanson Pl & Ashland Pl,4395,State St & Smith St,4565,40.685068,-73.977907,40.68926942,-73.98912867,member
121577,93E9E8D5DA3F806D,classic_bike,2021-06-24 22:23:38,2021-06-24 22:32:00,Clinton St & Union St,4266,State St & Smith St,4565,40.6831164,-73.99785267,40.68926942,-73.98912867,casual
121606,979CAA3426CF9017,docked_bike,2021-06-17 07:39:15,2021-06-17 07:44:01,Clinton St & Union St,4266,State St & Smith St,4565,40.683116,-73.997852,40.68926942,-73.98912867,member
121608,C0A948A29643EDB5,electric_bike,2021-06-20 16:46:14,2021-06-20 16:52:18,Clinton St & Union St,4266,State St & Smith St,4565,40.683116,-73.997852,40.68926942,-73.98912867,member
121615,29F16F65874A80CC,docked_bike,2021-06-03 17:01:51,2021-06-03 17:03:51,Court St & State St,4488,State St & Smith St,4565,40.690237,-73.99203,40.68926942,-73.98912867,member
121616,55B7872BB71047D1,docked_bike,2021-06-14 15:22:06,2021-06-14 15:26:27,Court St & State St,4488,State St & Smith St,4565,40.690237,-73.99203,40.68926942,-73.98912867,member
121617,F9494FF6AB0CD9EB,docked_bike,2021-06-04 17:35:40,2021-06-04 17:55:06,Park Pl & Church St,5288,State St & Smith St,4565,40.713341,-74.009355,40.68926942,-73.98912867,member
121618,335E89797F541072,classic_bike,2021-06-29 17:30:12,2021-06-29 17:49:35,Park Pl & Church St,5288,State St & Smith St,4565,40.71334184275907,-74.00935515761375,40.68926942,-73.98912867,member
121619,A68B96C06F55988B,electric_bike,2021-06-09 08:45:53,2021-06-09 08:57:50,Park Pl & Church St,5288,State St & Smith St,4565,40.713341,-74.009355,40.68926942,-73.98912867,member
121622,48AC195C6439D4A1,classic_bike,2021-06-27 10:01:31,2021-06-27 10:52:02,Park Pl & Church St,5288,State St & Smith St,4565,40.71334184275907,-74.00935515761375,40.68926942,-73.98912867,casual
121636,359199FF884E69A5,docked_bike,2021-06-07 20:25:46,2021-06-07 20:51:37,Schermerhorn St & Bond St,4479,State St & Smith St,4565,40.688417,-73.984516,40.68926942,-73.98912867,member
121652,E01F8BF1ACF40AAC,docked_bike,2021-06-06 14:03:01,2021-06-06 14:10:47,Lafayette Ave & Fort Greene Pl,4395,State St & Smith St,4565,40.686918,-73.976682,40.68926942,-73.98912867,member
121658,C849F3906729AF11,classic_bike,2021-06-21 16:57:50,2021-06-21 17:03:10,DeKalb Ave & Hudson Ave,4513,State St & Smith St,4565,40.689888,-73.981013,40.68926942,-73.98912867,member
121665,162B12BE2626B962,electric_bike,2021-06-10 13:41:12,2021-06-10 14:14:58,W 34 St & 11 Ave,6578,State St & Smith St,4565,40.755941,-74.002116,40.68926942,-73.98912867,casual
121674,9F43DCA0FDE43792,docked_bike,2021-06-15 11:47:11,2021-06-15 12:04:08,Fulton St & Clermont Ave,4386,State St & Smith St,4565,40.684157,-73.969222,40.68926942,-73.98912867,casual
121681,1B923D9F4A40E74E,electric_bike,2021-06-06 15:12:47,2021-06-06 15:24:07,1 St & 6 Ave,3946,State St & Smith St,4565,40.672784,-73.979826,40.68926942,-73.98912867,member
121682,4E3F8D62FD081322,docked_bike,2021-06-03 08:27:23,2021-06-03 08:33:54,Boerum Pl\t& Pacific St,4488,State St & Smith St,4565,40.688489,-73.99116,40.68926942,-73.98912867,member
121684,C5D6414C5E6B3FB0,docked_bike,2021-06-15 08:43:44,2021-06-15 08:54:52,1 St & 6 Ave,3946,State St & Smith St,4565,40.672784,-73.979826,40.68926942,-73.98912867,member
121704,F9E8ABE588BFC3AD,electric_bike,2021-06-23 13:49:50,2021-06-23 14:19:15,Boerum Pl\t& Pacific St,4488,State St & Smith St,4565,40.68848905639242,-73.99116039276123,40.68926942,-73.98912867,member
121706,9448FF6876E31BCE,electric_bike,2021-06-28 12:50:23,2021-06-28 12:59:17,Washington Ave & Greene Ave,4419,State St & Smith St,4565,40.68650065,-73.96563307,40.68926942,-73.98912867,member
121707,F1264E74EC857223,docked_bike,2021-06-15 16:57:30,2021-06-15 17:04:01,Clinton St & Union St,4266,State St & Smith St,4565,40.683116,-73.997852,40.68926942,-73.98912867,member
121708,52C7ECFCE5535533,electric_bike,2021-06-05 07:56:32,2021-06-05 08:02:59,Clinton St & Union St,4266,State St & Smith St,4565,40.683116,-73.997852,40.68926942,-73.98912867,member
121713,04D6D41AA2B170DE,classic_bike,2021-06-28 18:59:56,2021-06-28 19:30:01,Greenwich St & Perry St,5922,State St & Smith St,4565,40.73498,-74.00697,40.68926942,-73.98912867,member
121736,59AEC2448F8E12C7,classic_bike,2021-06-23 12:06:29,2021-06-23 12:17:02,Bergen St & Vanderbilt Ave,4157,State St & Smith St,4565,40.6794388,-73.9680438,40.68926942,-73.98912867,casual
121763,10C861CD0D272F2E,docked_bike,2021-06-13 23:00:33,2021-06-13 23:35:07,Milton St & Franklin St,5752,State St & Smith St,4565,40.72906,-73.95779,40.68926942,-73.98912867,casual
121772,488313079A273D66,docked_bike,2021-06-07 19:28:13,2021-06-07 19:38:50,Douglass St & 3 Ave,4217,State St & Smith St,4565,40.680213,-73.984326,40.68926942,-73.98912867,member
121773,D04AF9EE496212FB,classic_bike,2021-06-26 10:52:11,2021-06-26 11:01:18,Hanson Pl & Ashland Pl,4395,State St & Smith St,4565,40.68506807308177,-73.97790759801863,40.68926942,-73.98912867,member
121780,6568586F0CFE8A5D,docked_bike,2021-06-10 15:24:54,2021-06-10 15:46:40,Eastern Pkwy & Washington Ave,3928,State St & Smith St,4565,40.671649,-73.963114,40.68926942,-73.98912867,member
121783,00586B0A27086AAA,classic_bike,2021-06-24 14:44:45,2021-06-24 14:52:28,Hanson Pl & Ashland Pl,4395,State St & Smith St,4565,40.68506807308177,-73.97790759801863,40.68926942,-73.98912867,member
121784,0E95728A2BCDD185,electric_bike,2021-06-23 20:12:04,2021-06-23 20:17:53,Hanson Pl & Ashland Pl,4395,State St & Smith St,4565,40.68506807308177,-73.97790759801863,40.68926942,-73.98912867,member
121785,B2335D82B13C53C0,classic_bike,2021-06-24 12:03:35,2021-06-24 12:10:09,Hanson Pl & Ashland Pl,4395,State St & Smith St,4565,40.68506807308177,-73.97790759801863,40.68926942,-73.98912867,member
121793,BEA08CAC89D079F1,docked_bike,2021-06-07 06:24:26,2021-06-07 06:29:28,Hanson Pl & Ashland Pl,4395,State St & Smith St,4565,40.685068,-73.977907,40.68926942,-73.98912867,member
121794,12DE500B453298E3,docked_bike,2021-06-13 11:05:40,2021-06-13 11:15:23,Hanson Pl & Ashland Pl,4395,State St & Smith St,4565,40.685068,-73.977907,40.68926942,-73.98912867,member
121804,E0B8EFB0C3D0F4C0,docked_bike,2021-06-01 08:54:22,2021-06-01 09:47:28,Steinway St & 19 Ave,7220,State St & Smith St,4565,40.778089,-73.899558,40.68926942,-73.98912867,member
121821,F9D3C63961D87AE5,docked_bike,2021-06-06 09:42:58,2021-06-06 09:50:38,St Marks Pl & 4 Ave,4249,State St & Smith St,4565,40.681778,-73.979889,40.68926942,-73.98912867,casual
121845,AF682D0FF72725B2,docked_bike,2021-06-15 16:16:29,2021-06-15 16:47:05,Eastern Pkwy & Washington Ave,3928,State St & Smith St,4565,40.671649,-73.963114,40.68926942,-73.98912867,casual
121848,A7E2DAB89B1401EA,classic_bike,2021-06-26 19:31:33,2021-06-26 20:22:55,Eastern Pkwy & Washington Ave,3928,State St & Smith St,4565,40.6716493,-73.9631145,40.68926942,-73.98912867,member
121853,CC2D8077463BBD85,docked_bike,2021-06-18 11:18:52,2021-06-18 11:47:34,Knickerbocker Ave & George St,4979,State St & Smith St,4565,40.704425,-73.92836,40.68926942,-73.98912867,casual
121856,AC0FE9F29EEA300D,docked_bike,2021-06-16 09:37:06,2021-06-16 10:04:47,Knickerbocker Ave & George St,4979,State St & Smith St,4565,40.704425,-73.92836,40.68926942,-73.98912867,casual
121861,1F1169332A90835D,classic_bike,2021-06-25 18:14:32,2021-06-25 18:31:59,St Marks Pl & 4 Ave,4249,State St & Smith St,4565,40.68177810928762,-73.97988975048065,40.68926942,-73.98912867,member
121863,F9ED798BFA096610,docked_bike,2021-06-02 18:54:08,2021-06-02 19:04:11,Carlton Ave & Flushing Ave,4732,State St & Smith St,4565,40.697787,-73.973736,40.68926942,-73.98912867,casual
121871,6860D8600C920960,classic_bike,2021-06-21 21:49:18,2021-06-21 21:57:32,Bond St & Fulton St,4479,State St & Smith St,4565,40.68962188790333,-73.98304268717766,40.68926942,-73.98912867,member
121872,1FD5626E013CB7AA,docked_bike,2021-06-07 06:38:32,2021-06-07 06:41:41,Bond St & Fulton St,4479,State St & Smith St,4565,40.689621,-73.983042,40.68926942,-73.98912867,member
121878,04AD5E3FD1ED284C,electric_bike,2021-06-14 14:54:46,2021-06-14 15:12:14,Dwight St & Van Dyke St,3981,State St & Smith St,4565,40.673635,-74.011955,40.68926942,-73.98912867,casual
121883,741E333B26BC2AD4,docked_bike,2021-06-06 13:22:20,2021-06-06 13:30:12,St Marks Pl & 4 Ave,4249,State St & Smith St,4565,40.681778,-73.979889,40.68926942,-73.98912867,member
121885,AD45ACB8D70FEF9C,docked_bike,2021-06-20 13:06:00,2021-06-20 13:24:12,St Marks Pl & 4 Ave,4249,State St & Smith St,4565,40.681778,-73.979889,40.68926942,-73.98912867,member
121886,BB5935B5DC6543FB,classic_bike,2021-06-24 22:08:48,2021-06-24 22:21:00,Bergen St & Flatbush Ave,4281,State St & Smith St,4565,40.680944723477296,-73.97567331790923,40.68926942,-73.98912867,member
121889,429F3181F05F7802,docked_bike,2021-06-14 14:51:33,2021-06-14 15:12:11,Dwight St & Van Dyke St,3981,State St & Smith St,4565,40.673635,-74.011955,40.68926942,-73.98912867,casual
121899,E8CE7A8DF1A3A46E,electric_bike,2021-06-22 21:49:15,2021-06-22 21:57:30,Bergen St & Flatbush Ave,4281,State St & Smith St,4565,40.680944723477296,-73.97567331790923,40.68926942,-73.98912867,member
121905,40F9E20FC3477D71,electric_bike,2021-06-19 16:13:42,2021-06-19 16:58:01,Broadway & Kosciuszko St,4608,State St & Smith St,4565,40.69329,-73.92852,40.68926942,-73.98912867,casual
121910,4BEB0F7B1DED16C3,docked_bike,2021-06-15 14:32:45,2021-06-15 14:44:49,Bergen St & Flatbush Ave,4281,State St & Smith St,4565,40.680944,-73.975673,40.68926942,-73.98912867,member
121911,76B0909C9DFBDF39,classic_bike,2021-06-23 09:45:37,2021-06-23 10:16:52,Knickerbocker Ave & George St,4979,State St & Smith St,4565,40.704425,-73.92836,40.68926942,-73.98912867,casual
121913,2A937BF995CEBE43,docked_bike,2021-06-15 15:09:42,2021-06-15 15:27:04,Dwight St & Van Dyke St,3981,State St & Smith St,4565,40.673635,-74.011955,40.68926942,-73.98912867,casual
121914,8666AE79EE6B3114,docked_bike,2021-06-18 22:24:12,2021-06-18 22:35:33,Carlton Ave & Flushing Ave,4732,State St & Smith St,4565,40.697787,-73.973736,40.68926942,-73.98912867,member
121915,4EC29CFEC16FCB02,electric_bike,2021-06-04 11:40:09,2021-06-04 12:57:04,Lewis Ave & Decatur St,4237,State St & Smith St,4565,40.681459,-73.934903,40.68926942,-73.98912867,casual
121916,AE2889DB89D42B70,electric_bike,2021-06-10 16:32:07,2021-06-10 16:55:43,St James Pl & Oliver St,5238,State St & Smith St,4565,40.713079,-73.998511,40.68926942,-73.98912867,member
121918,BEEA11D6478078C8,docked_bike,2021-06-15 09:29:14,2021-06-15 10:00:57,Knickerbocker Ave & George St,4979,State St & Smith St,4565,40.704425,-73.92836,40.68926942,-73.98912867,casual
121919,F72F999C1D5FC70D,docked_bike,2021-06-04 11:39:32,2021-06-04 12:56:47,Lewis Ave & Decatur St,4237,State St & Smith St,4565,40.681459,-73.934903,40.68926942,-73.98912867,casual
121923,4AE4BED07B5C5185,docked_bike,2021-06-05 11:07:54,2021-06-05 11:16:42,Bergen St & Flatbush Ave,4281,State St & Smith St,4565,40.680944,-73.975673,40.68926942,-73.98912867,member
121933,92D4E27FFD099226,classic_bike,2021-06-25 18:25:24,2021-06-25 18:35:44,Bergen St & Flatbush Ave,4281,State St & Smith St,4565,40.680944723477296,-73.97567331790923,40.68926942,-73.98912867,member
121939,19532C9CEA8061B6,electric_bike,2021-06-09 08:23:17,2021-06-09 08:29:36,Clark St & Henry St,4789,State St & Smith St,4565,40.697601,-73.993445,40.68926942,-73.98912867,casual
121945,CD5BCB6DE4C37955,docked_bike,2021-06-07 18:21:12,2021-06-07 18:42:43,Kent Ave & S 11 St,5062,State St & Smith St,4565,40.707644,-73.968415,40.68926942,-73.98912867,member
121946,E8E1A5BB2ADE8C7B,docked_bike,2021-06-08 12:01:52,2021-06-08 12:09:44,Front St & Gold St,4927,State St & Smith St,4565,40.70224,-73.982578,40.68926942,-73.98912867,member
121954,47CAEAAB22EF8F1C,docked_bike,2021-06-03 16:10:27,2021-06-03 16:23:52,Front St & Gold St,4927,State St & Smith St,4565,40.70224,-73.982578,40.68926942,-73.98912867,member
121964,219149126F748FA2,classic_bike,2021-06-23 10:37:55,2021-06-23 10:42:17,Bond St & Fulton St,4479,State St & Smith St,4565,40.68962188790333,-73.98304268717766,40.68926942,-73.98912867,member
121984,21E2CA186CD611DB,docked_bike,2021-06-14 17:26:02,2021-06-14 17:33:39,Front St & Gold St,4927,State St & Smith St,4565,40.70224,-73.982578,40.68926942,-73.98912867,member
121991,AD9E752FD4C1B76A,electric_bike,2021-06-10 17:49:05,2021-06-10 17:53:56,Wyckoff St & Nevins St,4290,State St & Smith St,4565,40.683426,-73.984275,40.68926942,-73.98912867,member
122001,A9428869CCF9B7E7,docked_bike,2021-06-01 15:56:14,2021-06-01 16:03:35,Front St & Gold St,4927,State St & Smith St,4565,40.70224,-73.982578,40.68926942,-73.98912867,member
122008,7241762E754CB239,electric_bike,2021-06-24 06:29:12,2021-06-24 06:53:58,W 37 St & 5 Ave,6398,State St & Smith St,4565,40.75038009,-73.98338988,40.68926942,-73.98912867,member
122011,C5FBC48E7B82E4A3,electric_bike,2021-06-08 11:00:31,2021-06-08 11:11:50,Clinton Ave & Myrtle Ave,4651,State St & Smith St,4565,40.693261,-73.968896,40.68926942,-73.98912867,member
122017,909E6CEB633D2F1D,classic_bike,2021-06-25 16:54:58,2021-06-25 17:11:04,Grand St & Elizabeth St,5382,State St & Smith St,4565,40.718822,-73.99596,40.68926942,-73.98912867,member
122021,E841DF6CC467685E,electric_bike,2021-06-09 09:21:59,2021-06-09 09:35:34,Grand St & Elizabeth St,5382,State St & Smith St,4565,40.718822,-73.99596,40.68926942,-73.98912867,member
122028,3AE4EB4D518249F9,docked_bike,2021-06-10 21:16:56,2021-06-10 21:34:38,Sterling Pl & Bedford Ave,3993,State St & Smith St,4565,40.672695,-73.954131,40.68926942,-73.98912867,member
122030,FED878289A00E6A9,electric_bike,2021-06-03 23:11:11,2021-06-03 23:21:35,Schermerhorn St & Court St,4565,Pioneer St & Richards St,4128,40.691029,-73.991833,40.6777748,-74.0094613,member
122034,5DDE214D62CF49CC,docked_bike,2021-06-01 19:01:03,2021-06-01 19:13:14,Clinton Ave & Myrtle Ave,4651,State St & Smith St,4565,40.693261,-73.968896,40.68926942,-73.98912867,member
122035,DB093D21DB926E56,electric_bike,2021-06-07 14:25:26,2021-06-07 14:31:32,Schermerhorn St & Court St,4565,1 Pl & Clinton St,4193,40.691029,-73.991833,40.6809591,-73.99905709,member
122043,B289CFF92140AF27,docked_bike,2021-06-07 18:54:13,2021-06-07 19:24:25,Schermerhorn St & Court St,4565,Jefferson Ave & Evergreen Ave,4517,40.691029,-73.991833,40.68989,-73.91458,member
122045,6FCCE729B03644D0,electric_bike,2021-06-13 16:16:06,2021-06-13 17:47:13,Schermerhorn St & Court St,4565,State St & Smith St,4565,40.691029,-73.991833,40.68926942,-73.98912867,member
122046,DCF54FE92022965E,classic_bike,2021-06-17 15:48:41,2021-06-17 15:50:11,Schermerhorn St & Court St,4565,State St & Smith St,4565,40.69102925677968,-73.99183362722397,40.68926942,-73.98912867,member
122047,1E2D4E5867FD6E02,docked_bike,2021-06-13 21:45:28,2021-06-13 21:47:10,Schermerhorn St & Court St,4565,State St & Smith St,4565,40.691029,-73.991833,40.68926942,-73.98912867,member
122048,D52B68DF75165E6A,electric_bike,2021-06-03 16:05:33,2021-06-03 16:22:41,Schermerhorn St & Court St,4565,Underhill Ave & Lincoln Pl,4042,40.691029,-73.991833,40.6740123,-73.9671457,member
122074,8459E612A3BF25A9,docked_bike,2021-06-17 20:51:11,2021-06-17 20:59:26,Henry St & Degraw St,4380,State St & Smith St,4565,40.684751,-73.999172,40.68926942,-73.98912867,member
122083,4DA5D7BFB586AEF7,electric_bike,2021-06-26 11:50:51,2021-06-26 11:58:57,Carlton Ave & Park Ave,4732,State St & Smith St,4565,40.69580705,-73.97355569,40.68926942,-73.98912867,member
122089,501FD02C8857C41D,electric_bike,2021-06-17 13:01:48,2021-06-17 13:03:55,Schermerhorn St & Court St,4565,State St & Smith St,4565,40.691029,-73.991833,40.68926942,-73.98912867,member
122118,A9ADD3D86104A460,classic_bike,2021-06-23 19:24:52,2021-06-23 19:38:24,Willoughby Ave & Walworth St,4634,State St & Smith St,4565,40.69331716,-73.95381995,40.68926942,-73.98912867,member
122119,B05212CA6BCF5665,classic_bike,2021-06-17 22:42:21,2021-06-17 23:17:02,W Broadway & W Houston St,5644,State St & Smith St,4565,40.726378,-74.000472,40.68926942,-73.98912867,member
122121,E3EBF6CE89A47749,electric_bike,2021-06-14 14:27:30,2021-06-14 14:41:00,Willoughby Ave & Walworth St,4634,State St & Smith St,4565,40.693317,-73.953819,40.68926942,-73.98912867,casual
122130,9C43AEA86C5DD93D,docked_bike,2021-06-11 15:40:48,2021-06-11 15:52:55,Henry St & Bay St,3972,State St & Smith St,4565,40.672505,-74.004946,40.68926942,-73.98912867,casual
122132,CA3E7D427F7860E8,electric_bike,2021-06-17 09:07:01,2021-06-17 09:18:44,DeKalb Ave & Franklin Ave,4528,State St & Smith St,4565,40.690648,-73.957461,40.68926942,-73.98912867,casual
122140,B726D0A3D93C212F,docked_bike,2021-06-08 08:08:34,2021-06-08 08:20:49,DeKalb Ave & Franklin Ave,4528,State St & Smith St,4565,40.690648,-73.957461,40.68926942,-73.98912867,casual
122144,843FB37A182F95C0,classic_bike,2021-06-22 16:51:04,2021-06-22 17:09:37,DeKalb Ave & Franklin Ave,4528,State St & Smith St,4565,40.69064807082943,-73.95746178925037,40.68926942,-73.98912867,member
122149,666C191CD7BC0B41,electric_bike,2021-06-09 15:20:55,2021-06-09 15:27:35,Degraw St & Hoyt St,4258,State St & Smith St,4565,40.68199,-73.99079,40.68926942,-73.98912867,member
122170,B8699214D0D9022F,classic_bike,2021-06-27 10:43:15,2021-06-27 11:01:52,DeKalb Ave & Franklin Ave,4528,State St & Smith St,4565,40.69064807082943,-73.95746178925037,40.68926942,-73.98912867,casual
122182,89027E91627E4727,electric_bike,2021-06-17 13:14:38,2021-06-17 13:20:50,Johnson St & Gold St,4668,State St & Smith St,4565,40.694748,-73.983624,40.68926942,-73.98912867,casual
122185,553632B475D229F8,docked_bike,2021-06-01 11:02:55,2021-06-01 11:10:30,Johnson St & Gold St,4668,State St & Smith St,4565,40.694748,-73.983624,40.68926942,-73.98912867,member
122207,34B160CEECD86450,docked_bike,2021-06-14 16:06:02,2021-06-14 16:28:06,Liberty St & Nassau St,5105,State St & Smith St,4565,40.708588,-74.009354,40.68926942,-73.98912867,member
122215,94F3D5BB9BBD680C,docked_bike,2021-06-10 12:28:13,2021-06-10 12:32:17,Henry St & Atlantic Ave,4531,State St & Smith St,4565,40.690892,-73.996123,40.68926942,-73.98912867,member
122221,C30A443A9ABE2EA2,docked_bike,2021-06-06 10:33:05,2021-06-06 10:50:43,Willoughby Ave & Hall St,4611,State St & Smith St,4565,40.69196,-73.965368,40.68926942,-73.98912867,casual
122225,CBC45920F7966936,docked_bike,2021-06-16 13:29:17,2021-06-16 13:32:12,Henry St & Atlantic Ave,4531,State St & Smith St,4565,40.690892,-73.996123,40.68926942,-73.98912867,member
122229,C114B4933E82EE0C,electric_bike,2021-06-24 16:02:55,2021-06-24 16:06:31,Henry St & Atlantic Ave,4531,State St & Smith St,4565,40.69089272,-73.99612349,40.68926942,-73.98912867,member
122234,9A2BC83803FC9AF7,electric_bike,2021-06-20 14:29:04,2021-06-20 14:57:39,Lexington Ave & E 36 St,6313,State St & Smith St,4565,40.747573,-73.9788,40.68926942,-73.98912867,member
122235,1CB1043BC83B2EAA,docked_bike,2021-06-02 17:18:48,2021-06-02 17:44:05,West St & Liberty St,5184,State St & Smith St,4565,40.711444,-74.014847,40.68926942,-73.98912867,member
122237,F89CDEF6B4E9236B,electric_bike,2021-06-18 15:35:59,2021-06-18 15:50:23,6 St & 7 Ave,3834,State St & Smith St,4565,40.6686627,-73.97988067,40.68926942,-73.98912867,member
122246,B8F8E826AE147601,docked_bike,2021-06-14 12:49:15,2021-06-14 13:01:50,Classon Ave & St Marks Ave,4074,State St & Smith St,4565,40.676519,-73.959608,40.68926942,-73.98912867,member
122248,3AC4EE816F3739A4,docked_bike,2021-06-07 15:58:33,2021-06-07 16:18:57,Franklin Ave & St Marks Ave,4107,State St & Smith St,4565,40.675832,-73.956167,40.68926942,-73.98912867,member
122258,5EDC28EE31BEA9BD,electric_bike,2021-06-27 10:07:21,2021-06-27 10:16:05,Columbia St & Degraw St,4422,State St & Smith St,4565,40.6859296,-74.00242364,40.68926942,-73.98912867,casual
122261,B205AA5D03D0A411,docked_bike,2021-06-18 15:31:45,2021-06-18 15:38:16,3 St & Hoyt St,4110,State St & Smith St,4565,40.677728,-73.993641,40.68926942,-73.98912867,member
122264,FE01042A3DA4A291,electric_bike,2021-06-21 16:40:37,2021-06-21 16:52:14,Franklin Ave & St Marks Ave,4107,State St & Smith St,4565,40.6758324,-73.9561677,40.68926942,-73.98912867,casual
122282,4CEF6C71CB1ACD88,classic_bike,2021-06-24 18:00:07,2021-06-24 18:10:24,Lafayette Ave & St James Pl,4494,State St & Smith St,4565,40.68851534,-73.9647628,40.68926942,-73.98912867,member
122287,DF7D12A98BE97732,electric_bike,2021-06-28 14:47:05,2021-06-28 15:03:18,Franklin Ave & St Marks Ave,4107,State St & Smith St,4565,40.6758324,-73.9561677,40.68926942,-73.98912867,member
122292,BAED6CB66027D8EC,electric_bike,2021-06-21 07:09:46,2021-06-21 07:18:37,President St & Henry St,4307,State St & Smith St,4565,40.6828003,-73.99990419,40.68926942,-73.98912867,member
122330,2CEA896F0B8AC84E,docked_bike,2021-06-17 16:10:16,2021-06-17 16:21:52,Columbia St & Degraw St,4422,State St & Smith St,4565,40.685929,-74.002423,40.68926942,-73.98912867,casual
122331,AF5F46EDCC103477,docked_bike,2021-06-07 16:37:58,2021-06-07 16:59:55,West St & Liberty St,5184,State St & Smith St,4565,40.711444,-74.014847,40.68926942,-73.98912867,member
122332,C1CE69E0BCE4D3FA,docked_bike,2021-06-18 17:15:31,2021-06-18 17:33:45,West St & Liberty St,5184,State St & Smith St,4565,40.711444,-74.014847,40.68926942,-73.98912867,member
122333,0323591BC2C66DAA,classic_bike,2021-06-28 17:25:34,2021-06-28 17:46:33,West St & Liberty St,5184,State St & Smith St,4565,40.711444,-74.014847,40.68926942,-73.98912867,member
122338,014F9D6290ACC7A2,electric_bike,2021-06-11 18:17:23,2021-06-11 18:26:30,Court St & Nelson St,4077,State St & Smith St,4565,40.676394,-73.998698,40.68926942,-73.98912867,casual
122343,0EF4C5C045152B3D,classic_bike,2021-06-29 15:39:13,2021-06-29 16:13:15,Pershing Square South,6432,State St & Smith St,4565,40.751581,-73.97791,40.68926942,-73.98912867,member
122344,0798F91F15DFFB58,docked_bike,2021-06-06 00:16:03,2021-06-06 00:39:14,Metropolitan Ave & Bedford Ave,5308,State St & Smith St,4565,40.715348,-73.960241,40.68926942,-73.98912867,member
122349,790CDAB9B73FDF37,electric_bike,2021-06-28 09:32:39,2021-06-28 09:40:11,Court St & Nelson St,4077,State St & Smith St,4565,40.6763947,-73.99869893,40.68926942,-73.98912867,member
