,ride_id,rideable_type,started_at,ended_at,start_station_name,start_station_id,end_station_name,end_station_id,start_lat,start_lng,end_lat,end_lng,member_casual
19933,9C45DDC267081535,classic_bike,2021-06-23 08:51:08,2021-06-23 08:58:22,Division Ave & Hooper St,5045,Franklin Ave & Myrtle Ave,4715,40.70684203101325,-73.9544353965357,40.694546087246025,-73.95801365375519,member
19936,FABDF98549FC525D,docked_bike,2021-06-09 13:12:54,2021-06-09 13:25:56,Bushwick Ave & Harman St,4640,Franklin Ave & Myrtle Ave,4715,40.69356,-73.92524,40.694546087246025,-73.95801365375519,member
19960,7F13C9BBEAE565AC,electric_bike,2021-06-01 13:29:18,2021-06-01 13:39:42,Kent Ave & S 11 St,5062,Franklin Ave & Myrtle Ave,4715,40.707644,-73.968415,40.694546087246025,-73.95801365375519,member
19971,E937FD7B2A5D5C8F,electric_bike,2021-06-16 17:49:03,2021-06-16 18:04:41,Columbia St & Rivington St,5365,Franklin Ave & Myrtle Ave,4715,40.717399,-73.980165,40.694546087246025,-73.95801365375519,member
30608,A5675E0A2E6CDB7D,docked_bike,2021-06-19 16:19:27,2021-06-19 16:34:17,Franklin Ave & Myrtle Ave,4715,Grand St & Havemeyer St,5267,40.694546,-73.958013,40.71286844,-73.95698119,casual
47579,C84932E39FC57C14,electric_bike,2021-06-20 13:05:47,2021-06-20 13:15:56,Franklin Ave & Myrtle Ave,4715,Nassau St & Navy St,4812,40.694546,-73.958013,40.69839895,-73.98068914,member
84536,7C46CE27776BD246,electric_bike,2021-06-16 09:32:26,2021-06-16 09:40:54,Dock 72 Way & Market St,4804,Franklin Ave & Myrtle Ave,4715,40.69985,-73.97141,40.694546087246025,-73.95801365375519,member
84540,AD2E71A7523AE75F,electric_bike,2021-06-03 16:31:22,2021-06-03 16:35:02,Nostrand Ave & Myrtle Ave,4707,Franklin Ave & Myrtle Ave,4715,40.69527,-73.952381,40.694546087246025,-73.95801365375519,member
84557,7E183B83F795ADC9,classic_bike,2021-06-28 00:13:28,2021-06-28 00:17:50,Myrtle Ave & Marcy Ave,4707,Franklin Ave & Myrtle Ave,4715,40.69539817,-73.94954908,40.694546087246025,-73.95801365375519,casual
84573,CDA776C37709F947,classic_bike,2021-06-24 22:35:27,2021-06-24 22:48:14,S 4 St & Wythe Ave,5204,Franklin Ave & Myrtle Ave,4715,40.71285887,-73.96590294,40.694546087246025,-73.95801365375519,member
84599,B3CFAD143A2F1BDE,electric_bike,2021-06-09 15:04:27,2021-06-09 15:09:09,Adelphi St & Myrtle Ave,4620,Franklin Ave & Myrtle Ave,4715,40.693082,-73.971789,40.694546087246025,-73.95801365375519,casual
84614,22DBDB65289F6D92,electric_bike,2021-06-25 23:24:36,2021-06-25 23:34:22,Flushing Ave & Vanderbilt Ave,4762,Franklin Ave & Myrtle Ave,4715,40.69795031569544,-73.97077560424805,40.694546087246025,-73.95801365375519,casual
84619,80AB1D909D1FD5A2,docked_bike,2021-06-06 21:12:13,2021-06-06 21:28:08,Bergen St & Vanderbilt Ave,4157,Franklin Ave & Myrtle Ave,4715,40.679438,-73.968043,40.694546087246025,-73.95801365375519,casual
84635,6AA791E539F21ED9,electric_bike,2021-06-07 13:15:02,2021-06-07 13:26:04,Washington Park,4546,Franklin Ave & Myrtle Ave,4715,40.691782,-73.973729,40.694546087246025,-73.95801365375519,casual
84685,5EBE5F9260FF9F72,classic_bike,2021-06-20 22:19:45,2021-06-20 22:42:47,West St & Liberty St,5184,Franklin Ave & Myrtle Ave,4715,40.711444,-74.014847,40.694546087246025,-73.95801365375519,member
84709,AD556B923E59AF2E,classic_bike,2021-06-20 14:41:13,2021-06-20 14:57:37,Kent Ave & S 11 St,5062,Franklin Ave & Myrtle Ave,4715,40.707644944175705,-73.96841526031494,40.694546087246025,-73.95801365375519,member
84727,3E8BF3A286F0E018,classic_bike,2021-06-25 16:52:58,2021-06-25 17:03:38,Wythe Ave & Metropolitan Ave,5348,Franklin Ave & Myrtle Ave,4715,40.716887,-73.963198,40.694546087246025,-73.95801365375519,member
84738,E9330FF4FE881DDD,classic_bike,2021-06-27 00:49:22,2021-06-27 01:03:00,Knickerbocker Ave & George St,4979,Franklin Ave & Myrtle Ave,4715,40.704425,-73.92836,40.694546087246025,-73.95801365375519,casual
84759,444AF1F55145EEFB,electric_bike,2021-06-06 22:08:18,2021-06-06 22:43:02,Banker St & Meserole Ave,5633,Franklin Ave & Myrtle Ave,4715,40.72606,-73.95621,40.694546087246025,-73.95801365375519,member
84776,6862A420494A431D,docked_bike,2021-06-16 20:26:14,2021-06-16 20:41:47,Irving Ave & DeKalb Ave,4898,Franklin Ave & Myrtle Ave,4715,40.7027,-73.92095,40.694546087246025,-73.95801365375519,member
84782,C7CE937B84EE2779,classic_bike,2021-06-30 07:29:55,2021-06-30 07:41:26,Bushwick Ave & McKibbin St,5027,Franklin Ave & Myrtle Ave,4715,40.705517,-73.93936,40.694546087246025,-73.95801365375519,casual
84812,1F11C0A177535556,docked_bike,2021-06-16 19:03:16,2021-06-16 19:40:35,Park Ave & Marcus Garvey Blvd,4768,Franklin Ave & Myrtle Ave,4715,40.698617,-73.941342,40.694546087246025,-73.95801365375519,member
84818,9222ED91540E499E,docked_bike,2021-06-15 21:06:23,2021-06-15 21:26:03,Metropolitan Ave & Meeker Ave,5300,Franklin Ave & Myrtle Ave,4715,40.714133,-73.952343,40.694546087246025,-73.95801365375519,casual
84820,C3104776CAFFF874,classic_bike,2021-06-30 15:14:11,2021-06-30 15:18:53,Lexington Ave & Classon Ave,4452,Franklin Ave & Myrtle Ave,4715,40.68676793,-73.95928168,40.694546087246025,-73.95801365375519,member
84835,97799FEE16A7CD86,electric_bike,2021-06-08 12:28:08,2021-06-08 12:38:41,Atlantic Ave & Fort Greene Pl,4354,Franklin Ave & Myrtle Ave,4715,40.683826,-73.976323,40.694546087246025,-73.95801365375519,member
84836,5CDB6A1C390DFB8A,docked_bike,2021-06-19 00:25:06,2021-06-19 00:42:06,Union Ave & N 12 St,5411,Franklin Ave & Myrtle Ave,4715,40.71924,-73.95242,40.694546087246025,-73.95801365375519,member
84843,D2BDD35125FED721,docked_bike,2021-06-18 19:25:38,2021-06-18 19:32:40,Myrtle Ave & St Edwards St,4659,Franklin Ave & Myrtle Ave,4715,40.69327,-73.977038,40.694546087246025,-73.95801365375519,casual
84858,1B6FEA4642B6F316,docked_bike,2021-06-13 22:43:07,2021-06-13 23:00:43,N 12 St & Bedford Ave,5450,Franklin Ave & Myrtle Ave,4715,40.720798,-73.954847,40.694546087246025,-73.95801365375519,member
84866,01CC9B7D770B804F,electric_bike,2021-06-06 15:18:11,2021-06-06 15:37:59,N 15 St & Wythe Ave,5520,Franklin Ave & Myrtle Ave,4715,40.724055,-73.955736,40.694546087246025,-73.95801365375519,member
84887,9A47B46190E2A525,docked_bike,2021-06-05 12:57:13,2021-06-05 13:06:04,Myrtle Ave & St Edwards St,4659,Franklin Ave & Myrtle Ave,4715,40.69327,-73.977038,40.694546087246025,-73.95801365375519,member
84899,26B10372F25EBAFA,docked_bike,2021-06-13 18:42:24,2021-06-13 19:17:19,4 Ave & E 12 St,5788,Franklin Ave & Myrtle Ave,4715,40.732647,-73.99011,40.694546087246025,-73.95801365375519,member
84913,AAB8BC5D9F5CC0FE,docked_bike,2021-06-13 13:13:27,2021-06-13 13:18:23,Willoughby Ave & Hall St,4611,Franklin Ave & Myrtle Ave,4715,40.69196,-73.965368,40.694546087246025,-73.95801365375519,member
84952,9601B74E669AC246,electric_bike,2021-06-29 11:30:44,2021-06-29 12:29:31,Milton St & Franklin St,5752,Franklin Ave & Myrtle Ave,4715,40.72906,-73.95779,40.694546087246025,-73.95801365375519,casual
84954,FB27DF1F8A74B706,electric_bike,2021-06-29 11:30:42,2021-06-29 12:30:35,Milton St & Franklin St,5752,Franklin Ave & Myrtle Ave,4715,40.72906,-73.95779,40.694546087246025,-73.95801365375519,casual
84969,E42A724B3A7C8067,classic_bike,2021-06-24 22:35:01,2021-06-24 22:48:13,S 4 St & Wythe Ave,5204,Franklin Ave & Myrtle Ave,4715,40.71285887,-73.96590294,40.694546087246025,-73.95801365375519,member
84996,D3FED00CC2371C13,docked_bike,2021-06-18 20:02:18,2021-06-18 20:23:43,Grove St & Broadway,4526,Franklin Ave & Myrtle Ave,4715,40.69047,-73.923511,40.694546087246025,-73.95801365375519,casual
86127,920D30CA5BAD2DE1,electric_bike,2021-06-28 03:25:35,2021-06-28 03:31:33,Hancock St & Bedford Ave,4255,Franklin Ave & Myrtle Ave,4715,40.68216564,-73.95399026,40.694546087246025,-73.95801365375519,member
86147,A5BBDEC7FA5F4FB5,electric_bike,2021-06-29 09:31:27,2021-06-29 09:46:56,Grove St & Broadway,4526,Franklin Ave & Myrtle Ave,4715,40.69047,-73.923511,40.694546087246025,-73.95801365375519,casual
86495,CE61F317CD081B34,docked_bike,2021-06-10 17:10:27,2021-06-10 17:18:07,Throop Ave & Myrtle Ave,4697,Franklin Ave & Myrtle Ave,4715,40.696229,-73.94371,40.694546087246025,-73.95801365375519,member
169802,C68F1B291C72E78C,docked_bike,2021-06-01 17:41:02,2021-06-01 18:07:38,Franklin Ave & Myrtle Ave,4715,Vernon Blvd & 47 Rd,6212,40.694546,-73.958013,40.7449067,-73.9534573,member
172176,80EA37524CE6AF01,electric_bike,2021-06-29 22:43:54,2021-06-29 23:00:45,Franklin Ave & Myrtle Ave,4715,Fulton St & Irving Pl,4263,40.694546087246025,-73.95801365375519,40.68186,-73.959432,casual
174308,9A31CB02AA742D3A,docked_bike,2021-06-11 16:07:55,2021-06-11 16:15:47,Franklin Ave & Myrtle Ave,4715,Myrtle Ave & Fleet Pl,4628,40.694546,-73.958013,40.693534,-73.981909,member
174311,FE0CE3D3B511E40A,docked_bike,2021-06-12 15:34:48,2021-06-12 15:43:29,Franklin Ave & Myrtle Ave,4715,Myrtle Ave & Fleet Pl,4628,40.694546,-73.958013,40.693534,-73.981909,casual
184553,012F234A57B7CE83,electric_bike,2021-06-09 14:12:58,2021-06-09 14:25:24,Franklin Ave & Myrtle Ave,4715,Bushwick Ave & Harman St,4640,40.694546,-73.958013,40.69356,-73.92524,member
191462,419B8EB5EA503647,docked_bike,2021-06-18 15:49:47,2021-06-18 16:00:23,Franklin Ave & Myrtle Ave,4715,Bedford Ave & Bergen St,4066,40.694546,-73.958013,40.676368,-73.952918,member
194282,50EDF97197686BE1,electric_bike,2021-06-14 20:23:27,2021-06-14 20:36:43,Irving Ave & Harman St,4856,Franklin Ave & Myrtle Ave,4715,40.70108,-73.9179,40.694546087246025,-73.95801365375519,member
194293,6C42C0E35083D5B9,docked_bike,2021-06-18 00:32:11,2021-06-18 00:47:21,Irving Ave & Harman St,4856,Franklin Ave & Myrtle Ave,4715,40.70108,-73.9179,40.694546087246025,-73.95801365375519,member
194339,21A52EF067D63E48,docked_bike,2021-06-14 10:30:09,2021-06-14 10:40:38,Verona Pl & Fulton St,4124,Franklin Ave & Myrtle Ave,4715,40.680356,-73.947679,40.694546087246025,-73.95801365375519,member
194340,3E42129157AD6912,classic_bike,2021-06-30 09:21:11,2021-06-30 09:31:03,Verona Pl & Fulton St,4124,Franklin Ave & Myrtle Ave,4715,40.6803560840434,-73.9476791024208,40.694546087246025,-73.95801365375519,member
194435,A4B852ADA8022142,docked_bike,2021-06-02 20:50:38,2021-06-02 20:57:40,Division Ave & Marcy Ave,5084,Franklin Ave & Myrtle Ave,4715,40.707087,-73.957967,40.694546087246025,-73.95801365375519,member
194469,9E3CDEB363BCB0B9,classic_bike,2021-06-29 16:21:56,2021-06-29 16:42:07,Willoughby St & Fleet St,4628,Franklin Ave & Myrtle Ave,4715,40.69196566,-73.9813018,40.694546087246025,-73.95801365375519,member
194497,C5AA021C31C849F2,electric_bike,2021-06-15 13:38:42,2021-06-15 14:00:52,Church Ave & Story St,3007,Franklin Ave & Myrtle Ave,4715,40.642031,-73.981073,40.694546087246025,-73.95801365375519,member
194534,548135DA55658375,electric_bike,2021-06-06 19:35:03,2021-06-06 20:03:52,Suydam St & St. Nicholas Ave,5043,Franklin Ave & Myrtle Ave,4715,40.70636,-73.91945,40.694546087246025,-73.95801365375519,casual
194537,FFC9FE8584539A78,electric_bike,2021-06-13 10:22:19,2021-06-13 10:39:53,Graham Ave & Withers St,5403,Franklin Ave & Myrtle Ave,4715,40.716981,-73.944859,40.694546087246025,-73.95801365375519,casual
194561,CCB312E642BFBB6F,classic_bike,2021-06-22 22:09:54,2021-06-22 22:18:33,Lefferts Pl & Franklin Ave,4222,Franklin Ave & Myrtle Ave,4715,40.680342423,-73.9557689392,40.694546087246025,-73.95801365375519,casual
194562,BFCBCF413EC6E198,electric_bike,2021-06-25 18:02:33,2021-06-25 18:16:25,N 6 St & Bedford Ave,5379,Franklin Ave & Myrtle Ave,4715,40.71745169,-73.95850939,40.694546087246025,-73.95801365375519,casual
194569,42FF4873220F08FC,electric_bike,2021-06-16 17:19:42,2021-06-16 17:34:39,Mott St & Prince St,5561,Franklin Ave & Myrtle Ave,4715,40.723179,-73.9948,40.694546087246025,-73.95801365375519,member
194570,C8AF53E0EAE126D8,classic_bike,2021-06-30 07:31:24,2021-06-30 07:42:44,Washington Ave & Greene Ave,4419,Franklin Ave & Myrtle Ave,4715,40.68650065,-73.96563307,40.694546087246025,-73.95801365375519,member
194606,B4AE60E9CD87710B,docked_bike,2021-06-20 16:28:47,2021-06-20 16:35:10,Tompkins Ave & Hopkins St,4850,Franklin Ave & Myrtle Ave,4715,40.699576,-73.947084,40.694546087246025,-73.95801365375519,member
194630,A9BB965BE4590DD3,electric_bike,2021-06-10 14:45:37,2021-06-10 15:18:39,Madison St & Montgomery St,5262,Franklin Ave & Myrtle Ave,4715,40.713126,-73.984844,40.694546087246025,-73.95801365375519,casual
194634,F5258E6156A5AFBB,electric_bike,2021-06-01 05:45:07,2021-06-01 06:05:57,Vernon Blvd & 47 Rd,6212,Franklin Ave & Myrtle Ave,4715,40.744906,-73.953457,40.694546087246025,-73.95801365375519,member
194657,FEEC1580BBB61721,docked_bike,2021-06-05 19:33:38,2021-06-05 19:53:38,Grand St & Havemeyer St,5267,Franklin Ave & Myrtle Ave,4715,40.712868,-73.956981,40.694546087246025,-73.95801365375519,member
194659,9937B6E3A3E71B2E,classic_bike,2021-06-26 00:08:25,2021-06-26 00:38:38,Grand St & Havemeyer St,5267,Franklin Ave & Myrtle Ave,4715,40.71286844,-73.95698119,40.694546087246025,-73.95801365375519,casual
194702,D287FB120E2808A1,classic_bike,2021-06-21 23:14:14,2021-06-21 23:28:40,Bedford Ave & Bergen St,4066,Franklin Ave & Myrtle Ave,4715,40.676368,-73.952918,40.694546087246025,-73.95801365375519,member
194708,8AE9A67A5EDFA324,electric_bike,2021-06-10 08:36:37,2021-06-10 08:48:58,Park Pl & Franklin Ave,4033,Franklin Ave & Myrtle Ave,4715,40.67418,-73.956494,40.694546087246025,-73.95801365375519,casual
194736,31D4EA788D8693E5,electric_bike,2021-06-20 12:27:09,2021-06-20 12:55:18,Canal St & Rutgers St,5303,Franklin Ave & Myrtle Ave,4715,40.714274,-73.9899,40.694546087246025,-73.95801365375519,member
194745,99B99225D89F6744,electric_bike,2021-06-25 16:05:07,2021-06-25 16:34:25,Mott St & Prince St,5561,Franklin Ave & Myrtle Ave,4715,40.72317958,-73.99480012,40.694546087246025,-73.95801365375519,casual
194746,0DC2A2DCFACE7220,docked_bike,2021-06-18 14:42:03,2021-06-18 14:59:39,Bergen St & Vanderbilt Ave,4157,Franklin Ave & Myrtle Ave,4715,40.679438,-73.968043,40.694546087246025,-73.95801365375519,member
194793,8C5CF7ED3305ACED,docked_bike,2021-06-03 14:55:24,2021-06-03 15:07:10,Lewis Ave & Madison St,4425,Franklin Ave & Myrtle Ave,4715,40.686312,-73.935775,40.694546087246025,-73.95801365375519,member
194797,108DFC1842B36C16,electric_bike,2021-06-07 16:16:56,2021-06-07 16:27:24,Montrose Ave & Bushwick Ave,5068,Franklin Ave & Myrtle Ave,4715,40.707677,-73.940161,40.694546087246025,-73.95801365375519,casual
194799,4794DF81D98E1A2C,docked_bike,2021-06-13 14:50:46,2021-06-13 15:03:52,N 6 St & Bedford Ave,5379,Franklin Ave & Myrtle Ave,4715,40.717451,-73.958509,40.694546087246025,-73.95801365375519,member
194808,5163E9AC23E46537,classic_bike,2021-06-25 14:49:23,2021-06-25 15:06:55,Metropolitan Ave & Bedford Ave,5308,Franklin Ave & Myrtle Ave,4715,40.71534825,-73.96024116,40.694546087246025,-73.95801365375519,member
194810,2C2A4B7B04A5A273,classic_bike,2021-06-30 00:11:33,2021-06-30 00:34:17,Metropolitan Ave & Bedford Ave,5308,Franklin Ave & Myrtle Ave,4715,40.71534825,-73.96024116,40.694546087246025,-73.95801365375519,casual
194822,F99682B3D10AC8D0,electric_bike,2021-06-02 22:38:18,2021-06-02 22:46:49,Bergen St & Vanderbilt Ave,4157,Franklin Ave & Myrtle Ave,4715,40.679438,-73.968043,40.694546087246025,-73.95801365375519,member
194829,5C8A9D2FDB685719,classic_bike,2021-06-18 14:40:00,2021-06-18 14:59:31,Bergen St & Vanderbilt Ave,4157,Franklin Ave & Myrtle Ave,4715,40.6794388,-73.9680438,40.694546087246025,-73.95801365375519,member
194831,C7E17EDAFFE27EDB,docked_bike,2021-06-01 12:40:31,2021-06-01 13:15:32,Jay St & Tech Pl,4710,Franklin Ave & Myrtle Ave,4715,40.695065,-73.987167,40.694546087246025,-73.95801365375519,casual
194837,48AD7468CD30E5CF,docked_bike,2021-06-09 20:49:29,2021-06-09 21:01:17,Jay St & Tech Pl,4710,Franklin Ave & Myrtle Ave,4715,40.695065,-73.987167,40.694546087246025,-73.95801365375519,member
194856,B6794FC437A50434,classic_bike,2021-06-30 21:29:42,2021-06-30 21:46:48,Jay St & Tech Pl,4710,Franklin Ave & Myrtle Ave,4715,40.695065,-73.987167,40.694546087246025,-73.95801365375519,casual
194857,39419E759B7373E2,classic_bike,2021-06-30 21:28:33,2021-06-30 21:46:54,Jay St & Tech Pl,4710,Franklin Ave & Myrtle Ave,4715,40.695065,-73.987167,40.694546087246025,-73.95801365375519,casual
194862,CC0D99858679FC6C,classic_bike,2021-06-30 01:20:18,2021-06-30 01:34:22,Metropolitan Ave & Bedford Ave,5308,Franklin Ave & Myrtle Ave,4715,40.71534825,-73.96024116,40.694546087246025,-73.95801365375519,member
194896,1251182043C81285,electric_bike,2021-06-12 10:37:58,2021-06-12 11:16:36,E 74 St & 1 Ave,6953,Franklin Ave & Myrtle Ave,4715,40.768973,-73.954822,40.694546087246025,-73.95801365375519,member
194924,106E6F1624B12A4E,docked_bike,2021-06-15 17:03:34,2021-06-15 17:10:38,Myrtle Ave & St Edwards St,4659,Franklin Ave & Myrtle Ave,4715,40.69327,-73.977038,40.694546087246025,-73.95801365375519,member
194934,4E05FDE1F3FF9108,docked_bike,2021-06-16 03:24:48,2021-06-16 03:31:43,Emerson Pl & Myrtle Ave,4683,Franklin Ave & Myrtle Ave,4715,40.693631,-73.962235,40.694546087246025,-73.95801365375519,casual
194936,A0884F06C1C1AD37,classic_bike,2021-06-25 17:49:32,2021-06-25 17:52:36,Emerson Pl & Myrtle Ave,4683,Franklin Ave & Myrtle Ave,4715,40.69363137,-73.96223558,40.694546087246025,-73.95801365375519,casual
194946,226AEFB15F56BFB0,classic_bike,2021-06-23 18:09:55,2021-06-23 18:20:46,Sterling Pl & Bedford Ave,3993,Franklin Ave & Myrtle Ave,4715,40.672695,-73.954131,40.694546087246025,-73.95801365375519,casual
194950,1F7AAFB9E1B3BD63,docked_bike,2021-06-19 17:47:45,2021-06-19 17:49:21,Emerson Pl & Myrtle Ave,4683,Franklin Ave & Myrtle Ave,4715,40.693631,-73.962235,40.694546087246025,-73.95801365375519,member
194955,03ECA29B10398A73,docked_bike,2021-06-05 11:16:27,2021-06-05 11:18:46,Emerson Pl & Myrtle Ave,4683,Franklin Ave & Myrtle Ave,4715,40.693631,-73.962235,40.694546087246025,-73.95801365375519,member
194958,DD3EF2BD3BD13A02,docked_bike,2021-06-11 15:16:44,2021-06-11 15:19:36,Emerson Pl & Myrtle Ave,4683,Franklin Ave & Myrtle Ave,4715,40.693631,-73.962235,40.694546087246025,-73.95801365375519,member
194959,3FBC47943CF0BF84,classic_bike,2021-06-24 07:43:23,2021-06-24 07:46:30,Emerson Pl & Myrtle Ave,4683,Franklin Ave & Myrtle Ave,4715,40.69363137,-73.96223558,40.694546087246025,-73.95801365375519,member
195016,E28387181EB42D6F,classic_bike,2021-06-21 21:43:27,2021-06-21 22:10:55,McGuinness Blvd & Eagle St,5977,Franklin Ave & Myrtle Ave,4715,40.73555,-73.95284,40.694546087246025,-73.95801365375519,casual
195038,AC7925A21C6F616A,docked_bike,2021-06-01 00:32:55,2021-06-01 00:47:57,Driggs Ave & N 9 St,5411,Franklin Ave & Myrtle Ave,4715,40.718169,-73.955201,40.694546087246025,-73.95801365375519,member
195052,C97F1B699EE42D90,classic_bike,2021-06-29 16:38:44,2021-06-29 17:10:31,Driggs Ave & N 9 St,5411,Franklin Ave & Myrtle Ave,4715,40.71816969454208,-73.95520135760307,40.694546087246025,-73.95801365375519,casual
195057,39F3517E12062FC2,classic_bike,2021-06-26 02:24:07,2021-06-26 02:41:54,Metropolitan Ave & Meeker Ave,5300,Franklin Ave & Myrtle Ave,4715,40.71413311,-73.95234386,40.694546087246025,-73.95801365375519,member
195059,94A9C2245158C58B,electric_bike,2021-06-06 14:16:52,2021-06-06 14:55:58,Washington St & Gansevoort St,6039,Franklin Ave & Myrtle Ave,4715,40.739323,-74.008119,40.694546087246025,-73.95801365375519,casual
195063,B48F79F9B5271189,electric_bike,2021-06-28 12:05:59,2021-06-28 12:25:57,W Broadway & Spring St,5569,Franklin Ave & Myrtle Ave,4715,40.72494672359416,-74.00165855884552,40.694546087246025,-73.95801365375519,member
195068,E460845025DE8286,electric_bike,2021-06-06 22:11:42,2021-06-06 22:55:07,Clermont Ave & Park Ave,4692,Franklin Ave & Myrtle Ave,4715,40.695733,-73.971296,40.694546087246025,-73.95801365375519,member
195072,1EDD10C2846F00B8,classic_bike,2021-06-26 19:53:04,2021-06-26 20:05:46,Cedar St & Myrtle Ave,4751,Franklin Ave & Myrtle Ave,4715,40.697842,-73.926241,40.694546087246025,-73.95801365375519,member
195104,BC35D4055ED1628B,classic_bike,2021-06-17 19:15:43,2021-06-17 19:18:26,Emerson Pl & Myrtle Ave,4683,Franklin Ave & Myrtle Ave,4715,40.69363137,-73.96223558,40.694546087246025,-73.95801365375519,member
195125,BC46F36B128BE6A6,docked_bike,2021-06-06 17:32:13,2021-06-06 17:43:36,Classon Ave & St Marks Ave,4074,Franklin Ave & Myrtle Ave,4715,40.676519,-73.959608,40.694546087246025,-73.95801365375519,casual
195132,5D89CAA16B4092DE,classic_bike,2021-06-27 12:43:22,2021-06-27 12:51:02,Emerson Pl & Myrtle Ave,4683,Franklin Ave & Myrtle Ave,4715,40.69363137,-73.96223558,40.694546087246025,-73.95801365375519,casual
195141,0DF7160E2487C46A,electric_bike,2021-06-09 08:23:48,2021-06-09 08:37:48,Suydam St & Knickerbocker Ave,4939,Franklin Ave & Myrtle Ave,4715,40.702013,-73.923769,40.694546087246025,-73.95801365375519,member
195148,BB3FF7CA5F0E0CC6,electric_bike,2021-06-24 20:40:27,2021-06-24 20:48:51,Cumberland St & Lafayette Ave,4428,Franklin Ave & Myrtle Ave,4715,40.68753406,-73.97265183,40.694546087246025,-73.95801365375519,member
195152,30EADCF451A73F11,electric_bike,2021-06-18 15:33:41,2021-06-18 15:59:21,Wall St & South St,4953,Franklin Ave & Myrtle Ave,4715,40.70437,-74.00637,40.694546087246025,-73.95801365375519,member
195159,B9E1807AC2A67F32,docked_bike,2021-06-12 00:06:38,2021-06-12 00:17:32,Broadway & Berry St,5164,Franklin Ave & Myrtle Ave,4715,40.710445,-73.96525,40.694546087246025,-73.95801365375519,member
195214,B06F2E65BF494B80,docked_bike,2021-06-20 19:24:02,2021-06-20 19:32:16,Flushing Ave & Vanderbilt Ave,4762,Franklin Ave & Myrtle Ave,4715,40.69795,-73.970775,40.694546087246025,-73.95801365375519,member
195215,AAF831A4831C2CB9,electric_bike,2021-06-25 22:12:54,2021-06-25 22:36:20,Central Ave & Starr Street,4792,Franklin Ave & Myrtle Ave,4715,40.700003,-73.92834,40.694546087246025,-73.95801365375519,member
195224,117C620F5AE9E891,electric_bike,2021-06-26 20:48:41,2021-06-26 20:54:33,Lexington Ave & Classon Ave,4452,Franklin Ave & Myrtle Ave,4715,40.68676793,-73.95928168,40.694546087246025,-73.95801365375519,member
195258,E0C74242672E7307,classic_bike,2021-06-19 18:04:04,2021-06-19 18:19:32,Wythe Ave & Metropolitan Ave,5348,Franklin Ave & Myrtle Ave,4715,40.716887,-73.963198,40.694546087246025,-73.95801365375519,member
195319,1ACBF48E8B75E0B2,electric_bike,2021-06-17 08:48:22,2021-06-17 09:10:25,Cleveland Pl & Spring St,5492,Franklin Ave & Myrtle Ave,4715,40.722103,-73.997249,40.694546087246025,-73.95801365375519,member
195352,2930F800C328E957,docked_bike,2021-06-13 04:24:43,2021-06-13 05:06:43,5 Ave & E 29 St,6248,Franklin Ave & Myrtle Ave,4715,40.745167,-73.98683,40.694546087246025,-73.95801365375519,casual
195362,5840296B1B625A0B,docked_bike,2021-06-01 16:54:24,2021-06-01 17:00:13,Dock 72 Way & Market St,4804,Franklin Ave & Myrtle Ave,4715,40.69985,-73.97141,40.694546087246025,-73.95801365375519,member
195367,67E6620EA6B7ECEF,electric_bike,2021-06-29 17:10:47,2021-06-29 17:22:49,Eastern Pkwy & Washington Ave,3928,Franklin Ave & Myrtle Ave,4715,40.6716493,-73.9631145,40.694546087246025,-73.95801365375519,casual
195400,A5869B5122D9DECA,docked_bike,2021-06-04 19:09:48,2021-06-04 19:25:42,Nostrand Ave & Myrtle Ave,4707,Franklin Ave & Myrtle Ave,4715,40.69527,-73.952381,40.694546087246025,-73.95801365375519,member
195401,D5474E64E4F442FC,docked_bike,2021-06-07 17:41:30,2021-06-07 17:51:10,Dock 72 Way & Market St,4804,Franklin Ave & Myrtle Ave,4715,40.69985,-73.97141,40.694546087246025,-73.95801365375519,member
195411,8BAB1290B179E5C2,electric_bike,2021-06-15 08:20:15,2021-06-15 08:28:02,Dock 72 Way & Market St,4804,Franklin Ave & Myrtle Ave,4715,40.69985,-73.97141,40.694546087246025,-73.95801365375519,member
195439,BF4EA2AA44A816BD,classic_bike,2021-06-26 11:57:51,2021-06-26 12:00:52,Nostrand Ave & Myrtle Ave,4707,Franklin Ave & Myrtle Ave,4715,40.69527008,-73.95238108,40.694546087246025,-73.95801365375519,member
195444,1E3052E90E6D0FD0,docked_bike,2021-06-02 01:29:44,2021-06-02 02:11:29,FDR Drive & E 35 St,6230,Franklin Ave & Myrtle Ave,4715,40.744219,-73.971212,40.694546087246025,-73.95801365375519,member
195461,CE43BCAE4CB32BBD,docked_bike,2021-06-12 11:39:49,2021-06-12 11:50:40,Kent Ave & S 11 St,5062,Franklin Ave & Myrtle Ave,4715,40.707644,-73.968415,40.694546087246025,-73.95801365375519,member
195477,9CAF47F83DF56896,docked_bike,2021-06-06 11:32:54,2021-06-06 11:43:17,Park Ave & Marcus Garvey Blvd,4768,Franklin Ave & Myrtle Ave,4715,40.698617,-73.941342,40.694546087246025,-73.95801365375519,casual
195480,ECA27539D7573C72,electric_bike,2021-06-26 19:51:17,2021-06-26 20:06:53,Halsey St & Broadway,4366,Franklin Ave & Myrtle Ave,4715,40.68565,-73.91564,40.694546087246025,-73.95801365375519,casual
195482,23645EA3565FE2BA,electric_bike,2021-06-05 09:09:19,2021-06-05 09:27:01,Halsey St & Broadway,4366,Franklin Ave & Myrtle Ave,4715,40.68565,-73.91564,40.694546087246025,-73.95801365375519,casual
195548,8BA6949F28A37B72,electric_bike,2021-06-13 14:27:10,2021-06-13 14:45:17,Powers St & Olive St,5210,Franklin Ave & Myrtle Ave,4715,40.71323,-73.93894,40.694546087246025,-73.95801365375519,member
195583,FC9B35E994207658,docked_bike,2021-06-02 00:20:33,2021-06-02 00:33:50,Johnson St & Gold St,4668,Franklin Ave & Myrtle Ave,4715,40.694748,-73.983624,40.694546087246025,-73.95801365375519,casual
195615,9BB3BA24FE4C6C20,classic_bike,2021-06-26 21:34:23,2021-06-26 22:00:25,Berry St & N 8 St,5379,Franklin Ave & Myrtle Ave,4715,40.7190095,-73.95852515,40.694546087246025,-73.95801365375519,casual
195623,F45731E580770DF7,classic_bike,2021-06-28 10:34:10,2021-06-28 10:43:04,Myrtle Ave & St Edwards St,4659,Franklin Ave & Myrtle Ave,4715,40.69327018,-73.97703874,40.694546087246025,-73.95801365375519,member
195647,C65A5FA355F06F36,docked_bike,2021-06-10 08:38:39,2021-06-10 08:47:30,Kent Ave & S 11 St,5062,Franklin Ave & Myrtle Ave,4715,40.707644,-73.968415,40.694546087246025,-73.95801365375519,member
195766,95AEDAD8EF571690,electric_bike,2021-06-01 12:36:13,2021-06-01 13:00:41,Greene Av & Myrtle Av,4784,Franklin Ave & Myrtle Ave,4715,40.698568,-73.918877,40.694546087246025,-73.95801365375519,casual
195774,A69796B032EE094C,docked_bike,2021-06-16 19:03:24,2021-06-16 19:09:50,Willoughby Ave & Hall St,4611,Franklin Ave & Myrtle Ave,4715,40.69196,-73.965368,40.694546087246025,-73.95801365375519,member
195776,F8DE436214E0CFC7,docked_bike,2021-06-05 23:24:54,2021-06-05 23:28:19,Willoughby Ave & Hall St,4611,Franklin Ave & Myrtle Ave,4715,40.69196,-73.965368,40.694546087246025,-73.95801365375519,member
195778,1B94293F299C6E26,docked_bike,2021-06-19 16:22:26,2021-06-19 16:49:26,Willoughby Ave & Hall St,4611,Franklin Ave & Myrtle Ave,4715,40.69196,-73.965368,40.694546087246025,-73.95801365375519,casual
195784,2FF59F0DDEA429DE,docked_bike,2021-06-13 14:50:09,2021-06-13 15:20:57,Irving Ave & Harman St,4856,Franklin Ave & Myrtle Ave,4715,40.70108,-73.9179,40.694546087246025,-73.95801365375519,casual
195790,629C98EC6D539AED,docked_bike,2021-06-06 16:46:14,2021-06-06 16:50:26,Willoughby Ave & Hall St,4611,Franklin Ave & Myrtle Ave,4715,40.69196,-73.965368,40.694546087246025,-73.95801365375519,member
195878,A3FD2EFF6A9E4A63,electric_bike,2021-06-01 12:35:48,2021-06-01 13:00:44,Greene Av & Myrtle Av,4784,Franklin Ave & Myrtle Ave,4715,40.698568,-73.918877,40.694546087246025,-73.95801365375519,casual
195895,2D7652E9903CE962,docked_bike,2021-06-07 04:32:54,2021-06-07 04:53:53,Suydam St & Knickerbocker Ave,4939,Franklin Ave & Myrtle Ave,4715,40.702013,-73.923769,40.694546087246025,-73.95801365375519,casual
197494,F2823D6A778492F1,docked_bike,2021-06-13 14:49:49,2021-06-13 15:19:50,Irving Ave & Harman St,4856,Franklin Ave & Myrtle Ave,4715,40.70108,-73.9179,40.694546087246025,-73.95801365375519,casual
197560,4E9C7554A99E093E,classic_bike,2021-06-29 14:49:21,2021-06-29 15:05:05,Myrtle Ave & Fleet Pl,4628,Franklin Ave & Myrtle Ave,4715,40.693534,-73.981909,40.694546087246025,-73.95801365375519,member
221714,4CDF80C9303E1F6C,electric_bike,2021-06-23 06:42:27,2021-06-23 06:47:27,Franklin Ave & Myrtle Ave,4715,Hancock St & Bedford Ave,4255,40.694546087246025,-73.95801365375519,40.68216564,-73.95399026,member
221719,039E407F5381783D,docked_bike,2021-06-18 17:32:51,2021-06-18 17:42:19,Franklin Ave & Myrtle Ave,4715,Hancock St & Bedford Ave,4255,40.694546,-73.958013,40.68216564,-73.95399026,member
278481,3D6AF83990B6E9B6,electric_bike,2021-06-08 13:55:59,2021-06-08 14:02:35,Franklin Ave & Myrtle Ave,4715,Willoughby Ave & Tompkins Ave,4665,40.694546,-73.958013,40.69425403,-73.94626915,casual
359328,0AEBFFDDDE3865F1,electric_bike,2021-06-08 12:52:03,2021-06-08 13:06:22,Franklin Ave & Myrtle Ave,4715,Powers St & Olive St,5210,40.694546,-73.958013,40.71323,-73.93894,casual
359394,636BACAE9E01B6D1,electric_bike,2021-06-06 16:52:52,2021-06-06 17:03:38,Franklin Ave & Myrtle Ave,4715,Marcus Garvey Blvd & Macon St,4278,40.694546,-73.958013,40.682601,-73.938037,member
359447,872A3AE3D9B57815,electric_bike,2021-06-01 17:37:39,2021-06-01 17:51:34,Franklin Ave & Myrtle Ave,4715,Union St & Nevins St,4143,40.694546,-73.958013,40.67909799721684,-73.98765474557877,member
359621,9E7A0180B66B2E8C,electric_bike,2021-06-17 17:31:02,2021-06-17 17:47:21,Franklin Ave & Myrtle Ave,4715,Union St & Nevins St,4143,40.694546,-73.958013,40.67909799721684,-73.98765474557877,member
360567,91808A3A28D4E35E,classic_bike,2021-06-28 13:18:33,2021-06-28 13:29:38,Franklin Ave & Myrtle Ave,4715,Marcus Garvey Blvd & Macon St,4278,40.694546087246025,-73.95801365375519,40.682601,-73.938037,member
370733,6AE9690BB9264F96,electric_bike,2021-06-02 08:06:24,2021-06-02 08:15:13,Franklin Ave & Myrtle Ave,4715,Willoughby St & Fleet St,4628,40.694546,-73.958013,40.69196566,-73.9813018,member
370736,8FA15C458FBA098F,classic_bike,2021-06-28 18:07:21,2021-06-28 18:26:15,Franklin Ave & Myrtle Ave,4715,Clinton St & Tillary St,4748,40.694546087246025,-73.95801365375519,40.69623297129316,-73.99142056703568,casual
370737,CE57BAC3455A2A09,classic_bike,2021-06-23 09:49:53,2021-06-23 10:01:52,Franklin Ave & Myrtle Ave,4715,Willoughby St & Fleet St,4628,40.694546087246025,-73.95801365375519,40.69196566,-73.9813018,casual
370745,68E652C294B2457C,classic_bike,2021-06-22 13:48:18,2021-06-22 13:59:47,Franklin Ave & Myrtle Ave,4715,Willoughby St & Fleet St,4628,40.694546087246025,-73.95801365375519,40.69196566,-73.9813018,member
370755,A2C374988280ED8B,docked_bike,2021-06-07 08:06:20,2021-06-07 08:16:19,Franklin Ave & Myrtle Ave,4715,Willoughby St & Fleet St,4628,40.694546,-73.958013,40.69196566,-73.9813018,member
370781,10FA6490381E81A4,electric_bike,2021-06-09 12:26:06,2021-06-09 12:33:15,Franklin Ave & Myrtle Ave,4715,Willoughby St & Fleet St,4628,40.694546,-73.958013,40.69196566,-73.9813018,casual
378245,4C8FF0EEA7F0ACEA,electric_bike,2021-06-14 08:08:42,2021-06-14 08:17:51,Franklin Ave & Myrtle Ave,4715,Willoughby St & Fleet St,4628,40.694546,-73.958013,40.69196566,-73.9813018,member
378247,C06A04075D02872F,electric_bike,2021-06-22 08:09:45,2021-06-22 08:18:43,Franklin Ave & Myrtle Ave,4715,Willoughby St & Fleet St,4628,40.694546087246025,-73.95801365375519,40.69196566,-73.9813018,member
378248,7F442A10A289436B,docked_bike,2021-06-04 12:06:25,2021-06-04 12:17:35,Franklin Ave & Myrtle Ave,4715,Willoughby St & Fleet St,4628,40.694546,-73.958013,40.69196566,-73.9813018,member
378258,171DD0668937514D,electric_bike,2021-06-04 08:11:36,2021-06-04 08:20:31,Franklin Ave & Myrtle Ave,4715,Willoughby St & Fleet St,4628,40.694546,-73.958013,40.69196566,-73.9813018,member
378280,5A38F84FC4F9C858,electric_bike,2021-06-03 08:12:37,2021-06-03 08:22:05,Franklin Ave & Myrtle Ave,4715,Willoughby St & Fleet St,4628,40.694546,-73.958013,40.69196566,-73.9813018,member
379988,8F51893935326BD5,docked_bike,2021-06-13 15:10:21,2021-06-13 15:17:20,Franklin Ave & Myrtle Ave,4715,Willoughby St & Fleet St,4628,40.694546,-73.958013,40.69196566,-73.9813018,member
383550,C6EC11016D2F40E0,docked_bike,2021-06-13 14:37:15,2021-06-13 14:47:16,Franklin Ave & Myrtle Ave,4715,Fulton St & Clermont Ave,4386,40.694546,-73.958013,40.68415748,-73.96922273,casual
383551,5BE092F55F2CAB26,docked_bike,2021-06-12 17:43:00,2021-06-12 18:04:59,Franklin Ave & Myrtle Ave,4715,Grand St & Havemeyer St,5267,40.694546,-73.958013,40.71286844,-73.95698119,casual
383552,300BAFA151CB3AC3,docked_bike,2021-06-15 09:29:15,2021-06-15 09:48:55,Franklin Ave & Myrtle Ave,4715,Grand St & Havemeyer St,5267,40.694546,-73.958013,40.71286844,-73.95698119,member
386662,BB865635C973B483,docked_bike,2021-06-19 16:21:37,2021-06-19 16:38:23,Franklin Ave & Myrtle Ave,4715,Grand St & Havemeyer St,5267,40.694546,-73.958013,40.71286844,-73.95698119,member
386837,3700E9B65153A309,docked_bike,2021-06-01 17:42:40,2021-06-01 18:03:28,Franklin Ave & Myrtle Ave,4715,Grand St & Havemeyer St,5267,40.694546,-73.958013,40.71286844,-73.95698119,casual
387382,7E8294DF079776AA,docked_bike,2021-06-12 17:42:19,2021-06-12 18:03:45,Franklin Ave & Myrtle Ave,4715,Grand St & Havemeyer St,5267,40.694546,-73.958014,40.712868,-73.956981,casual
387398,1E23DCE3FFC811C5,classic_bike,2021-06-25 14:08:26,2021-06-25 14:31:23,Franklin Ave & Myrtle Ave,4715,Frost St & Meeker Ave,5371,40.694546087246025,-73.95801365375519,40.71766197083994,-73.94880026578903,casual
388633,51B7825AA1F3570C,electric_bike,2021-06-25 16:59:12,2021-06-25 17:14:00,Franklin Ave & Myrtle Ave,4715,Grand St & Havemeyer St,5267,40.694546087246025,-73.95801365375519,40.71286844,-73.95698119,casual
389555,4DAD6EDF7FB6EE99,docked_bike,2021-06-12 17:49:37,2021-06-12 18:01:34,Franklin Ave & Myrtle Ave,4715,Grand St & Havemeyer St,5267,40.694546,-73.958013,40.71286844,-73.95698119,member
389557,CF572B1D5EAA7922,electric_bike,2021-06-05 13:43:30,2021-06-05 13:51:38,Franklin Ave & Myrtle Ave,4715,Fulton St & Clermont Ave,4386,40.694546,-73.958013,40.68415748,-73.96922273,member
396623,A9E13CC246F5DC6D,classic_bike,2021-06-26 17:49:10,2021-06-26 18:01:40,Franklin Ave & Myrtle Ave,4715,Cedar St & Myrtle Ave,4751,40.694546087246025,-73.95801365375519,40.697842,-73.926241,casual
396640,A21F3FD59A48EDF3,docked_bike,2021-06-16 17:42:10,2021-06-16 18:02:50,Franklin Ave & Myrtle Ave,4715,Sullivan Pl & Bedford Ave,3736,40.694546,-73.958013,40.6642406,-73.9574686,member
396645,1AE6ABBB7B5033E7,classic_bike,2021-06-27 01:34:31,2021-06-27 01:48:12,Franklin Ave & Myrtle Ave,4715,Cedar St & Myrtle Ave,4751,40.694546087246025,-73.95801365375519,40.697842,-73.926241,casual
396659,A54D6B6C22D102C8,docked_bike,2021-06-07 16:04:59,2021-06-07 16:12:33,Franklin Ave & Myrtle Ave,4715,Clermont Ave & Park Ave,4692,40.694546,-73.958013,40.69573398,-73.97129668,casual
401347,C6A08C5F789E8F58,docked_bike,2021-06-02 21:12:33,2021-06-02 21:23:29,Franklin Ave & Myrtle Ave,4715,State St & Smith St,4565,40.694546,-73.958013,40.68926942,-73.98912867,member
401352,7A8018E78DA7BB4A,docked_bike,2021-06-09 14:39:26,2021-06-09 14:51:35,Franklin Ave & Myrtle Ave,4715,Clermont Ave & Park Ave,4692,40.694546,-73.958013,40.69573398,-73.97129668,member
401353,8487530F30E28504,docked_bike,2021-06-06 22:02:22,2021-06-06 22:11:07,Franklin Ave & Myrtle Ave,4715,Clermont Ave & Park Ave,4692,40.694546,-73.958013,40.69573398,-73.97129668,member
401356,3ADCC5D2CB72D803,electric_bike,2021-06-29 18:11:27,2021-06-29 18:26:31,Franklin Ave & Myrtle Ave,4715,Sullivan Pl & Bedford Ave,3736,40.694546087246025,-73.95801365375519,40.6642406,-73.9574686,member
401364,2DA1897FCF72C3B4,electric_bike,2021-06-07 15:56:01,2021-06-07 16:34:20,Franklin Ave & Myrtle Ave,4715,State St & Smith St,4565,40.694546,-73.958013,40.68926942,-73.98912867,member
401574,F53A7B173D5C8E69,docked_bike,2021-06-02 19:11:05,2021-06-02 19:28:12,Franklin Ave & Myrtle Ave,4715,Cedar St & Myrtle Ave,4751,40.694546,-73.958013,40.697842,-73.926241,casual
401607,1FABBCF2BD86B96A,electric_bike,2021-06-28 13:03:41,2021-06-28 13:12:41,Franklin Ave & Myrtle Ave,4715,Underhill Ave & Lincoln Pl,4042,40.694546087246025,-73.95801365375519,40.6740123,-73.9671457,casual
401638,DF926C0652156A7B,electric_bike,2021-06-18 07:48:06,2021-06-18 08:01:59,Franklin Ave & Myrtle Ave,4715,Sullivan Pl & Bedford Ave,3736,40.694546087246025,-73.95801365375519,40.6642406,-73.9574686,member
403459,D030D62537471586,electric_bike,2021-06-22 14:27:33,2021-06-22 14:37:00,Franklin Ave & Myrtle Ave,4715,Underhill Ave & Lincoln Pl,4042,40.694546087246025,-73.95801365375519,40.6740123,-73.9671457,casual
410782,AC5102D3A9AF26FE,classic_bike,2021-06-22 11:53:36,2021-06-22 12:08:01,Franklin Ave & Myrtle Ave,4715,Putnam Ave & Throop Ave,4392,40.694546087246025,-73.95801365375519,40.6851532,-73.94111,casual
410783,5BEA91BFEBDF9CC7,docked_bike,2021-06-02 17:49:34,2021-06-02 18:18:19,Franklin Ave & Myrtle Ave,4715,Moffat St & Bushwick,4357,40.694546,-73.958013,40.68458,-73.90925,casual
410798,EFD96EE6334BFF26,docked_bike,2021-06-02 20:59:59,2021-06-02 21:09:33,Franklin Ave & Myrtle Ave,4715,Putnam Ave & Throop Ave,4392,40.694546,-73.958013,40.6851532,-73.94111,member
410807,995933539749A00F,docked_bike,2021-06-06 00:51:25,2021-06-06 01:01:01,Franklin Ave & Myrtle Ave,4715,Putnam Ave & Throop Ave,4392,40.694546,-73.958013,40.6851532,-73.94111,member
412639,83B5A30C2CDDAF31,electric_bike,2021-06-24 22:48:46,2021-06-24 23:01:21,Franklin Ave & Myrtle Ave,4715,Putnam Ave & Throop Ave,4392,40.694546087246025,-73.95801365375519,40.6851532,-73.94111,member
413815,DBE5A3A052345CCE,docked_bike,2021-06-15 02:00:35,2021-06-15 02:16:20,Franklin Ave & Myrtle Ave,4715,Putnam Ave & Throop Ave,4392,40.694546,-73.958013,40.6851532,-73.94111,casual
414791,9A30B12EBC229D9E,docked_bike,2021-06-02 17:49:00,2021-06-02 18:18:23,Franklin Ave & Myrtle Ave,4715,Moffat St & Bushwick,4357,40.694546,-73.958013,40.68458,-73.90925,member
418614,6137375846D15641,docked_bike,2021-06-10 18:12:18,2021-06-10 18:28:10,Franklin Ave & Myrtle Ave,4715,Driggs Ave & N 9 St,5411,40.694546,-73.958013,40.71816969454208,-73.95520135760307,member
419273,1DA47EB3C3DC7C0D,electric_bike,2021-06-17 11:20:10,2021-06-17 11:49:57,Franklin Ave & Myrtle Ave,4715,Fulton St & Broadway,5175,40.694546,-73.958013,40.711066,-74.009447,casual
426565,5D5D01D2CE5612EA,classic_bike,2021-06-23 18:31:52,2021-06-23 18:41:18,Franklin Ave & Myrtle Ave,4715,Fulton St & Waverly Ave,4345,40.694546087246025,-73.95801365375519,40.68323865460341,-73.96599590778351,member
427609,99F1BA50056BF766,docked_bike,2021-06-19 14:22:26,2021-06-19 14:33:33,Franklin Ave & Myrtle Ave,4715,Fulton St & Waverly Ave,4345,40.694546,-73.958013,40.68323865460341,-73.96599590778351,member
427610,5566E8B9B4C3AD84,docked_bike,2021-06-14 18:54:18,2021-06-14 19:03:47,Franklin Ave & Myrtle Ave,4715,Fulton St & Waverly Ave,4345,40.694546,-73.958013,40.68323865460341,-73.96599590778351,member
427622,E8BE2D56C5F76BC1,docked_bike,2021-06-01 00:52:13,2021-06-01 01:00:59,Franklin Ave & Myrtle Ave,4715,Fulton St & Waverly Ave,4345,40.694546,-73.958013,40.68323865460341,-73.96599590778351,casual
428325,9849E66922FCB4BF,electric_bike,2021-06-30 09:25:18,2021-06-30 09:35:23,Franklin Ave & Myrtle Ave,4715,Fulton St & Waverly Ave,4345,40.694546087246025,-73.95801365375519,40.68323865460341,-73.96599590778351,casual
428727,86BA00275155191F,electric_bike,2021-06-01 00:48:29,2021-06-01 01:00:16,Franklin Ave & Myrtle Ave,4715,Fulton St & Waverly Ave,4345,40.694546,-73.958013,40.68323865460341,-73.96599590778351,member
432166,0C364CFFEEE9CD57,docked_bike,2021-06-02 11:03:50,2021-06-02 11:17:54,Franklin Ave & Myrtle Ave,4715,Driggs Ave & N 9 St,5411,40.694546,-73.958013,40.71816969454208,-73.95520135760307,member
432778,9434892A5A2FEA57,docked_bike,2021-06-12 15:32:50,2021-06-12 15:41:08,Franklin Ave & Myrtle Ave,4715,Fulton St & Waverly Ave,4345,40.694546,-73.958013,40.68323865460341,-73.96599590778351,casual
432960,28C0A289CF496D91,docked_bike,2021-06-06 14:40:37,2021-06-06 14:50:17,Franklin Ave & Myrtle Ave,4715,Devoe St & Lorimer St,5259,40.694546,-73.958013,40.71335226222875,-73.9491033554077,member
441257,597553B1AFF652BF,electric_bike,2021-06-07 12:27:22,2021-06-07 12:37:20,Franklin Ave & Myrtle Ave,4715,Nassau St\t& Duffield St,4781,40.694546,-73.958013,40.698477,-73.98384,casual
441288,6A54B6FF6C12A656,docked_bike,2021-06-19 16:58:07,2021-06-19 17:15:38,Franklin Ave & Myrtle Ave,4715,Nassau St\t& Duffield St,4781,40.694546,-73.958013,40.698477,-73.98384,member
441698,A56836BFB99698FB,electric_bike,2021-06-25 20:52:11,2021-06-25 21:15:03,Franklin Ave & Myrtle Ave,4715,Caton Ave & E 7 St,3199,40.694546087246025,-73.95801365375519,40.647718,-73.973663,member
442524,99A34B365F4A81A8,docked_bike,2021-06-19 16:58:00,2021-06-19 17:16:12,Franklin Ave & Myrtle Ave,4715,Nassau St\t& Duffield St,4781,40.694546,-73.958013,40.698477,-73.98384,casual
449303,6AEFCB2F47A787B5,electric_bike,2021-06-29 10:41:44,2021-06-29 10:45:05,Franklin Ave & Myrtle Ave,4715,Myrtle Ave & Marcy Ave,4707,40.694546087246025,-73.95801365375519,40.69539817,-73.94954908,member
449315,A4B687A5BBC82E63,classic_bike,2021-06-22 10:39:21,2021-06-22 10:43:40,Franklin Ave & Myrtle Ave,4715,Myrtle Ave & Marcy Ave,4707,40.694546087246025,-73.95801365375519,40.69539817,-73.94954908,member
450793,D4FF3290C0F55B88,docked_bike,2021-06-01 19:11:36,2021-06-01 19:14:07,Franklin Ave & Myrtle Ave,4715,Myrtle Ave & Marcy Ave,4707,40.694546,-73.958013,40.69539817,-73.94954908,member
455335,F3B913CE397C8897,docked_bike,2021-06-13 00:30:03,2021-06-13 00:33:19,Franklin Ave & Myrtle Ave,4715,Myrtle Ave & Marcy Ave,4707,40.694546,-73.958013,40.69539817,-73.94954908,casual
456014,DB0CCADAD2E76DCB,electric_bike,2021-06-05 09:32:12,2021-06-05 09:35:23,Franklin Ave & Myrtle Ave,4715,Myrtle Ave & Marcy Ave,4707,40.694546,-73.958013,40.69539817,-73.94954908,member
461927,544456824BBAED8B,electric_bike,2021-06-01 17:19:20,2021-06-01 17:33:41,Franklin Ave & Myrtle Ave,4715,Cadman Plaza E & Tillary St,4677,40.694546,-73.958013,40.69597683,-73.99014892,casual
461944,1B5068EC83005711,docked_bike,2021-06-03 17:20:23,2021-06-03 17:25:18,Franklin Ave & Myrtle Ave,4715,Myrtle Ave & Marcy Ave,4707,40.694546,-73.958013,40.69539817,-73.94954908,member
461950,BE2E49CD7BDEC380,electric_bike,2021-06-15 11:24:58,2021-06-15 11:47:46,Franklin Ave & Myrtle Ave,4715,Myrtle Ave & Marcy Ave,4707,40.694546,-73.958013,40.69539817,-73.94954908,member
461967,1A1B3D5C76708D6F,electric_bike,2021-06-25 02:33:01,2021-06-25 02:36:54,Franklin Ave & Myrtle Ave,4715,Myrtle Ave & Marcy Ave,4707,40.694546087246025,-73.95801365375519,40.69539817,-73.94954908,member
462654,134DDA70C9DA6152,electric_bike,2021-06-21 06:22:21,2021-06-21 06:25:05,Franklin Ave & Myrtle Ave,4715,Myrtle Ave & Marcy Ave,4707,40.694546,-73.958013,40.69539817,-73.94954908,member
464922,1672FFFCC1F11DBD,classic_bike,2021-06-24 19:38:01,2021-06-24 19:41:44,Franklin Ave & Myrtle Ave,4715,Myrtle Ave & Marcy Ave,4707,40.694546087246025,-73.95801365375519,40.69539817,-73.94954908,member
464930,20E02AD9CB343C0D,electric_bike,2021-06-11 12:27:56,2021-06-11 12:34:14,Franklin Ave & Myrtle Ave,4715,Myrtle Ave & Marcy Ave,4707,40.694546,-73.958013,40.69539817,-73.94954908,casual
464931,70F30C52CA853CEE,classic_bike,2021-06-29 17:43:05,2021-06-29 17:47:40,Franklin Ave & Myrtle Ave,4715,Myrtle Ave & Marcy Ave,4707,40.694546087246025,-73.95801365375519,40.69539817,-73.94954908,member
466688,52560E7E15F396AA,electric_bike,2021-06-28 13:03:48,2021-06-28 13:25:03,Franklin Ave & Myrtle Ave,4715,Myrtle Ave & Marcy Ave,4707,40.694546087246025,-73.95801365375519,40.69539817,-73.94954908,casual
467430,87C44122AFC21449,electric_bike,2021-06-10 05:45:05,2021-06-10 06:14:22,Franklin Ave & Myrtle Ave,4715,W 37 St & 5 Ave,6398,40.694546,-73.958013,40.75038009,-73.98338988,member
482049,5BD8CB934D9B88C9,electric_bike,2021-06-03 05:41:37,2021-06-03 06:11:14,Franklin Ave & Myrtle Ave,4715,W 37 St & 5 Ave,6398,40.694546,-73.958013,40.75038009,-73.98338988,member
483395,F2E814E51907DBA9,electric_bike,2021-06-02 05:49:34,2021-06-02 06:18:43,Franklin Ave & Myrtle Ave,4715,W 37 St & 5 Ave,6398,40.694546,-73.958013,40.75038009,-73.98338988,member
487864,F3574D229619B900,electric_bike,2021-06-16 19:10:58,2021-06-16 19:34:45,Franklin Ave & Myrtle Ave,4715,Grand St & Elizabeth St,5382,40.694546,-73.958013,40.718822,-73.99596,member
500695,4CAAC2903A66CAF7,classic_bike,2021-06-26 23:13:12,2021-06-26 23:20:31,Franklin Ave & Myrtle Ave,4715,Washington Ave & Greene Ave,4419,40.694546087246025,-73.95801365375519,40.68650065,-73.96563307,casual
504719,9B610D6BFE9E3231,docked_bike,2021-06-09 14:13:03,2021-06-09 14:28:22,Franklin Ave & Myrtle Ave,4715,1 St & 6 Ave,3946,40.694546,-73.958013,40.672784,-73.979826,member
504797,E15BE0C7C5228A1D,electric_bike,2021-06-24 22:48:43,2021-06-24 22:55:41,Franklin Ave & Myrtle Ave,4715,Washington Ave & Greene Ave,4419,40.694546087246025,-73.95801365375519,40.68650065,-73.96563307,member
504799,442E56E1C765407B,classic_bike,2021-06-22 10:49:18,2021-06-22 10:57:42,Franklin Ave & Myrtle Ave,4715,Washington Ave & Greene Ave,4419,40.694546087246025,-73.95801365375519,40.68650065,-73.96563307,casual
504815,D8ADB378789AEAD2,electric_bike,2021-06-23 17:47:47,2021-06-23 18:01:31,Franklin Ave & Myrtle Ave,4715,Boerum Pl\t& Pacific St,4488,40.694546087246025,-73.95801365375519,40.68848905639242,-73.99116039276123,member
504945,C1160FB1C2CDD40D,docked_bike,2021-06-19 10:07:40,2021-06-19 10:26:01,Franklin Ave & Myrtle Ave,4715,Boerum Pl\t& Pacific St,4488,40.694546,-73.958013,40.68848905639242,-73.99116039276123,member
505345,3A4157709386792D,electric_bike,2021-06-11 12:55:24,2021-06-11 13:11:44,Franklin Ave & Myrtle Ave,4715,Boerum Pl\t& Pacific St,4488,40.694546,-73.958013,40.68848905639242,-73.99116039276123,casual
512754,E9F90F592AD41E6F,electric_bike,2021-06-16 07:26:32,2021-06-16 07:55:53,Franklin Ave & Myrtle Ave,4715,Vernon Blvd & 47 Rd,6212,40.694546,-73.958013,40.7449067,-73.9534573,member
519959,77832A5D1B48E62F,electric_bike,2021-06-13 14:53:55,2021-06-13 15:04:53,Franklin Ave & Myrtle Ave,4715,Park Pl & Franklin Ave,4033,40.694546,-73.958013,40.6741806,-73.9564947,casual
521648,19F9AD272489B097,docked_bike,2021-06-10 18:12:59,2021-06-10 18:23:20,Franklin Ave & Myrtle Ave,4715,Park Pl & Franklin Ave,4033,40.694546,-73.958013,40.6741806,-73.9564947,casual
521650,75E5BA55FDCB01F9,classic_bike,2021-06-21 20:12:14,2021-06-21 20:28:17,Franklin Ave & Myrtle Ave,4715,Park Pl & Franklin Ave,4033,40.694546087246025,-73.95801365375519,40.6741806,-73.9564947,casual
525535,9B5F4DFC26C4CB63,docked_bike,2021-06-04 21:41:57,2021-06-04 21:55:03,Franklin Ave & Myrtle Ave,4715,Park Pl & Franklin Ave,4033,40.694546,-73.958013,40.6741806,-73.9564947,member
525725,43608667201D4AAA,docked_bike,2021-06-01 18:55:59,2021-06-01 19:15:59,Franklin Ave & Myrtle Ave,4715,Park Pl & Franklin Ave,4033,40.694546,-73.958013,40.6741806,-73.9564947,casual
527742,41F4B0932C1E6CE1,electric_bike,2021-06-21 13:45:52,2021-06-21 13:56:36,Franklin Ave & Myrtle Ave,4715,Park Pl & Franklin Ave,4033,40.694546087246025,-73.95801365375519,40.6741806,-73.9564947,casual
527746,2A94A9ACD9284233,classic_bike,2021-06-21 20:10:43,2021-06-21 20:30:32,Franklin Ave & Myrtle Ave,4715,Park Pl & Franklin Ave,4033,40.694546087246025,-73.95801365375519,40.6741806,-73.9564947,casual
527755,5E35FC40A249E897,electric_bike,2021-06-13 12:01:29,2021-06-13 12:10:29,Franklin Ave & Myrtle Ave,4715,Park Pl & Franklin Ave,4033,40.694546,-73.958013,40.6741806,-73.9564947,member
527761,9F18435FA73CE26F,docked_bike,2021-06-04 21:42:11,2021-06-04 21:54:54,Franklin Ave & Myrtle Ave,4715,Park Pl & Franklin Ave,4033,40.694546,-73.958013,40.6741806,-73.9564947,member
527763,46E98708A34BAAC0,electric_bike,2021-06-12 18:20:43,2021-06-12 18:28:02,Franklin Ave & Myrtle Ave,4715,Park Pl & Franklin Ave,4033,40.694546,-73.958013,40.6741806,-73.9564947,casual
527765,E97A7ED8A992C054,electric_bike,2021-06-06 22:27:17,2021-06-06 22:36:20,Franklin Ave & Myrtle Ave,4715,Park Pl & Franklin Ave,4033,40.694546,-73.958013,40.6741806,-73.9564947,member
540346,181CFBBEDF84314E,electric_bike,2021-06-02 00:23:35,2021-06-02 01:18:01,Franklin Ave & Myrtle Ave,4715,25 Ave & 41 St,6943,40.694546,-73.958013,40.767666,-73.910963,member
540394,1F5AFED91E8F9FFD,docked_bike,2021-06-11 05:54:52,2021-06-11 05:58:56,Franklin Ave & Myrtle Ave,4715,Washington Ave & Park Ave,4724,40.694546,-73.958013,40.69610226,-73.96751037,member
540396,5862BEA6D91BD56C,docked_bike,2021-06-04 09:19:43,2021-06-04 09:25:09,Franklin Ave & Myrtle Ave,4715,Washington Ave & Park Ave,4724,40.694546,-73.958013,40.69610226,-73.96751037,member
540432,27586CEFE08E4882,docked_bike,2021-06-03 14:54:36,2021-06-03 15:03:14,Franklin Ave & Myrtle Ave,4715,Carlton Ave & Park Ave,4732,40.694546,-73.958013,40.69580705,-73.97355569,member
541674,EFAF8E8586015D2F,classic_bike,2021-06-25 18:29:17,2021-06-25 18:34:56,Franklin Ave & Myrtle Ave,4715,Washington Ave & Park Ave,4724,40.694546087246025,-73.95801365375519,40.69610226,-73.96751037,member
543298,3E09CB22B9D48EF8,electric_bike,2021-06-04 05:56:23,2021-06-04 06:00:53,Franklin Ave & Myrtle Ave,4715,Washington Ave & Park Ave,4724,40.694546,-73.958013,40.69610226,-73.96751037,member
544392,95950B3B8B19A770,electric_bike,2021-06-01 11:52:53,2021-06-01 11:58:39,Franklin Ave & Myrtle Ave,4715,Washington Ave & Park Ave,4724,40.694546,-73.958013,40.69610226,-73.96751037,member
544394,D89C780BF8C29608,docked_bike,2021-06-18 09:36:27,2021-06-18 09:40:44,Franklin Ave & Myrtle Ave,4715,Washington Ave & Park Ave,4724,40.694546,-73.958013,40.69610226,-73.96751037,member
544406,2664779800BC01BD,docked_bike,2021-06-07 09:11:43,2021-06-07 09:16:43,Franklin Ave & Myrtle Ave,4715,Washington Ave & Park Ave,4724,40.694546,-73.958013,40.69610226,-73.96751037,member
544422,140C05758681F81A,classic_bike,2021-06-29 15:58:50,2021-06-29 16:04:27,Franklin Ave & Myrtle Ave,4715,Washington Ave & Park Ave,4724,40.694546087246025,-73.95801365375519,40.69610226,-73.96751037,casual
557619,984996E1CB61FFB5,docked_bike,2021-06-10 13:26:15,2021-06-10 13:31:43,Franklin Ave & Myrtle Ave,4715,Willoughby Ave & Hall St,4611,40.694546,-73.958013,40.69196035,-73.96536851,member
557636,D7A8F13A6D1551E5,docked_bike,2021-06-17 13:18:32,2021-06-17 13:23:16,Franklin Ave & Myrtle Ave,4715,Willoughby Ave & Hall St,4611,40.694546,-73.958013,40.69196035,-73.96536851,member
557642,15BDFA55994B3957,classic_bike,2021-06-22 20:21:01,2021-06-22 20:58:55,Franklin Ave & Myrtle Ave,4715,Henry St & Atlantic Ave,4531,40.694546087246025,-73.95801365375519,40.69089272,-73.99612349,member
557665,F6ED380CA41D9300,classic_bike,2021-06-29 13:15:53,2021-06-29 13:20:43,Franklin Ave & Myrtle Ave,4715,Willoughby Ave & Hall St,4611,40.694546087246025,-73.95801365375519,40.69196035,-73.96536851,member
557667,F1CB851EEACC5EB6,docked_bike,2021-06-02 11:35:53,2021-06-02 11:41:05,Franklin Ave & Myrtle Ave,4715,Willoughby Ave & Hall St,4611,40.694546,-73.958013,40.69196035,-73.96536851,member
557716,EC3FDDCA572BFCF4,docked_bike,2021-06-03 12:45:50,2021-06-03 12:50:15,Franklin Ave & Myrtle Ave,4715,Willoughby Ave & Hall St,4611,40.694546,-73.958013,40.69196035,-73.96536851,member
558239,240756CE11989F7C,electric_bike,2021-06-16 19:09:53,2021-06-16 19:35:05,Franklin Ave & Myrtle Ave,4715,Rockaway Ave & Bainbridge St,4285,40.694546,-73.958013,40.68319988172761,-73.91166642308235,casual
558247,B99FB472DFEB83F3,electric_bike,2021-06-15 23:20:44,2021-06-15 23:26:41,Franklin Ave & Myrtle Ave,4715,Willoughby Ave & Hall St,4611,40.694546,-73.958013,40.69196035,-73.96536851,casual
562629,52CEDB16B66C5E78,docked_bike,2021-06-15 14:24:36,2021-06-15 14:29:11,Franklin Ave & Myrtle Ave,4715,Willoughby Ave & Hall St,4611,40.694546,-73.958013,40.69196035,-73.96536851,member
562634,853636FEAA662A1E,docked_bike,2021-06-16 18:41:00,2021-06-16 18:43:56,Franklin Ave & Myrtle Ave,4715,Willoughby Ave & Hall St,4611,40.694546,-73.958013,40.69196035,-73.96536851,member
562657,CBD54F572DF92E98,electric_bike,2021-06-20 01:58:29,2021-06-20 02:09:51,Franklin Ave & Myrtle Ave,4715,Van Buren St & Broadway,4568,40.694546,-73.958013,40.692,-73.92617,casual
562660,DBB72F5B51F3650F,electric_bike,2021-06-15 21:01:52,2021-06-15 21:30:48,Franklin Ave & Myrtle Ave,4715,Willoughby Ave & Hall St,4611,40.694546,-73.958013,40.69196035,-73.96536851,member
562670,077162CB1F3DB0CD,docked_bike,2021-06-16 22:33:14,2021-06-16 22:48:24,Franklin Ave & Myrtle Ave,4715,Willoughby Ave & Hall St,4611,40.694546,-73.958013,40.69196035,-73.96536851,casual
562671,53198FA4D1640DDD,classic_bike,2021-06-26 23:54:10,2021-06-26 23:57:57,Franklin Ave & Myrtle Ave,4715,Willoughby Ave & Hall St,4611,40.694546087246025,-73.95801365375519,40.69196035,-73.96536851,casual
562678,7287A2F2565D629A,electric_bike,2021-06-27 02:11:57,2021-06-27 02:19:05,Franklin Ave & Myrtle Ave,4715,Willoughby Ave & Hall St,4611,40.694546087246025,-73.95801365375519,40.69196035,-73.96536851,casual
562692,3A633F0AA83D6619,electric_bike,2021-06-07 13:27:02,2021-06-07 14:10:06,Franklin Ave & Myrtle Ave,4715,Willoughby Ave & Hall St,4611,40.694546,-73.958013,40.69196035,-73.96536851,casual
563763,856E3A8F0806833F,classic_bike,2021-06-22 13:20:37,2021-06-22 13:26:03,Franklin Ave & Myrtle Ave,4715,Willoughby Ave & Hall St,4611,40.694546087246025,-73.95801365375519,40.69196035,-73.96536851,member
564023,75B59CDD5FA4DF7E,docked_bike,2021-06-08 15:04:35,2021-06-08 15:09:37,Franklin Ave & Myrtle Ave,4715,Willoughby Ave & Hall St,4611,40.694546,-73.958013,40.69196035,-73.96536851,member
564024,DC452D71D7CB358B,docked_bike,2021-06-01 13:28:22,2021-06-01 13:33:03,Franklin Ave & Myrtle Ave,4715,Willoughby Ave & Hall St,4611,40.694546,-73.958013,40.69196035,-73.96536851,member
613066,F68D84406B45A9D4,docked_bike,2021-06-11 08:58:09,2021-06-11 09:02:40,Franklin Ave & Myrtle Ave,4715,Willoughby Ave & Tompkins Ave,4665,40.694546,-73.958013,40.69425403,-73.94626915,member
618546,87DB30A1753716C4,classic_bike,2021-06-23 09:09:25,2021-06-23 09:14:13,Franklin Ave & Myrtle Ave,4715,Willoughby Ave & Tompkins Ave,4665,40.694546087246025,-73.95801365375519,40.69425403,-73.94626915,member
618557,9F6E9A34129C6378,electric_bike,2021-06-21 11:13:59,2021-06-21 11:43:24,Franklin Ave & Myrtle Ave,4715,Spring St & Hudson St,5653,40.694546,-73.958013,40.72583996792375,-74.0076532959938,member
618561,90087C289EBC5CA0,electric_bike,2021-06-19 17:50:04,2021-06-19 18:00:25,Franklin Ave & Myrtle Ave,4715,George St & Wilson Ave,4906,40.694546087246025,-73.95801365375519,40.702997,-73.92997,member
618575,458DB46436DB25B0,classic_bike,2021-06-26 10:22:08,2021-06-26 10:30:31,Franklin Ave & Myrtle Ave,4715,Willoughby Ave & Tompkins Ave,4665,40.694546087246025,-73.95801365375519,40.69425403,-73.94626915,casual
618587,0277EA302D00E3D9,electric_bike,2021-06-08 13:54:38,2021-06-08 14:00:35,Franklin Ave & Myrtle Ave,4715,Willoughby Ave & Tompkins Ave,4665,40.694546,-73.958013,40.69425403,-73.94626915,member
618594,60071FB8F71E5241,docked_bike,2021-06-17 15:23:48,2021-06-17 15:29:41,Franklin Ave & Myrtle Ave,4715,Willoughby Ave & Tompkins Ave,4665,40.694546,-73.958013,40.69425403,-73.94626915,member
619805,0FF78C5F26CBBE2A,docked_bike,2021-06-16 09:00:48,2021-06-16 09:05:44,Franklin Ave & Myrtle Ave,4715,Willoughby Ave & Tompkins Ave,4665,40.694546,-73.958013,40.69425403,-73.94626915,member
623550,1E2D8A2DB7629FD4,classic_bike,2021-06-24 19:22:40,2021-06-24 19:32:58,Franklin Ave & Myrtle Ave,4715,Willoughby Ave & Tompkins Ave,4665,40.694546087246025,-73.95801365375519,40.69425403,-73.94626915,casual
625754,FB4B41EE2F4BA862,docked_bike,2021-06-15 21:41:32,2021-06-15 21:47:30,Franklin Ave & Myrtle Ave,4715,Willoughby Ave & Tompkins Ave,4665,40.694546,-73.958013,40.69425403,-73.94626915,member
625765,5A2F18E597F17E05,electric_bike,2021-06-22 15:56:31,2021-06-22 16:07:37,Franklin Ave & Myrtle Ave,4715,Central Ave & Flushing Ave,4947,40.694546087246025,-73.95801365375519,40.702831,-73.9333,member
625767,34547325AA8F6272,classic_bike,2021-06-21 09:00:18,2021-06-21 09:04:26,Franklin Ave & Myrtle Ave,4715,Willoughby Ave & Tompkins Ave,4665,40.694546087246025,-73.95801365375519,40.69425403,-73.94626915,member
641298,CAA305217DB98E35,electric_bike,2021-06-02 18:26:57,2021-06-02 18:52:48,Franklin Ave & Myrtle Ave,4715,Albany Ave & Fulton St,4237,40.694546,-73.958013,40.6800105,-73.938475,casual
641344,79389C4FA6840BEF,docked_bike,2021-06-12 09:30:54,2021-06-12 09:41:03,Franklin Ave & Myrtle Ave,4715,Albany Ave & Fulton St,4237,40.694546,-73.958013,40.6800105,-73.938475,member
641387,493EE6AD626AB617,classic_bike,2021-06-26 19:57:23,2021-06-26 20:09:51,Franklin Ave & Myrtle Ave,4715,Albany Ave & Fulton St,4237,40.694546087246025,-73.95801365375519,40.6800105,-73.938475,member
641639,03F43131DD8DC333,docked_bike,2021-06-20 09:50:35,2021-06-20 10:02:00,Franklin Ave & Myrtle Ave,4715,Albany Ave & Fulton St,4237,40.694546,-73.958013,40.6800105,-73.938475,member
646160,34929BC29470E264,docked_bike,2021-06-06 20:04:13,2021-06-06 20:27:52,Franklin Ave & Myrtle Ave,4715,Myrtle Ave & Grove St,4816,40.694546,-73.958013,40.69905,-73.91516,casual
672338,F7895ACD8D4B1E51,electric_bike,2021-06-21 16:08:08,2021-06-21 16:18:34,Franklin Ave & Myrtle Ave,4715,Graham Ave & Grand St,5178,40.694546087246025,-73.95801365375519,40.711863,-73.944024,member
672442,843BCD8FB888812D,electric_bike,2021-06-18 13:50:38,2021-06-18 14:01:55,Franklin Ave & Myrtle Ave,4715,Graham Ave & Grand St,5178,40.694546087246025,-73.95801365375519,40.711863,-73.944024,member
672444,FF4BE1136FC0A634,electric_bike,2021-06-25 11:27:49,2021-06-25 11:37:21,Franklin Ave & Myrtle Ave,4715,Graham Ave & Grand St,5178,40.694546087246025,-73.95801365375519,40.711863,-73.944024,member
672620,920DEB7F33ECAE55,docked_bike,2021-06-11 11:38:02,2021-06-11 11:51:09,Franklin Ave & Myrtle Ave,4715,McKibbin St & Bogart St,5059,40.694546,-73.958013,40.706237,-73.933871,casual
673540,143C671F2738BD69,classic_bike,2021-06-30 07:54:13,2021-06-30 08:07:39,Franklin Ave & Myrtle Ave,4715,Graham Ave & Grand St,5178,40.694546087246025,-73.95801365375519,40.711863,-73.944024,member
688702,12638BDD101F1AE6,docked_bike,2021-06-14 15:50:13,2021-06-14 16:07:00,Franklin Ave & Myrtle Ave,4715,Graham Ave & Grand St,5178,40.694546,-73.958013,40.711863,-73.944024,casual
690718,0E1435767314DC93,classic_bike,2021-06-25 16:22:35,2021-06-25 16:34:27,Franklin Ave & Myrtle Ave,4715,Graham Ave & Grand St,5178,40.694546087246025,-73.95801365375519,40.711863,-73.944024,member
692499,540B2BA17810EAAC,electric_bike,2021-06-05 01:16:16,2021-06-05 01:30:46,Franklin Ave & Myrtle Ave,4715,Bialystoker Pl & Delancey St,5335,40.694546,-73.958013,40.71622644,-73.98261206,member
692543,8AD774B78763A725,electric_bike,2021-06-08 13:02:57,2021-06-08 13:15:45,Franklin Ave & Myrtle Ave,4715,Graham Ave & Grand St,5178,40.694546,-73.958013,40.711863,-73.944024,member
692839,B0F6CB5C4BFF7225,docked_bike,2021-06-05 18:56:36,2021-06-05 19:15:56,Franklin Ave & Myrtle Ave,4715,McKibbin St & Bogart St,5059,40.694546,-73.958013,40.706237,-73.933871,member
692870,4708EE8D4FAE29F5,docked_bike,2021-06-19 18:00:31,2021-06-19 18:24:20,Franklin Ave & Myrtle Ave,4715,McKibbin St & Bogart St,5059,40.694546,-73.958013,40.706237,-73.933871,member
693366,BD4D500D9C008C7A,electric_bike,2021-06-08 06:41:01,2021-06-08 06:58:14,Franklin Ave & Myrtle Ave,4715,Rivington St & Chrystie St,5453,40.694546,-73.958013,40.72110063,-73.9919254,member
701952,5424E2E408EE15C3,classic_bike,2021-06-29 14:08:19,2021-06-29 14:18:27,Franklin Ave & Myrtle Ave,4715,Lafayette Ave & Fort Greene Pl,4395,40.694546087246025,-73.95801365375519,40.68691865,-73.976682,member
713553,D85306A1694B265F,electric_bike,2021-06-07 23:38:34,2021-06-07 23:45:31,Franklin Ave & Myrtle Ave,4715,Beaver St & Fayette St,4840,40.694546,-73.958013,40.70099,-73.93921,casual
713571,82DF9F473FF5ACFF,electric_bike,2021-06-18 07:51:42,2021-06-18 08:12:41,Franklin Ave & Myrtle Ave,4715,6 Ave & 9 St,3803,40.694546,-73.958013,40.668127,-73.98377641,casual
713587,733F1A87A757F3C4,electric_bike,2021-06-30 12:17:53,2021-06-30 12:29:04,Franklin Ave & Myrtle Ave,4715,Beaver St & Fayette St,4840,40.694546087246025,-73.95801365375519,40.70099,-73.93921,casual
713602,07B5E33062E95926,docked_bike,2021-06-08 07:14:55,2021-06-08 07:26:01,Franklin Ave & Myrtle Ave,4715,Beaver St & Fayette St,4840,40.694546,-73.958013,40.70099,-73.93921,member
713607,B43935D2D72C8F59,classic_bike,2021-06-28 10:40:03,2021-06-28 10:49:44,Franklin Ave & Myrtle Ave,4715,Lafayette Ave & Fort Greene Pl,4395,40.694546087246025,-73.95801365375519,40.68691865,-73.976682,member
713609,4FBD3ABED6323DED,electric_bike,2021-06-07 19:04:37,2021-06-07 19:29:47,Franklin Ave & Myrtle Ave,4715,Lafayette Ave & Fort Greene Pl,4395,40.694546,-73.958013,40.68691865,-73.976682,casual
713648,D410B3C76A512CFA,electric_bike,2021-06-12 17:27:43,2021-06-12 17:43:13,Franklin Ave & Myrtle Ave,4715,Lafayette Ave & Fort Greene Pl,4395,40.694546,-73.958013,40.68691865,-73.976682,casual
713807,250BD4B52EA7501B,electric_bike,2021-06-19 09:18:06,2021-06-19 09:45:38,Franklin Ave & Myrtle Ave,4715,W 20 St & 8 Ave,6224,40.694546087246025,-73.95801365375519,40.74345335,-74.00004031,member
715654,AEB7048A29FACCEE,electric_bike,2021-06-10 18:04:38,2021-06-10 18:11:40,Franklin Ave & Myrtle Ave,4715,Lafayette Ave & Fort Greene Pl,4395,40.694546,-73.958013,40.68691865,-73.976682,member
715735,5B36D1A8FA9AD4B8,electric_bike,2021-06-12 09:17:23,2021-06-12 09:55:14,Franklin Ave & Myrtle Ave,4715,W 20 St & 8 Ave,6224,40.694546,-73.958013,40.74345335,-74.00004031,member
729390,D8EB0E7A44BFA9FE,docked_bike,2021-06-19 21:17:03,2021-06-19 21:36:38,Franklin Ave & Myrtle Ave,4715,Flushing Ave & Woodward Ave,5225,40.694546,-73.958013,40.71246,-73.91873,member
735504,3DA22008A3123715,docked_bike,2021-06-19 21:17:00,2021-06-19 21:36:16,Franklin Ave & Myrtle Ave,4715,Flushing Ave & Woodward Ave,5225,40.694546,-73.958013,40.71246,-73.91873,member
735508,A8E03F1344A40E25,docked_bike,2021-06-12 15:47:47,2021-06-12 16:07:06,Franklin Ave & Myrtle Ave,4715,Sharon St & Olive St,5323,40.694546,-73.958013,40.715353,-73.93856,member
735600,F403CBF324C4800B,docked_bike,2021-06-12 15:48:48,2021-06-12 16:07:16,Franklin Ave & Myrtle Ave,4715,Sharon St & Olive St,5323,40.694546,-73.958013,40.715353,-73.93856,member
735638,2476C5F8722D5239,docked_bike,2021-06-16 13:46:19,2021-06-16 14:02:51,Franklin Ave & Myrtle Ave,4715,Sharon St & Olive St,5323,40.694546,-73.958013,40.715353,-73.93856,casual
749076,4014002136C69D92,docked_bike,2021-06-20 12:33:23,2021-06-20 13:11:35,Franklin Ave & Myrtle Ave,4715,Parade Pl & Crooke Ave,3376,40.694546,-73.958013,40.651847,-73.965248,member
749077,AEB172375B12F781,docked_bike,2021-06-02 17:53:41,2021-06-02 18:12:34,Franklin Ave & Myrtle Ave,4715,Metropolitan Ave & Vandervoort Ave,5241,40.694546,-73.958013,40.71429,-73.93323,member
749299,CAE6CF226E493FFB,docked_bike,2021-06-18 13:44:39,2021-06-18 14:50:31,Franklin Ave & Myrtle Ave,4715,Parade Pl & Crooke Ave,3376,40.694546,-73.958013,40.651847,-73.965248,member
761842,F4EC5DDD3C745B9D,docked_bike,2021-06-19 11:51:38,2021-06-19 11:59:04,Franklin Ave & Myrtle Ave,4715,Cumberland St & Lafayette Ave,4428,40.694546,-73.958013,40.68753406,-73.97265183,casual
764099,2B12F6B774E880E7,electric_bike,2021-06-13 12:18:24,2021-06-13 12:41:49,Franklin Ave & Myrtle Ave,4715,Parade Pl & Crooke Ave,3376,40.694546,-73.958013,40.651847,-73.965248,member
765630,18258E68723354A7,docked_bike,2021-06-20 12:32:49,2021-06-20 13:11:55,Franklin Ave & Myrtle Ave,4715,Parade Pl & Crooke Ave,3376,40.694546,-73.958013,40.651847,-73.965248,member
801812,96BE6948A7ABE151,docked_bike,2021-06-20 18:11:58,2021-06-20 18:24:24,Franklin Ave & Myrtle Ave,4715,Nassau St & Navy St,4812,40.694546,-73.958013,40.69839895,-73.98068914,member
801841,E2940DBED24DF6AA,docked_bike,2021-06-15 10:22:14,2021-06-15 10:32:32,Franklin Ave & Myrtle Ave,4715,Washington Park,4546,40.694546,-73.958013,40.6917823,-73.9737299,member
801871,9698A9ED6767DFBA,docked_bike,2021-06-06 20:36:33,2021-06-06 20:45:41,Franklin Ave & Myrtle Ave,4715,Washington Park,4546,40.694546,-73.958013,40.6917823,-73.9737299,member
801900,52F24D2EB8C91B56,classic_bike,2021-06-26 16:56:22,2021-06-26 17:06:10,Franklin Ave & Myrtle Ave,4715,Washington Park,4546,40.694546087246025,-73.95801365375519,40.6917823,-73.9737299,member
801905,6D3549D5D63906A2,docked_bike,2021-06-19 16:44:41,2021-06-19 16:51:06,Franklin Ave & Myrtle Ave,4715,Washington Park,4546,40.694546,-73.958013,40.6917823,-73.9737299,member
801916,DFDFCDE8CE12B661,docked_bike,2021-06-01 10:50:20,2021-06-01 11:13:17,Franklin Ave & Myrtle Ave,4715,Washington Park,4546,40.694546,-73.958013,40.6917823,-73.9737299,member
801922,2EE371E55E7B2E6C,classic_bike,2021-06-20 18:11:36,2021-06-20 18:24:27,Franklin Ave & Myrtle Ave,4715,Nassau St & Navy St,4812,40.694546087246025,-73.95801365375519,40.69839895,-73.98068914,casual
801926,35CFF525BA9F356E,docked_bike,2021-06-13 18:53:16,2021-06-13 19:05:33,Franklin Ave & Myrtle Ave,4715,Nassau St & Navy St,4812,40.694546,-73.958013,40.69839895,-73.98068914,casual
801970,CFDBFC169094993B,docked_bike,2021-06-20 17:07:31,2021-06-20 17:15:24,Franklin Ave & Myrtle Ave,4715,Washington Park,4546,40.694546,-73.958013,40.6917823,-73.9737299,member
801978,652FF6495CAD003F,docked_bike,2021-06-07 20:08:49,2021-06-07 20:39:10,Franklin Ave & Myrtle Ave,4715,Nassau St & Navy St,4812,40.694546,-73.958013,40.69839895,-73.98068914,member
801984,84621B7A100E9B79,docked_bike,2021-06-06 20:36:12,2021-06-06 20:45:51,Franklin Ave & Myrtle Ave,4715,Washington Park,4546,40.694546,-73.958013,40.6917823,-73.9737299,member
801992,C509A28DD0E21C91,docked_bike,2021-06-06 12:29:44,2021-06-06 12:39:45,Franklin Ave & Myrtle Ave,4715,Nassau St & Navy St,4812,40.694546,-73.958013,40.69839895,-73.98068914,member
801994,D83E08928047E530,electric_bike,2021-06-09 17:30:32,2021-06-09 17:41:58,Franklin Ave & Myrtle Ave,4715,Willoughby Ave & Myrtle Ave,4759,40.694546,-73.958013,40.69757,-73.93098,member
802013,AEAB471B943F2C4D,docked_bike,2021-06-13 18:17:51,2021-06-13 18:30:59,Franklin Ave & Myrtle Ave,4715,Nassau St & Navy St,4812,40.694546,-73.958013,40.69839895,-73.98068914,casual
802026,E0E514BB498D6695,docked_bike,2021-06-05 14:08:17,2021-06-05 14:14:42,Franklin Ave & Myrtle Ave,4715,Washington Park,4546,40.694546,-73.958013,40.6917823,-73.9737299,member
802037,FA79013FA265E832,docked_bike,2021-06-13 18:17:48,2021-06-13 18:30:58,Franklin Ave & Myrtle Ave,4715,Nassau St & Navy St,4812,40.694546,-73.958013,40.69839895,-73.98068914,casual
802720,8755806256122C80,classic_bike,2021-06-25 20:00:37,2021-06-25 20:15:58,Franklin Ave & Myrtle Ave,4715,Washington Park,4546,40.694546087246025,-73.95801365375519,40.6917823,-73.9737299,member
802725,422E8A4D82070B01,docked_bike,2021-06-06 20:36:15,2021-06-06 20:45:48,Franklin Ave & Myrtle Ave,4715,Washington Park,4546,40.694546,-73.958013,40.6917823,-73.9737299,member
804592,E81DD6950EA65517,docked_bike,2021-06-09 11:28:59,2021-06-09 11:50:07,Franklin Ave & Myrtle Ave,4715,Waterbury St & Stagg St,5099,40.694546,-73.958013,40.71019,-73.93734,casual
804805,C5F2A3BA9EF0B2AB,classic_bike,2021-06-23 09:48:56,2021-06-23 09:59:43,Franklin Ave & Myrtle Ave,4715,Washington Park,4546,40.694546087246025,-73.95801365375519,40.6917823,-73.9737299,member
807389,7D4FECBE8ABFD712,electric_bike,2021-06-05 00:25:31,2021-06-05 00:32:01,Franklin Ave & Myrtle Ave,4715,Nassau St & Navy St,4812,40.694546,-73.958013,40.69839895,-73.98068914,casual
816411,A61C9709D04C263B,electric_bike,2021-06-05 19:19:38,2021-06-05 19:55:29,Franklin Ave & Myrtle Ave,4715,1 Ave & E 68 St,6822,40.694546,-73.958013,40.76500525,-73.95818491,member
827671,85FDBAD4D49979A4,electric_bike,2021-06-06 20:46:57,2021-06-06 21:01:16,Franklin Ave & Myrtle Ave,4715,Kingston Ave & Herkimer St,4205,40.694546,-73.958013,40.67890679,-73.94142771,member
832478,2F8A8CF0FEEE4A00,electric_bike,2021-06-20 18:18:33,2021-06-20 18:31:39,Franklin Ave & Myrtle Ave,4715,Kingston Ave & Herkimer St,4205,40.694546087246025,-73.95801365375519,40.67890679,-73.94142771,casual
833720,E1D914CFC1054693,docked_bike,2021-06-06 19:50:49,2021-06-06 20:11:09,Franklin Ave & Myrtle Ave,4715,Kingston Ave & Herkimer St,4205,40.694546,-73.958013,40.67890679,-73.94142771,member
836806,81C467E3F4AFBED6,electric_bike,2021-06-12 10:03:45,2021-06-12 10:19:14,Franklin Ave & Myrtle Ave,4715,Kingston Ave & Herkimer St,4205,40.694546,-73.958013,40.67890679,-73.94142771,casual
850642,BCED94B5A043826F,electric_bike,2021-06-02 15:16:01,2021-06-02 15:40:34,Franklin Ave & Myrtle Ave,4715,3 St & 3 Ave,4028,40.694546,-73.958013,40.6750705,-73.98775226,casual
851171,7B22EEBA408F4A54,electric_bike,2021-06-09 16:25:28,2021-06-09 16:45:36,Franklin Ave & Myrtle Ave,4715,3 St & 3 Ave,4028,40.694546,-73.958013,40.6750705,-73.98775226,casual
853588,43EB74DAEBF19483,electric_bike,2021-06-26 08:13:46,2021-06-26 08:29:01,Franklin Ave & Myrtle Ave,4715,Forsyth St & Canal St,5270,40.694546087246025,-73.95801365375519,40.7158155,-73.99422366,casual
856112,B6C28C5B65015617,classic_bike,2021-06-30 13:05:15,2021-06-30 13:21:06,Franklin Ave & Myrtle Ave,4715,Division Ave & Marcy Ave,5084,40.694546087246025,-73.95801365375519,40.70708701,-73.95796783,casual
856706,ED034657294DD988,classic_bike,2021-06-17 16:38:56,2021-06-17 17:03:19,Franklin Ave & Myrtle Ave,4715,Forsyth St & Canal St,5270,40.694546087246025,-73.95801365375519,40.7158155,-73.99422366,member
863063,0238D4C830444F7D,docked_bike,2021-06-03 18:14:19,2021-06-03 18:35:37,Franklin Ave & Myrtle Ave,4715,Clinton St & Joralemon St,4605,40.694546,-73.958013,40.69239502,-73.99337909,casual
885423,242BCADD400574A8,docked_bike,2021-06-17 01:34:15,2021-06-17 02:02:32,Franklin Ave & Myrtle Ave,4715,Division Ave & Marcy Ave,5084,40.694546,-73.958013,40.70708701,-73.95796783,member
885424,854DC5B28386C34E,classic_bike,2021-06-27 07:02:11,2021-06-27 07:41:00,Franklin Ave & Myrtle Ave,4715,Forsyth St & Canal St,5270,40.694546087246025,-73.95801365375519,40.7158155,-73.99422366,member
885432,F2E9A1A69647576A,electric_bike,2021-06-16 17:13:05,2021-06-16 17:28:11,Franklin Ave & Myrtle Ave,4715,Union St & Bedford Ave,3879,40.694546,-73.958013,40.6691783,-73.9554162,casual
885482,022ED35343054446,electric_bike,2021-06-26 23:31:28,2021-06-26 23:49:45,Franklin Ave & Myrtle Ave,4715,Union St & Bedford Ave,3879,40.694546087246025,-73.95801365375519,40.6691783,-73.9554162,casual
885486,996CFB6DB29CD91E,docked_bike,2021-06-16 19:03:46,2021-06-16 19:11:03,Franklin Ave & Myrtle Ave,4715,Division Ave & Marcy Ave,5084,40.694546,-73.958013,40.70708701,-73.95796783,member
885537,AB6C8D83D09D681E,electric_bike,2021-06-24 18:28:20,2021-06-24 18:49:27,Franklin Ave & Myrtle Ave,4715,Clinton St & Joralemon St,4605,40.694546087246025,-73.95801365375519,40.69239502,-73.99337909,casual
885566,A2A9068A9F0DD669,electric_bike,2021-06-24 12:26:50,2021-06-24 12:35:19,Franklin Ave & Myrtle Ave,4715,Division Ave & Marcy Ave,5084,40.694546087246025,-73.95801365375519,40.70708701,-73.95796783,member
885568,4B7C64EF29CE08B8,classic_bike,2021-06-25 18:46:12,2021-06-25 18:55:51,Franklin Ave & Myrtle Ave,4715,Division Ave & Marcy Ave,5084,40.694546087246025,-73.95801365375519,40.70708701,-73.95796783,member
885588,2FAA2D08C12B4BDE,classic_bike,2021-06-30 13:04:26,2021-06-30 13:21:08,Franklin Ave & Myrtle Ave,4715,Division Ave & Marcy Ave,5084,40.694546087246025,-73.95801365375519,40.70708701,-73.95796783,casual
885589,8589E80787FE1704,classic_bike,2021-06-30 13:05:05,2021-06-30 13:20:55,Franklin Ave & Myrtle Ave,4715,Division Ave & Marcy Ave,5084,40.694546087246025,-73.95801365375519,40.70708701,-73.95796783,casual
887441,C561B6F1459EC3AF,docked_bike,2021-06-17 08:44:10,2021-06-17 08:55:39,Franklin Ave & Myrtle Ave,4715,Division Ave & Marcy Ave,5084,40.694546,-73.958013,40.70708701,-73.95796783,member
887466,3C4E5DC302A32818,electric_bike,2021-06-24 19:21:13,2021-06-24 19:28:28,Franklin Ave & Myrtle Ave,4715,Division Ave & Marcy Ave,5084,40.694546087246025,-73.95801365375519,40.70708701,-73.95796783,member
888990,6C60B7D0D8CA0E74,classic_bike,2021-06-26 22:01:37,2021-06-26 22:21:28,Franklin Ave & Myrtle Ave,4715,Nassau Ave & Newell St,5623,40.694546087246025,-73.95801365375519,40.724812564400175,-73.94752621650696,member
896686,8C636563F8D3CEE8,classic_bike,2021-06-26 22:01:49,2021-06-26 22:21:32,Franklin Ave & Myrtle Ave,4715,Nassau Ave & Newell St,5623,40.694546087246025,-73.95801365375519,40.724812564400175,-73.94752621650696,member
898929,2BCB203BF5E68539,docked_bike,2021-06-10 09:32:22,2021-06-10 09:54:51,Franklin Ave & Myrtle Ave,4715,Nassau Ave & Newell St,5623,40.694546,-73.958013,40.724812564400175,-73.94752621650696,member
904527,8768BBAF18749856,electric_bike,2021-06-20 14:22:56,2021-06-20 14:48:50,Franklin Ave & Myrtle Ave,4715,Christopher St & Greenwich St,5847,40.694546,-73.958013,40.73291553,-74.00711384,member
910689,D9F93405F1AFD7ED,docked_bike,2021-06-12 13:24:13,2021-06-12 13:44:44,Franklin Ave & Myrtle Ave,4715,Nassau Ave & Newell St,5623,40.694546,-73.958013,40.724812564400175,-73.94752621650696,member
910714,9A0B052056E6D9D9,docked_bike,2021-06-25 14:32:40,2021-06-25 15:06:44,Franklin Ave & Myrtle Ave,4715,Greenwich St & Hubert St,5470,40.694546,-73.958014,40.721319,-74.010065,casual
931640,4B21BC67D71819A8,electric_bike,2021-06-05 20:31:23,2021-06-05 20:47:10,Franklin Ave & Myrtle Ave,4715,Plaza St East & Flatbush Ave,4010,40.694546,-73.958013,40.673134,-73.969106,member
953776,FCE43A22EAABCDF9,docked_bike,2021-06-05 16:38:18,2021-06-05 16:55:08,Franklin Ave & Myrtle Ave,4715,Plaza St East & Flatbush Ave,4010,40.694546,-73.958013,40.673134,-73.969106,member
953867,2AB712B2D9460786,docked_bike,2021-06-20 19:54:56,2021-06-20 20:33:28,Franklin Ave & Myrtle Ave,4715,Plaza St East & Flatbush Ave,4010,40.694546,-73.958013,40.673134,-73.969106,casual
954134,F0BBCF5BDF4645F7,docked_bike,2021-06-19 15:03:16,2021-06-19 15:24:55,Franklin Ave & Myrtle Ave,4715,Plaza St East & Flatbush Ave,4010,40.694546,-73.958013,40.673134,-73.969106,casual
957231,FC7EE2D45CA5E622,classic_bike,2021-06-23 20:02:03,2021-06-23 20:37:05,Franklin Ave & Myrtle Ave,4715,Bridge St & Water St,4968,40.694546087246025,-73.95801365375519,40.70296934155272,-73.98469090461731,casual
961442,49E72879A98A9570,docked_bike,2021-06-09 19:09:11,2021-06-09 19:23:13,Franklin Ave & Myrtle Ave,4715,Bridge St & Water St,4968,40.694546,-73.958013,40.70296934155272,-73.98469090461731,member
961455,5A64807B0768A038,electric_bike,2021-06-05 10:15:11,2021-06-05 10:58:16,Franklin Ave & Myrtle Ave,4715,Roebling St & N 4 St,5267,40.694546,-73.958013,40.71469,-73.95739,casual
961468,4B0DCC28ED02104A,electric_bike,2021-06-13 15:18:19,2021-06-13 15:34:58,Franklin Ave & Myrtle Ave,4715,Bridge St & Water St,4968,40.694546,-73.958013,40.70296934155272,-73.98469090461731,casual
961500,BD2E48F6B0D3A7A2,docked_bike,2021-06-02 08:53:12,2021-06-02 09:05:16,Franklin Ave & Myrtle Ave,4715,Roebling St & N 4 St,5267,40.694546,-73.958013,40.71469,-73.95739,member
968046,01B984D0D6F12E90,electric_bike,2021-06-03 17:07:10,2021-06-03 17:23:53,Franklin Ave & Myrtle Ave,4715,Forest Ave & Summerfield St,4798,40.694546,-73.958013,40.69922,-73.89795,casual
968061,DEF494F5170200A2,electric_bike,2021-06-15 19:49:55,2021-06-15 20:10:21,Franklin Ave & Myrtle Ave,4715,Fulton St & Pearl St,5024,40.694546,-73.958013,40.70772198491691,-74.00438636541367,member
973001,54FEA0C3957D4E57,docked_bike,2021-06-20 11:38:51,2021-06-20 12:20:48,Franklin Ave & Myrtle Ave,4715,46 Ave & 5 St,6286,40.694546,-73.958013,40.74731,-73.95451,casual
973386,FF2331EB83B31724,electric_bike,2021-06-26 20:55:35,2021-06-26 21:24:19,Franklin Ave & Myrtle Ave,4715,44 Dr & Jackson Ave,6352,40.694546087246025,-73.95801365375519,40.74718234,-73.9432635,member
978072,27F768D17B120980,docked_bike,2021-06-20 11:38:11,2021-06-20 12:20:58,Franklin Ave & Myrtle Ave,4715,46 Ave & 5 St,6286,40.694546,-73.958013,40.74731,-73.95451,member
979023,DB4D09899712989B,electric_bike,2021-06-20 22:05:54,2021-06-20 22:18:38,Kent Ave & N 7 St,5489,Franklin Ave & Myrtle Ave,4715,40.720367,-73.96165,40.694546087246025,-73.95801365375519,casual
979058,9E902BDB55090D7A,electric_bike,2021-06-22 07:36:51,2021-06-22 07:42:55,Adelphi St & Myrtle Ave,4620,Franklin Ave & Myrtle Ave,4715,40.69308257,-73.97178913,40.694546087246025,-73.95801365375519,member
979130,AF51E2DE96341127,docked_bike,2021-06-10 17:42:00,2021-06-10 17:54:03,Boerum St & Broadway,5004,Franklin Ave & Myrtle Ave,4715,40.70538,-73.949765,40.694546087246025,-73.95801365375519,member
979195,B139B712A64C91CC,classic_bike,2021-06-26 13:04:10,2021-06-26 13:25:49,Rogers Ave & Sterling St,3696,Franklin Ave & Myrtle Ave,4715,40.6630619,-73.9538746,40.694546087246025,-73.95801365375519,casual
979201,CD25381C144FCEA0,electric_bike,2021-06-08 18:33:12,2021-06-08 18:40:57,Willoughby St & Ashland Pl,4587,Franklin Ave & Myrtle Ave,4715,40.69178,-73.97877,40.694546087246025,-73.95801365375519,member
979237,636634F78DCCE42B,docked_bike,2021-06-20 08:50:43,2021-06-20 09:44:11,31 St & 23 Ave,7144,Franklin Ave & Myrtle Ave,4715,40.774787,-73.912555,40.694546087246025,-73.95801365375519,member
979239,5F7051B153A964B0,docked_bike,2021-06-20 10:52:05,2021-06-20 11:06:06,Schermerhorn St & Bond St,4479,Franklin Ave & Myrtle Ave,4715,40.688417,-73.984516,40.694546087246025,-73.95801365375519,member
979305,F4971E75A735C8E5,electric_bike,2021-06-01 17:10:49,2021-06-01 17:17:57,Monroe St & Classon Ave,4336,Franklin Ave & Myrtle Ave,4715,40.684568,-73.95881,40.694546087246025,-73.95801365375519,casual
979367,1B52CD66939D0DA7,docked_bike,2021-06-09 19:34:23,2021-06-09 20:04:24,45 Rd & 11 St,6319,Franklin Ave & Myrtle Ave,4715,40.747085,-73.949772,40.694546087246025,-73.95801365375519,casual
979468,0C435076E047BB6F,classic_bike,2021-06-28 18:41:07,2021-06-28 18:57:27,Franklin Ave & Myrtle Ave,4715,Roebling St & N 4 St,5267,40.694546087246025,-73.95801365375519,40.71469,-73.95739,member
979512,430F005B64EA231C,classic_bike,2021-06-28 18:40:16,2021-06-28 18:47:58,Monroe St & Bedford Ave,4368,Franklin Ave & Myrtle Ave,4715,40.6851443,-73.95380904,40.694546087246025,-73.95801365375519,casual
979516,D4D92CC09535CA17,docked_bike,2021-06-20 11:34:29,2021-06-20 12:24:49,48 St & 37 Ave,6435,Franklin Ave & Myrtle Ave,4715,40.751555,-73.915026,40.694546087246025,-73.95801365375519,member
979517,4BD940BAB744738C,classic_bike,2021-06-26 15:55:22,2021-06-26 16:15:55,Eldert St & Bushwick Ave,4399,Franklin Ave & Myrtle Ave,4715,40.68652,-73.91321,40.694546087246025,-73.95801365375519,member
979536,262DFB3400333430,docked_bike,2021-06-04 23:18:05,2021-06-04 23:27:02,S 5 Pl & S 5 St,5125,Franklin Ave & Myrtle Ave,4715,40.710451,-73.960876,40.694546087246025,-73.95801365375519,casual
979552,52EBFE434F67A332,classic_bike,2021-06-22 11:46:30,2021-06-22 12:03:01,Broadway & Roebling St,5125,Franklin Ave & Myrtle Ave,4715,40.70924826276157,-73.96063148975372,40.694546087246025,-73.95801365375519,member
979646,91B06A3E178D4A20,docked_bike,2021-06-01 11:51:52,2021-06-01 12:01:38,DeKalb Ave & Hudson Ave,4513,Franklin Ave & Myrtle Ave,4715,40.689888,-73.981013,40.694546087246025,-73.95801365375519,casual
979648,DBBCB2CD573257D2,docked_bike,2021-06-08 16:53:13,2021-06-08 17:04:39,DeKalb Ave & Hudson Ave,4513,Franklin Ave & Myrtle Ave,4715,40.689888,-73.981013,40.694546087246025,-73.95801365375519,member
979653,D02E2FBCF070CA7A,classic_bike,2021-06-21 14:45:41,2021-06-21 14:50:47,Adelphi St & Myrtle Ave,4620,Franklin Ave & Myrtle Ave,4715,40.69308257,-73.97178913,40.694546087246025,-73.95801365375519,member
979654,51D345A143856D6A,classic_bike,2021-06-26 19:56:23,2021-06-26 20:07:48,DeKalb Ave & Hudson Ave,4513,Franklin Ave & Myrtle Ave,4715,40.689888,-73.981013,40.694546087246025,-73.95801365375519,casual
979659,230F4C28DEFF9F05,electric_bike,2021-06-18 10:23:41,2021-06-18 10:39:16,Meserole Ave & Manhattan Ave,5666,Franklin Ave & Myrtle Ave,4715,40.72708584,-73.95299117,40.694546087246025,-73.95801365375519,member
979660,E85C0C190A413E98,electric_bike,2021-06-03 18:17:42,2021-06-03 18:33:40,Driggs Ave & N Henry St,5542,Franklin Ave & Myrtle Ave,4715,40.72325,-73.94308,40.694546087246025,-73.95801365375519,member
979695,261AAEC4AF41404E,electric_bike,2021-06-13 10:21:34,2021-06-13 10:40:14,Graham Ave & Withers St,5403,Franklin Ave & Myrtle Ave,4715,40.716981,-73.944859,40.694546087246025,-73.95801365375519,casual
979715,2D068E105F4BD271,electric_bike,2021-06-05 20:29:50,2021-06-05 20:37:53,DeKalb Ave & Vanderbilt Ave,4461,Franklin Ave & Myrtle Ave,4715,40.689407,-73.968854,40.694546087246025,-73.95801365375519,casual
979857,294B657EA2994016,docked_bike,2021-06-04 08:54:16,2021-06-04 09:05:31,Park Pl & Franklin Ave,4033,Franklin Ave & Myrtle Ave,4715,40.67418,-73.956494,40.694546087246025,-73.95801365375519,member
979899,B14A467D6AB94156,electric_bike,2021-06-08 11:44:46,2021-06-08 12:09:36,Leonard St & Church St,5359,Franklin Ave & Myrtle Ave,4715,40.717571,-74.005549,40.694546087246025,-73.95801365375519,member
979921,E1484ED7E5C0F2A7,docked_bike,2021-06-09 09:18:52,2021-06-09 09:29:32,Verona Pl & Fulton St,4124,Franklin Ave & Myrtle Ave,4715,40.680356,-73.947679,40.694546087246025,-73.95801365375519,member
979922,04DE9DF3032FBAB2,docked_bike,2021-06-03 09:18:32,2021-06-03 09:29:30,Verona Pl & Fulton St,4124,Franklin Ave & Myrtle Ave,4715,40.680356,-73.947679,40.694546087246025,-73.95801365375519,member
979931,8CD242EF1C045093,classic_bike,2021-06-29 09:18:40,2021-06-29 09:29:19,Verona Pl & Fulton St,4124,Franklin Ave & Myrtle Ave,4715,40.6803560840434,-73.9476791024208,40.694546087246025,-73.95801365375519,member
979939,BE552A4AF6749BC2,docked_bike,2021-06-08 09:18:56,2021-06-08 09:29:27,Verona Pl & Fulton St,4124,Franklin Ave & Myrtle Ave,4715,40.680356,-73.947679,40.694546087246025,-73.95801365375519,member
979941,50DFF77D04D5EDD2,electric_bike,2021-06-30 08:55:47,2021-06-30 09:07:20,Irving Ave & Jefferson St,5051,Franklin Ave & Myrtle Ave,4715,40.70538,-73.92535,40.694546087246025,-73.95801365375519,member
979947,3D7ED1AD7076EB7C,classic_bike,2021-06-28 09:17:37,2021-06-28 09:27:17,Verona Pl & Fulton St,4124,Franklin Ave & Myrtle Ave,4715,40.6803560840434,-73.9476791024208,40.694546087246025,-73.95801365375519,member
979968,400E252BF6061AA3,electric_bike,2021-06-09 18:53:14,2021-06-09 19:17:20,Onderdonk Ave & Gates Ave,4994,Franklin Ave & Myrtle Ave,4715,40.70413,-73.90737,40.694546087246025,-73.95801365375519,member
979981,5D60403CAE6C7727,electric_bike,2021-06-28 16:52:14,2021-06-28 17:01:01,Lafayette Ave & Fort Greene Pl,4395,Franklin Ave & Myrtle Ave,4715,40.68691865,-73.976682,40.694546087246025,-73.95801365375519,member
979983,BDC3F97DAD41D494,electric_bike,2021-06-26 19:40:03,2021-06-26 19:52:41,Beaver St & Fayette St,4840,Franklin Ave & Myrtle Ave,4715,40.70099,-73.93921,40.694546087246025,-73.95801365375519,member
980009,A3D003B3E2BF4F3B,classic_bike,2021-06-25 01:25:06,2021-06-25 01:43:03,Myrtle Ave & Lewis Ave,4729,Franklin Ave & Myrtle Ave,4715,40.69681963,-73.93756926,40.694546087246025,-73.95801365375519,member
980026,8DAF5337789685FA,docked_bike,2021-06-05 17:38:51,2021-06-05 18:05:11,Canal St & Rutgers St,5303,Franklin Ave & Myrtle Ave,4715,40.714274,-73.9899,40.694546087246025,-73.95801365375519,casual
980050,2FB99AD1E5D04484,electric_bike,2021-06-09 23:57:14,2021-06-10 00:09:42,N 6 St & Bedford Ave,5379,Franklin Ave & Myrtle Ave,4715,40.717451,-73.958509,40.694546087246025,-73.95801365375519,member
980053,8C673202B1A2F686,docked_bike,2021-06-20 08:20:10,2021-06-20 08:36:21,N 6 St & Bedford Ave,5379,Franklin Ave & Myrtle Ave,4715,40.717451,-73.958509,40.694546087246025,-73.95801365375519,member
980056,39BAC4A833B0F639,electric_bike,2021-06-22 20:54:17,2021-06-22 21:05:20,Lewis Ave & Madison St,4425,Franklin Ave & Myrtle Ave,4715,40.686312,-73.935775,40.694546087246025,-73.95801365375519,member
980069,E25B9638177CFBA6,docked_bike,2021-06-05 03:29:21,2021-06-05 03:43:14,Montrose Ave & Bushwick Ave,5068,Franklin Ave & Myrtle Ave,4715,40.707677,-73.940161,40.694546087246025,-73.95801365375519,member
980092,88EF6BDDBD106BD9,classic_bike,2021-06-26 10:56:52,2021-06-26 11:24:32,Calyer St & Jewel St,5743,Franklin Ave & Myrtle Ave,4715,40.72984,-73.94839,40.694546087246025,-73.95801365375519,member
980123,E9482F4F16A4D29A,classic_bike,2021-06-23 14:16:55,2021-06-23 14:27:05,Pulaski St & Marcus Garvey Blvd,4656,Franklin Ave & Myrtle Ave,4715,40.6933982,-73.939877,40.694546087246025,-73.95801365375519,member
980138,E36542D3BD91D4F7,docked_bike,2021-06-08 15:51:59,2021-06-08 16:01:34,Stagg St & Union Ave,5117,Franklin Ave & Myrtle Ave,4715,40.70877,-73.950952,40.694546087246025,-73.95801365375519,member
980140,D895976EF9E08CA4,electric_bike,2021-06-16 01:52:16,2021-06-16 02:14:02,Maiden Ln & Pearl St,5065,Franklin Ave & Myrtle Ave,4715,40.707064,-74.007318,40.694546087246025,-73.95801365375519,member
980141,60ED9D87F0EDBAA3,electric_bike,2021-06-19 16:35:33,2021-06-19 17:15:11,Bank St & Hudson St,5922,Franklin Ave & Myrtle Ave,4715,40.736528,-74.00618,40.694546087246025,-73.95801365375519,member
980190,124817EE533F0548,docked_bike,2021-06-20 15:47:10,2021-06-20 16:15:40,Milton St & Franklin St,5752,Franklin Ave & Myrtle Ave,4715,40.72906,-73.95779,40.694546087246025,-73.95801365375519,casual
980192,CE4696C0C0165CE5,electric_bike,2021-06-12 20:51:47,2021-06-12 21:10:44,Milton St & Franklin St,5752,Franklin Ave & Myrtle Ave,4715,40.72906,-73.95779,40.694546087246025,-73.95801365375519,casual
980237,DCFEB346C8171949,electric_bike,2021-06-04 15:24:13,2021-06-04 15:31:06,Adelphi St & Myrtle Ave,4620,Franklin Ave & Myrtle Ave,4715,40.693082,-73.971789,40.694546087246025,-73.95801365375519,member
980253,53B48AB6EDAC1F37,electric_bike,2021-06-13 14:46:11,2021-06-13 15:09:19,Stagg St & Union Ave,5117,Franklin Ave & Myrtle Ave,4715,40.70877,-73.950952,40.694546087246025,-73.95801365375519,casual
980267,F0ED6C1375C498CB,electric_bike,2021-06-02 15:17:22,2021-06-02 15:54:58,Adelphi St & Myrtle Ave,4620,Franklin Ave & Myrtle Ave,4715,40.693082,-73.971789,40.694546087246025,-73.95801365375519,member
980276,4FB3D73E73CC7B89,docked_bike,2021-06-02 20:06:08,2021-06-02 20:11:55,Throop Ave & Myrtle Ave,4697,Franklin Ave & Myrtle Ave,4715,40.696229,-73.94371,40.694546087246025,-73.95801365375519,casual
980288,3B6048F05FD384CE,electric_bike,2021-06-11 15:00:42,2021-06-11 15:15:00,Graham Ave & Grand St,5178,Franklin Ave & Myrtle Ave,4715,40.711863,-73.944024,40.694546087246025,-73.95801365375519,member
980294,2A6AA469B70E17EE,docked_bike,2021-06-16 18:36:57,2021-06-16 18:38:42,DeKalb Ave & Franklin Ave,4528,Franklin Ave & Myrtle Ave,4715,40.690648,-73.957461,40.694546087246025,-73.95801365375519,member
980318,3977828BB8826EED,electric_bike,2021-06-01 16:28:16,2021-06-01 16:45:22,Milton St & Franklin St,5752,Franklin Ave & Myrtle Ave,4715,40.72906,-73.95779,40.694546087246025,-73.95801365375519,member
980336,1B94742DF5134D5F,docked_bike,2021-06-15 20:04:11,2021-06-15 20:07:07,DeKalb Ave & Franklin Ave,4528,Franklin Ave & Myrtle Ave,4715,40.690648,-73.957461,40.694546087246025,-73.95801365375519,casual
980347,53F6D3D627F2B27A,classic_bike,2021-06-23 10:18:37,2021-06-23 10:35:34,Kent Ave & N 7 St,5489,Franklin Ave & Myrtle Ave,4715,40.72036775298455,-73.96165072917938,40.694546087246025,-73.95801365375519,casual
980363,DA28B50991D4C63D,classic_bike,2021-06-26 03:42:03,2021-06-26 03:58:32,Metropolitan Ave & Bedford Ave,5308,Franklin Ave & Myrtle Ave,4715,40.71534825,-73.96024116,40.694546087246025,-73.95801365375519,member
980370,5721D0EFC733B31F,electric_bike,2021-06-21 15:22:07,2021-06-21 15:44:42,Liberty St & Nassau St,5105,Franklin Ave & Myrtle Ave,4715,40.70858894240581,-74.00935482235809,40.694546087246025,-73.95801365375519,member
980420,06AA2C92BE487D33,electric_bike,2021-06-11 16:02:46,2021-06-11 16:22:00,Fairview Ave & Linden St,5066,Franklin Ave & Myrtle Ave,4715,40.70694,-73.90632,40.694546087246025,-73.95801365375519,member
980438,BDAC20BF6D585E0A,docked_bike,2021-06-01 17:33:59,2021-06-01 17:37:03,Nostrand Ave & Myrtle Ave,4707,Franklin Ave & Myrtle Ave,4715,40.69527,-73.952381,40.694546087246025,-73.95801365375519,member
980439,C7F0123475561E5B,docked_bike,2021-06-12 17:47:05,2021-06-12 17:59:46,Broadway & Berry St,5164,Franklin Ave & Myrtle Ave,4715,40.710445,-73.96525,40.694546087246025,-73.95801365375519,member
980453,2B127BFA0A7FC222,docked_bike,2021-06-18 18:05:36,2021-06-18 18:09:04,Emerson Pl & Myrtle Ave,4683,Franklin Ave & Myrtle Ave,4715,40.693631,-73.962235,40.694546087246025,-73.95801365375519,member
980457,C6D694747EEA30CB,docked_bike,2021-06-17 13:37:53,2021-06-17 13:40:18,Nostrand Ave & Myrtle Ave,4707,Franklin Ave & Myrtle Ave,4715,40.69527,-73.952381,40.694546087246025,-73.95801365375519,member
980492,3DDB4C10D345CAD8,electric_bike,2021-06-15 23:37:11,2021-06-15 23:39:23,Emerson Pl & Myrtle Ave,4683,Franklin Ave & Myrtle Ave,4715,40.693631,-73.962235,40.694546087246025,-73.95801365375519,casual
980496,A967913CDDEB156A,classic_bike,2021-06-29 00:45:08,2021-06-29 00:53:44,DeKalb Ave & Vanderbilt Ave,4461,Franklin Ave & Myrtle Ave,4715,40.68940747,-73.96885458,40.694546087246025,-73.95801365375519,member
980511,F72FEF4321106881,docked_bike,2021-06-19 18:20:18,2021-06-19 18:36:53,Metropolitan Ave & Bedford Ave,5308,Franklin Ave & Myrtle Ave,4715,40.715348,-73.960241,40.694546087246025,-73.95801365375519,casual
980542,B2393EDA58148B8D,docked_bike,2021-06-16 17:10:56,2021-06-16 17:16:00,Nostrand Ave & Myrtle Ave,4707,Franklin Ave & Myrtle Ave,4715,40.69527,-73.952381,40.694546087246025,-73.95801365375519,member
980552,5188E5F0DDDCB5BF,classic_bike,2021-06-25 16:08:00,2021-06-25 16:27:12,India St & Manhattan Ave,5826,Franklin Ave & Myrtle Ave,4715,40.73232194,-73.9550858,40.694546087246025,-73.95801365375519,member
980580,74BDD0DD89C23246,docked_bike,2021-06-06 21:47:07,2021-06-06 22:13:11,Broadway & Berry St,5164,Franklin Ave & Myrtle Ave,4715,40.710445,-73.96525,40.694546087246025,-73.95801365375519,casual
980613,3A86DCC1E5A3956C,docked_bike,2021-06-09 17:12:43,2021-06-09 17:25:53,Putnam Ave & Throop Ave,4392,Franklin Ave & Myrtle Ave,4715,40.685153,-73.94111,40.694546087246025,-73.95801365375519,casual
980618,F725602E91DFABA9,docked_bike,2021-06-09 09:41:14,2021-06-09 09:48:16,Monroe St & Bedford Ave,4368,Franklin Ave & Myrtle Ave,4715,40.685144,-73.953809,40.694546087246025,-73.95801365375519,casual
980635,A2D84911421AA5B4,electric_bike,2021-06-17 16:55:06,2021-06-17 17:14:48,Washington Pl & Broadway,5755,Franklin Ave & Myrtle Ave,4715,40.729039,-73.994046,40.694546087246025,-73.95801365375519,member
980660,6FA0529CE4963B82,electric_bike,2021-06-11 10:39:07,2021-06-11 10:55:45,Fulton St & Waverly Ave,4345,Franklin Ave & Myrtle Ave,4715,40.683238,-73.965995,40.694546087246025,-73.95801365375519,member
980662,78E54E89F957BCC3,docked_bike,2021-06-03 17:44:33,2021-06-03 17:51:16,Clinton Ave & Flushing Ave,4762,Franklin Ave & Myrtle Ave,4715,40.69794,-73.969868,40.694546087246025,-73.95801365375519,member
980695,FFDCF6A555046A6E,docked_bike,2021-06-10 16:49:39,2021-06-10 17:03:50,Albany Ave & Fulton St,4237,Franklin Ave & Myrtle Ave,4715,40.68001,-73.938475,40.694546087246025,-73.95801365375519,casual
980721,E26A6F9510635B4D,electric_bike,2021-06-21 12:16:14,2021-06-21 12:31:26,Myrtle Ave & Marcy Ave,4707,Franklin Ave & Myrtle Ave,4715,40.695398,-73.949549,40.694546087246025,-73.95801365375519,member
980739,8B4C8613E206BDB2,electric_bike,2021-06-06 18:29:42,2021-06-06 18:58:07,Coffey St & Conover St,4137,Franklin Ave & Myrtle Ave,4715,40.677236,-74.015665,40.694546087246025,-73.95801365375519,member
980741,D43799B8123C0D4F,docked_bike,2021-06-06 03:59:08,2021-06-06 04:04:51,Myrtle Ave & Marcy Ave,4707,Franklin Ave & Myrtle Ave,4715,40.695398,-73.949549,40.694546087246025,-73.95801365375519,casual
980775,CB90C70A9A5AC4AE,electric_bike,2021-06-01 12:30:18,2021-06-01 12:36:10,Lafayette Ave & St James Pl,4494,Franklin Ave & Myrtle Ave,4715,40.688515,-73.964762,40.694546087246025,-73.95801365375519,casual
980782,F0693B0D51B71C0E,classic_bike,2021-06-28 15:10:52,2021-06-28 15:22:08,Boerum St & Broadway,5004,Franklin Ave & Myrtle Ave,4715,40.70538077,-73.94976519,40.694546087246025,-73.95801365375519,casual
980785,1C3466AA7895EB61,electric_bike,2021-06-05 11:43:07,2021-06-05 11:47:59,Kosciuszko St & Tompkins Ave,4553,Franklin Ave & Myrtle Ave,4715,40.691282,-73.945241,40.694546087246025,-73.95801365375519,member
980808,78686EB392B32CE9,docked_bike,2021-06-06 01:34:33,2021-06-06 01:46:30,Devoe St & Lorimer St,5259,Franklin Ave & Myrtle Ave,4715,40.713352,-73.949103,40.694546087246025,-73.95801365375519,member
980853,FE86ADA25C881282,docked_bike,2021-06-12 11:43:07,2021-06-12 11:59:00,Nassau St\t& Duffield St,4781,Franklin Ave & Myrtle Ave,4715,40.698477,-73.98384,40.694546087246025,-73.95801365375519,member
980915,8030AE3E30DD09B0,docked_bike,2021-06-10 18:01:00,2021-06-10 18:18:07,Front St & Washington St,4936,Franklin Ave & Myrtle Ave,4715,40.70255,-73.989402,40.694546087246025,-73.95801365375519,casual
980923,A36DA0029C057F50,electric_bike,2021-06-25 10:23:23,2021-06-25 10:36:52,Bushwick Ave & Harman St,4640,Franklin Ave & Myrtle Ave,4715,40.69356,-73.92524,40.694546087246025,-73.95801365375519,casual
980947,EF6E960D2E3DFE1E,docked_bike,2021-06-02 21:00:54,2021-06-02 21:12:12,Wythe Ave & Metropolitan Ave,5348,Franklin Ave & Myrtle Ave,4715,40.716887,-73.963198,40.694546087246025,-73.95801365375519,member
980954,4FF7DA9065C50FFC,docked_bike,2021-06-12 17:05:15,2021-06-12 17:36:45,6 Ave & 12 St,3803,Franklin Ave & Myrtle Ave,4715,40.666318,-73.985461,40.694546087246025,-73.95801365375519,casual
981006,0517061247DA92A0,classic_bike,2021-06-19 14:51:05,2021-06-19 15:08:05,Willoughby Ave & Walworth St,4634,Franklin Ave & Myrtle Ave,4715,40.69331716,-73.95381995,40.694546087246025,-73.95801365375519,member
981086,11940320D387D36E,docked_bike,2021-06-13 15:42:45,2021-06-13 15:50:33,Willoughby St & Fleet St,4628,Franklin Ave & Myrtle Ave,4715,40.691965,-73.981301,40.694546087246025,-73.95801365375519,member
981090,6C6EAEC310524A1E,electric_bike,2021-06-27 12:06:57,2021-06-27 12:27:22,Broadway & Hancock St,4441,Franklin Ave & Myrtle Ave,4715,40.68663,-73.9168,40.694546087246025,-73.95801365375519,casual
981097,CC1B99B4C9C84E2A,docked_bike,2021-06-07 07:47:21,2021-06-07 07:49:24,Emerson Pl & Myrtle Ave,4683,Franklin Ave & Myrtle Ave,4715,40.693631,-73.962235,40.694546087246025,-73.95801365375519,member
981111,0E14E6816EA2CFAB,classic_bike,2021-06-25 07:53:02,2021-06-25 07:54:47,Emerson Pl & Myrtle Ave,4683,Franklin Ave & Myrtle Ave,4715,40.69363137,-73.96223558,40.694546087246025,-73.95801365375519,member
981113,040FFE11210FE4E7,docked_bike,2021-06-15 01:04:30,2021-06-15 01:09:39,Emerson Pl & Myrtle Ave,4683,Franklin Ave & Myrtle Ave,4715,40.693631,-73.962235,40.694546087246025,-73.95801365375519,casual
981118,C6A8D7ED479CC3E3,classic_bike,2021-06-30 20:42:09,2021-06-30 20:53:13,Grand St & Havemeyer St,5267,Franklin Ave & Myrtle Ave,4715,40.71286844,-73.95698119,40.694546087246025,-73.95801365375519,member
981124,43ECF6CD34213983,electric_bike,2021-06-11 20:27:37,2021-06-11 20:43:43,Columbia St & Rivington St,5365,Franklin Ave & Myrtle Ave,4715,40.717399,-73.980165,40.694546087246025,-73.95801365375519,member
981133,2CB9732111C2BDF0,electric_bike,2021-06-19 09:53:59,2021-06-19 10:07:47,Columbia St & Rivington St,5365,Franklin Ave & Myrtle Ave,4715,40.71739973,-73.98016555,40.694546087246025,-73.95801365375519,member
981159,A087D8525B4339EC,docked_bike,2021-06-09 08:46:57,2021-06-09 09:06:20,Waterbury St & Stagg St,5099,Franklin Ave & Myrtle Ave,4715,40.71019,-73.93734,40.694546087246025,-73.95801365375519,casual
981160,1AFE98BD349DCDBC,electric_bike,2021-06-05 01:06:15,2021-06-05 01:22:18,Nassau St & Navy St,4812,Franklin Ave & Myrtle Ave,4715,40.698398,-73.980689,40.694546087246025,-73.95801365375519,casual
981171,CC460F35E5194B18,docked_bike,2021-06-14 19:04:59,2021-06-14 20:07:28,Bushwick Ave & McKibbin St,5027,Franklin Ave & Myrtle Ave,4715,40.705517,-73.93936,40.694546087246025,-73.95801365375519,member
981229,285CFED743814671,electric_bike,2021-06-08 15:00:46,2021-06-08 15:18:05,Metropolitan Ave & Bedford Ave,5308,Franklin Ave & Myrtle Ave,4715,40.715348,-73.960241,40.694546087246025,-73.95801365375519,casual
981253,350D3847EFD1A5EC,electric_bike,2021-06-13 20:43:43,2021-06-13 21:10:01,DeKalb Ave & Franklin Ave,4528,Franklin Ave & Myrtle Ave,4715,40.690648,-73.957461,40.694546087246025,-73.95801365375519,member
981316,8E9790F3090B72D7,electric_bike,2021-06-20 19:37:24,2021-06-20 19:52:19,Bond St & Fulton St,4479,Franklin Ave & Myrtle Ave,4715,40.689621,-73.983042,40.694546087246025,-73.95801365375519,member
981317,76D2E3679E1C489F,electric_bike,2021-06-13 20:49:29,2021-06-13 21:10:13,Lafayette Ave & Classon Ave,4452,Franklin Ave & Myrtle Ave,4715,40.689004,-73.960238,40.694546087246025,-73.95801365375519,member
981345,9196A1CEDBDCA693,electric_bike,2021-06-23 22:32:56,2021-06-23 22:54:01,10 St & 7 Ave,3762,Franklin Ave & Myrtle Ave,4715,40.6662078,-73.98199886,40.694546087246025,-73.95801365375519,member
981371,0DB96515560AEEE6,docked_bike,2021-06-13 02:31:37,2021-06-13 03:05:35,Roebling St & N 4 St,5267,Franklin Ave & Myrtle Ave,4715,40.71469,-73.95739,40.694546087246025,-73.95801365375519,member
981379,CE4719BFEEF5187F,electric_bike,2021-06-21 06:28:16,2021-06-21 06:46:06,Forest Ave & Summerfield St,4798,Franklin Ave & Myrtle Ave,4715,40.69922,-73.89795,40.694546087246025,-73.95801365375519,member
981381,73C3672805D1C623,classic_bike,2021-06-21 17:47:08,2021-06-21 18:02:32,Stagg St & Union Ave,5117,Franklin Ave & Myrtle Ave,4715,40.70877084,-73.95095259,40.694546087246025,-73.95801365375519,casual
981391,8D47F1A71DE01B30,classic_bike,2021-06-26 12:47:55,2021-06-26 13:05:42,Front St & Washington St,4936,Franklin Ave & Myrtle Ave,4715,40.70255088,-73.98940236,40.694546087246025,-73.95801365375519,member
981393,D782C4458316237F,electric_bike,2021-06-28 09:33:35,2021-06-28 09:46:09,Bushwick Ave & Harman St,4640,Franklin Ave & Myrtle Ave,4715,40.69356,-73.92524,40.694546087246025,-73.95801365375519,casual
981400,1A4C23445F225EB9,electric_bike,2021-06-24 06:05:27,2021-06-24 06:21:56,Forest Ave & Summerfield St,4798,Franklin Ave & Myrtle Ave,4715,40.69922,-73.89795,40.694546087246025,-73.95801365375519,member
981429,A223C8A3D93CD4B8,docked_bike,2021-06-17 12:36:28,2021-06-17 12:46:43,Carlton Ave & Park Ave,4732,Franklin Ave & Myrtle Ave,4715,40.695807,-73.973555,40.694546087246025,-73.95801365375519,member
981457,D2854BE710C756B6,electric_bike,2021-06-19 08:10:35,2021-06-19 09:11:29,Berry St & N 8 St,5379,Franklin Ave & Myrtle Ave,4715,40.7190095,-73.95852515,40.694546087246025,-73.95801365375519,member
981459,CCB0C66880751943,electric_bike,2021-06-20 12:19:33,2021-06-20 12:34:43,Berry St & N 8 St,5379,Franklin Ave & Myrtle Ave,4715,40.719009,-73.958525,40.694546087246025,-73.95801365375519,member
981461,97D830EEA7A9735B,electric_bike,2021-06-27 18:38:40,2021-06-27 18:50:09,Greene Ave & Throop Ave,4510,Franklin Ave & Myrtle Ave,4715,40.6894932,-73.942061,40.694546087246025,-73.95801365375519,casual
981472,40A4A99C0A21A51E,docked_bike,2021-06-06 14:08:59,2021-06-06 14:32:42,Berry St & N 8 St,5379,Franklin Ave & Myrtle Ave,4715,40.719009,-73.958525,40.694546087246025,-73.95801365375519,casual
981497,9B4096F73FA27E87,docked_bike,2021-06-03 12:52:18,2021-06-03 13:02:34,S 4 St & Rodney St,5156,Franklin Ave & Myrtle Ave,4715,40.70934,-73.95608,40.694546087246025,-73.95801365375519,casual
981504,85FE5CAC2A69D8F3,electric_bike,2021-06-30 08:57:44,2021-06-30 09:12:04,Myrtle Ave & Fleet Pl,4628,Franklin Ave & Myrtle Ave,4715,40.693534,-73.981909,40.694546087246025,-73.95801365375519,member
981505,703FF1272212FEC1,docked_bike,2021-06-27 02:06:07,2021-06-27 02:14:30,Myrtle Ave & Fleet Pl,4628,Franklin Ave & Myrtle Ave,4715,40.693534,-73.981909,40.694546,-73.958014,casual
981512,A801D0F38A56F01B,classic_bike,2021-06-28 01:10:01,2021-06-28 01:47:47,University Pl & E 8 St,5755,Franklin Ave & Myrtle Ave,4715,40.73143724085228,-73.99490341544151,40.694546087246025,-73.95801365375519,casual
981533,E208286B66EE6D03,docked_bike,2021-06-09 20:35:26,2021-06-09 21:41:05,Myrtle Ave & Fleet Pl,4628,Franklin Ave & Myrtle Ave,4715,40.693534,-73.981909,40.694546087246025,-73.95801365375519,member
