,external_id,legacy_id,lon,lat,short_name,eightd_has_key_dispenser,name,capacity,has_kiosk,eightd_station_services,station_type,rental_methods,station_id,electric_bike_surcharge_waiver,region_id,rental_uris.ios,rental_uris.android
0,66db237e-0aca-11e7-82f6-3863bb44ef7c,72,-73.99392888,40.76727216,6926.01,False,W 52 St & 11 Ave,55,True,[],classic,"['CREDITCARD', 'KEY']",72,False,71,https://bkn.lft.to/lastmile_qr_scan,https://bkn.lft.to/lastmile_qr_scan
1,66db269c-0aca-11e7-82f6-3863bb44ef7c,79,-74.00666661,40.71911552,5430.08,False,Franklin St & W Broadway,33,True,[],classic,"['CREDITCARD', 'KEY']",79,False,71,https://bkn.lft.to/lastmile_qr_scan,https://bkn.lft.to/lastmile_qr_scan
2,66db277a-0aca-11e7-82f6-3863bb44ef7c,82,-74.00016545,40.71117416,5167.06,False,St James Pl & Pearl St,27,True,[],classic,"['CREDITCARD', 'KEY']",82,False,71,https://bkn.lft.to/lastmile_qr_scan,https://bkn.lft.to/lastmile_qr_scan
3,66db281e-0aca-11e7-82f6-3863bb44ef7c,83,-73.97632328,40.68382604,4354.07,False,Atlantic Ave & Fort Greene Pl,62,True,[],classic,"['CREDITCARD', 'KEY']",83,False,71,https://bkn.lft.to/lastmile_qr_scan,https://bkn.lft.to/lastmile_qr_scan
4,66db28b5-0aca-11e7-82f6-3863bb44ef7c,116,-74.00149746,40.74177603,6148.02,False,W 17 St & 8 Ave,50,True,[],classic,"['CREDITCARD', 'KEY']",116,False,71,https://bkn.lft.to/lastmile_qr_scan,https://bkn.lft.to/lastmile_qr_scan
5,66db2953-0aca-11e7-82f6-3863bb44ef7c,119,-73.97803415,40.69608941,4700.06,False,Park Ave & St Edwards St,53,True,[],classic,"['CREDITCARD', 'KEY']",119,False,71,https://bkn.lft.to/lastmile_qr_scan,https://bkn.lft.to/lastmile_qr_scan
6,66db29e6-0aca-11e7-82f6-3863bb44ef7c,120,-73.95928168,40.68676793,4452.03,False,Lexington Ave & Classon Ave,19,True,[],classic,"['CREDITCARD', 'KEY']",120,False,71,https://bkn.lft.to/lastmile_qr_scan,https://bkn.lft.to/lastmile_qr_scan
7,66db2a71-0aca-11e7-82f6-3863bb44ef7c,127,-74.00674436,40.73172428,5805.05,False,Barrow St & Hudson St,31,True,[],classic,"['CREDITCARD', 'KEY']",127,False,71,https://bkn.lft.to/lastmile_qr_scan,https://bkn.lft.to/lastmile_qr_scan
8,66db2afe-0aca-11e7-82f6-3863bb44ef7c,128,-74.00297088,40.72710258,5687.04,False,MacDougal St & Prince St,56,True,[],classic,"['CREDITCARD', 'KEY']",128,False,71,https://bkn.lft.to/lastmile_qr_scan,https://bkn.lft.to/lastmile_qr_scan
9,66db2d2b-0aca-11e7-82f6-3863bb44ef7c,143,-73.99337909,40.69239502,4605.04,False,Clinton St & Joralemon St,50,True,[],classic,"['CREDITCARD', 'KEY']",143,False,71,https://bkn.lft.to/lastmile_qr_scan,https://bkn.lft.to/lastmile_qr_scan
10,66db2db5-0aca-11e7-82f6-3863bb44ef7c,144,-73.98068914,40.69839895,4812.02,False,Nassau St & Navy St,58,True,[],classic,"['CREDITCARD', 'KEY']",144,False,71,https://bkn.lft.to/lastmile_qr_scan,https://bkn.lft.to/lastmile_qr_scan
11,66db2e3a-0aca-11e7-82f6-3863bb44ef7c,146,-74.0091059,40.71625008,5359.10,False,Hudson St & Reade St,55,True,[],classic,"['CREDITCARD', 'KEY']",146,False,71,https://bkn.lft.to/lastmile_qr_scan,https://bkn.lft.to/lastmile_qr_scan
12,66db2f4c-0aca-11e7-82f6-3863bb44ef7c,150,-73.98085795,40.7208736,5476.03,False,E 2 St & Avenue C,56,True,[],classic,"['CREDITCARD', 'KEY']",150,False,71,https://bkn.lft.to/lastmile_qr_scan,https://bkn.lft.to/lastmile_qr_scan
13,66db2fd0-0aca-11e7-82f6-3863bb44ef7c,151,-73.99724900722504,40.722103786686034,5492.05,False,Cleveland Pl & Spring St,33,True,[],classic,"['CREDITCARD', 'KEY']",151,False,71,https://bkn.lft.to/lastmile_qr_scan,https://bkn.lft.to/lastmile_qr_scan
14,66db3053-0aca-11e7-82f6-3863bb44ef7c,152,-74.00910627,40.71473993,5288.09,False,Warren St & W Broadway,49,True,[],classic,"['CREDITCARD', 'KEY']",152,False,71,https://bkn.lft.to/lastmile_qr_scan,https://bkn.lft.to/lastmile_qr_scan
15,66db30e0-0aca-11e7-82f6-3863bb44ef7c,153,-73.9816324043,40.752062307,6474.11,False,E 40 St & 5 Ave,63,True,[],classic,"['CREDITCARD', 'KEY']",153,False,71,https://bkn.lft.to/lastmile_qr_scan,https://bkn.lft.to/lastmile_qr_scan
16,66db316a-0aca-11e7-82f6-3863bb44ef7c,157,-73.99612349,40.69089272,4531.05,False,Henry St & Atlantic Ave,23,True,[],classic,"['CREDITCARD', 'KEY']",157,False,71,https://bkn.lft.to/lastmile_qr_scan,https://bkn.lft.to/lastmile_qr_scan
17,66db3273-0aca-11e7-82f6-3863bb44ef7c,161,-73.99810231,40.72917025,5721.14,False,LaGuardia Pl & W 3 St,35,True,[],classic,"['CREDITCARD', 'KEY']",161,False,71,https://bkn.lft.to/lastmile_qr_scan,https://bkn.lft.to/lastmile_qr_scan
18,66db32fb-0aca-11e7-82f6-3863bb44ef7c,164,-73.97032517,40.75323098,6498.10,False,E 47 St & 2 Ave,77,True,[],classic,"['CREDITCARD', 'KEY']",164,False,71,https://bkn.lft.to/lastmile_qr_scan,https://bkn.lft.to/lastmile_qr_scan
19,66db33fc-0aca-11e7-82f6-3863bb44ef7c,168,-73.99456405,40.73971301,6064.08,False,W 18 St & 6 Ave,47,True,[],classic,"['CREDITCARD', 'KEY']",168,False,71,https://bkn.lft.to/lastmile_qr_scan,https://bkn.lft.to/lastmile_qr_scan
20,66db34fc-0aca-11e7-82f6-3863bb44ef7c,174,-73.97738662,40.7381765,6004.07,False,E 25 St & 1 Ave,35,True,[],classic,"['CREDITCARD', 'KEY']",174,False,71,https://bkn.lft.to/lastmile_qr_scan,https://bkn.lft.to/lastmile_qr_scan
21,66db3606-0aca-11e7-82f6-3863bb44ef7c,212,-74.00681753,40.74334935,6233.05,False,W 16 St & The High Line,60,True,[],classic,"['CREDITCARD', 'KEY']",212,False,71,https://bkn.lft.to/lastmile_qr_scan,https://bkn.lft.to/lastmile_qr_scan
22,66db3687-0aca-11e7-82f6-3863bb44ef7c,216,-73.99548059,40.70037867,4829.01,False,Columbia Heights & Cranberry St,37,True,[],classic,"['CREDITCARD', 'KEY']",216,False,71,https://bkn.lft.to/lastmile_qr_scan,https://bkn.lft.to/lastmile_qr_scan
23,66db3708-0aca-11e7-82f6-3863bb44ef7c,217,-73.99383605,40.70277159,4903.08,False,Old Fulton St,39,True,[],classic,"['CREDITCARD', 'KEY']",217,False,71,https://bkn.lft.to/lastmile_qr_scan,https://bkn.lft.to/lastmile_qr_scan
24,66db3816-0aca-11e7-82f6-3863bb44ef7c,223,-73.99994661,40.73781509,6030.04,False,W 13 St & 7 Ave,33,True,[],classic,"['CREDITCARD', 'KEY']",223,False,71,https://bkn.lft.to/lastmile_qr_scan,https://bkn.lft.to/lastmile_qr_scan
25,66db3898-0aca-11e7-82f6-3863bb44ef7c,224,-74.00552427,40.71146364,5137.10,False,Spruce St & Nassau St,34,True,[],classic,"['CREDITCARD', 'KEY']",224,False,71,https://bkn.lft.to/lastmile_qr_scan,https://bkn.lft.to/lastmile_qr_scan
26,66db3997-0aca-11e7-82f6-3863bb44ef7c,228,-73.971878855,40.7546011026,6541.03,False,E 48 St & 3 Ave,55,True,[],classic,"['CREDITCARD', 'KEY']",228,False,71,https://bkn.lft.to/lastmile_qr_scan,https://bkn.lft.to/lastmile_qr_scan
27,66db3a1e-0aca-11e7-82f6-3863bb44ef7c,229,-73.99379025,40.72743423,5636.11,False,Great Jones St,23,True,[],classic,"['CREDITCARD', 'KEY']",229,False,71,https://bkn.lft.to/lastmile_qr_scan,https://bkn.lft.to/lastmile_qr_scan
28,66db3aa3-0aca-11e7-82f6-3863bb44ef7c,232,-73.99014892,40.69597683,4677.01,False,Cadman Plaza E & Tillary St,52,True,[],classic,"['CREDITCARD', 'KEY']",232,False,71,https://bkn.lft.to/lastmile_qr_scan,https://bkn.lft.to/lastmile_qr_scan
29,66db3ba0-0aca-11e7-82f6-3863bb44ef7c,236,-73.98713956,40.7284186,5669.10,False,St Marks Pl & 2 Ave,51,True,[],classic,"['CREDITCARD', 'KEY']",236,False,71,https://bkn.lft.to/lastmile_qr_scan,https://bkn.lft.to/lastmile_qr_scan
30,66db3cab-0aca-11e7-82f6-3863bb44ef7c,238,-74.00859207,40.7361967,5964.01,False,Bank St & Washington St,31,True,[],classic,"['CREDITCARD', 'KEY']",238,False,71,https://bkn.lft.to/lastmile_qr_scan,https://bkn.lft.to/lastmile_qr_scan
31,66db3d2a-0aca-11e7-82f6-3863bb44ef7c,239,-73.9813018,40.69196566,4628.05,False,Willoughby St & Fleet St,62,True,[],classic,"['CREDITCARD', 'KEY']",239,False,71,https://bkn.lft.to/lastmile_qr_scan,https://bkn.lft.to/lastmile_qr_scan
32,66db3da9-0aca-11e7-82f6-3863bb44ef7c,241,-73.97493121,40.68981035,4546.04,False,DeKalb Ave & S Portland Ave,23,True,[],classic,"['CREDITCARD', 'KEY']",241,False,71,https://bkn.lft.to/lastmile_qr_scan,https://bkn.lft.to/lastmile_qr_scan
33,66db3e32-0aca-11e7-82f6-3863bb44ef7c,242,-73.973736,40.697787,4732.08,False,Carlton Ave & Flushing Ave,46,True,[],classic,"['CREDITCARD', 'KEY']",242,False,71,https://bkn.lft.to/lastmile_qr_scan,https://bkn.lft.to/lastmile_qr_scan
34,66db3f01-0aca-11e7-82f6-3863bb44ef7c,244,-73.96536851,40.69196035,4611.03,False,Willoughby Ave & Hall St,51,True,[],classic,"['CREDITCARD', 'KEY']",244,False,71,https://bkn.lft.to/lastmile_qr_scan,https://bkn.lft.to/lastmile_qr_scan
35,66db3f62-0aca-11e7-82f6-3863bb44ef7c,245,-73.97703874,40.69327018,4659.02,False,Myrtle Ave & St Edwards St,56,True,[],classic,"['CREDITCARD', 'KEY']",245,False,71,https://bkn.lft.to/lastmile_qr_scan,https://bkn.lft.to/lastmile_qr_scan
36,66db3fc9-0aca-11e7-82f6-3863bb44ef7c,247,-74.00483091,40.73535398,5922.07,False,Perry St & Bleecker St,79,True,[],classic,"['CREDITCARD', 'KEY']",247,False,71,https://bkn.lft.to/lastmile_qr_scan,https://bkn.lft.to/lastmile_qr_scan
37,66db402c-0aca-11e7-82f6-3863bb44ef7c,248,-74.00771779,40.72185379,5539.06,False,Laight St & Hudson St,91,True,[],classic,"['CREDITCARD', 'KEY']",248,False,71,https://bkn.lft.to/lastmile_qr_scan,https://bkn.lft.to/lastmile_qr_scan
38,66db408f-0aca-11e7-82f6-3863bb44ef7c,249,-74.0090009,40.71870987,5400.05,False,Harrison St & Hudson St,27,True,[],classic,"['CREDITCARD', 'KEY']",249,False,71,https://bkn.lft.to/lastmile_qr_scan,https://bkn.lft.to/lastmile_qr_scan
39,66db40ef-0aca-11e7-82f6-3863bb44ef7c,250,-73.99565293,40.72456089,5561.06,False,Lafayette St & Jersey St,40,True,[],classic,"['CREDITCARD', 'KEY']",250,False,71,https://bkn.lft.to/lastmile_qr_scan,https://bkn.lft.to/lastmile_qr_scan
40,66db4158-0aca-11e7-82f6-3863bb44ef7c,251,-73.99480012,40.72317958,5561.04,False,Mott St & Prince St,27,True,[],classic,"['CREDITCARD', 'KEY']",251,False,71,https://bkn.lft.to/lastmile_qr_scan,https://bkn.lft.to/lastmile_qr_scan
41,66db41bf-0aca-11e7-82f6-3863bb44ef7c,252,-73.99852205,40.73226398,5797.01,False,MacDougal St & Washington Sq,33,True,[],classic,"['CREDITCARD', 'KEY']",252,False,71,https://bkn.lft.to/lastmile_qr_scan,https://bkn.lft.to/lastmile_qr_scan
42,66db4282-0aca-11e7-82f6-3863bb44ef7c,254,-73.99800419,40.73532427,5914.03,False,W 11 St & 6 Ave,47,True,[],classic,"['CREDITCARD', 'KEY']",254,False,71,https://bkn.lft.to/lastmile_qr_scan,https://bkn.lft.to/lastmile_qr_scan
43,66db4351-0aca-11e7-82f6-3863bb44ef7c,257,-74.00247214,40.71939226,5391.06,False,Lispenard St & Broadway,70,True,[],classic,"['CREDITCARD', 'KEY']",257,False,71,https://bkn.lft.to/lastmile_qr_scan,https://bkn.lft.to/lastmile_qr_scan
44,66db43b5-0aca-11e7-82f6-3863bb44ef7c,258,-73.96885458,40.68940747,4461.04,False,DeKalb Ave & Vanderbilt Ave,23,True,[],classic,"['CREDITCARD', 'KEY']",258,False,71,https://bkn.lft.to/lastmile_qr_scan,https://bkn.lft.to/lastmile_qr_scan
45,66db4417-0aca-11e7-82f6-3863bb44ef7c,259,-74.01234218,40.70122128,4846.01,False,South St & Whitehall St,39,True,[],classic,"['CREDITCARD', 'KEY']",259,False,71,https://bkn.lft.to/lastmile_qr_scan,https://bkn.lft.to/lastmile_qr_scan
46,66db447a-0aca-11e7-82f6-3863bb44ef7c,260,-74.01167797,40.70365182,4962.08,False,Broad St & Bridge St,33,True,[],classic,"['CREDITCARD', 'KEY']",260,False,71,https://bkn.lft.to/lastmile_qr_scan,https://bkn.lft.to/lastmile_qr_scan
47,66db44e5-0aca-11e7-82f6-3863bb44ef7c,261,-73.98362464,40.69474881,4668.08,False,Johnson St & Gold St,41,True,[],classic,"['CREDITCARD', 'KEY']",261,False,71,https://bkn.lft.to/lastmile_qr_scan,https://bkn.lft.to/lastmile_qr_scan
48,66db4549-0aca-11e7-82f6-3863bb44ef7c,262,-73.9737299,40.6917823,4546.05,False,Washington Park,24,True,[],classic,"['CREDITCARD', 'KEY']",262,False,71,https://bkn.lft.to/lastmile_qr_scan,https://bkn.lft.to/lastmile_qr_scan
49,66db460d-0aca-11e7-82f6-3863bb44ef7c,264,-74.00731853,40.70706456,5065.10,False,Maiden Ln & Pearl St,29,True,[],classic,"['CREDITCARD', 'KEY']",264,False,71,https://bkn.lft.to/lastmile_qr_scan,https://bkn.lft.to/lastmile_qr_scan
50,66db4671-0aca-11e7-82f6-3863bb44ef7c,265,-73.99147535,40.72229346,5523.02,False,Stanton St & Chrystie St,35,True,[],classic,"['CREDITCARD', 'KEY']",265,False,71,https://bkn.lft.to/lastmile_qr_scan,https://bkn.lft.to/lastmile_qr_scan
51,66db46d7-0aca-11e7-82f6-3863bb44ef7c,266,-73.97574813,40.72368361,5506.10,False,Ave D & E 8 St,30,True,[],classic,"['CREDITCARD', 'KEY']",266,False,71,https://bkn.lft.to/lastmile_qr_scan,https://bkn.lft.to/lastmile_qr_scan
52,66db473c-0aca-11e7-82f6-3863bb44ef7c,267,-73.98765428,40.75097711,6441.01,False,Broadway & W 36 St,78,True,[],classic,"['CREDITCARD', 'KEY']",267,False,71,https://bkn.lft.to/lastmile_qr_scan,https://bkn.lft.to/lastmile_qr_scan
53,66db479e-0aca-11e7-82f6-3863bb44ef7c,268,-73.99973337,40.71910537,5422.04,False,Howard St & Lafayette St,27,True,[],classic,"['CREDITCARD', 'KEY']",268,False,71,https://bkn.lft.to/lastmile_qr_scan,https://bkn.lft.to/lastmile_qr_scan
54,66db5c14-0aca-11e7-82f6-3863bb44ef7c,270,-73.97178913,40.69308257,4620.02,False,Adelphi St & Myrtle Ave,28,True,[],classic,"['CREDITCARD', 'KEY']",270,False,71,https://bkn.lft.to/lastmile_qr_scan,https://bkn.lft.to/lastmile_qr_scan
55,66db5d92-0aca-11e7-82f6-3863bb44ef7c,275,-73.96563307,40.68650065,4419.03,False,Washington Ave & Greene Ave,19,True,[],classic,"['CREDITCARD', 'KEY']",275,False,71,https://bkn.lft.to/lastmile_qr_scan,https://bkn.lft.to/lastmile_qr_scan
56,66db5e6a-0aca-11e7-82f6-3863bb44ef7c,278,-73.98476437,40.69766564,4781.03,False,Concord St & Bridge St,19,True,[],classic,"['CREDITCARD', 'KEY']",278,False,71,https://bkn.lft.to/lastmile_qr_scan,https://bkn.lft.to/lastmile_qr_scan
57,66db5fae-0aca-11e7-82f6-3863bb44ef7c,281,-73.97371465,40.7643971,6839.10,False,Grand Army Plaza & Central Park S,66,True,[],classic,"['CREDITCARD', 'KEY']",281,False,71,https://bkn.lft.to/lastmile_qr_scan,https://bkn.lft.to/lastmile_qr_scan
58,66db631c-0aca-11e7-82f6-3863bb44ef7c,284,-74.0026376103,40.7390169121,6072.06,False,Greenwich Ave & 8 Ave,51,True,[],classic,"['CREDITCARD', 'KEY']",284,False,71,https://bkn.lft.to/lastmile_qr_scan,https://bkn.lft.to/lastmile_qr_scan
59,66db6387-0aca-11e7-82f6-3863bb44ef7c,285,-73.99074142,40.73454567,5905.12,False,Broadway & E 14 St,78,True,[],classic,"['CREDITCARD', 'KEY']",285,False,71,https://bkn.lft.to/lastmile_qr_scan,https://bkn.lft.to/lastmile_qr_scan
60,66db63f4-0aca-11e7-82f6-3863bb44ef7c,289,-73.95881081,40.6845683,4336.01,False,Monroe St & Classon Ave,19,True,[],classic,"['CREDITCARD', 'KEY']",289,False,71,https://bkn.lft.to/lastmile_qr_scan,https://bkn.lft.to/lastmile_qr_scan
61,66db64d1-0aca-11e7-82f6-3863bb44ef7c,291,-73.984844,40.713126,5262.09,False,Madison St & Montgomery St,20,True,[],classic,"['CREDITCARD', 'KEY']",291,False,71,https://bkn.lft.to/lastmile_qr_scan,https://bkn.lft.to/lastmile_qr_scan
62,66db65aa-0aca-11e7-82f6-3863bb44ef7c,293,-73.99102628231049,40.73020660529954,5788.13,False,Lafayette St & E 8 St,91,True,[],classic,"['CREDITCARD', 'KEY']",293,False,71,https://bkn.lft.to/lastmile_qr_scan,https://bkn.lft.to/lastmile_qr_scan
63,66db67d2-0aca-11e7-82f6-3863bb44ef7c,294,-73.9957214,40.73049393,5755.09,False,Washington Square E,64,True,[],classic,"['CREDITCARD', 'KEY']",294,False,71,https://bkn.lft.to/lastmile_qr_scan,https://bkn.lft.to/lastmile_qr_scan
64,66db6889-0aca-11e7-82f6-3863bb44ef7c,295,-73.99293911,40.71406667,5270.05,False,Pike St & E Broadway,24,True,[],classic,"['CREDITCARD', 'KEY']",295,False,71,https://bkn.lft.to/lastmile_qr_scan,https://bkn.lft.to/lastmile_qr_scan
65,66db6963-0aca-11e7-82f6-3863bb44ef7c,297,-73.986923,40.734232,5863.07,False,E 15 St & 3 Ave,77,True,[],classic,"['CREDITCARD', 'KEY']",297,False,71,https://bkn.lft.to/lastmile_qr_scan,https://bkn.lft.to/lastmile_qr_scan
66,66db69d0-0aca-11e7-82f6-3863bb44ef7c,298,-73.9796772,40.68683208,4437.01,False,3 Ave & Schermerhorn St,35,True,[],classic,"['CREDITCARD', 'KEY']",298,False,71,https://bkn.lft.to/lastmile_qr_scan,https://bkn.lft.to/lastmile_qr_scan
67,66db6aae-0aca-11e7-82f6-3863bb44ef7c,301,-73.98368779,40.72217444,5515.02,False,E 2 St & Avenue B,58,True,[],classic,"['CREDITCARD', 'KEY']",301,False,71,https://bkn.lft.to/lastmile_qr_scan,https://bkn.lft.to/lastmile_qr_scan
68,66db6cd4-0aca-11e7-82f6-3863bb44ef7c,302,-73.97793172,40.72082834,5436.09,False,Avenue D & E 3 St,37,True,[],classic,"['CREDITCARD', 'KEY']",302,False,71,https://bkn.lft.to/lastmile_qr_scan,https://bkn.lft.to/lastmile_qr_scan
69,66db6d40-0aca-11e7-82f6-3863bb44ef7c,303,-73.99949601,40.72362738,5532.01,False,Mercer St & Spring St,67,True,[],classic,"['CREDITCARD', 'KEY']",303,False,71,https://bkn.lft.to/lastmile_qr_scan,https://bkn.lft.to/lastmile_qr_scan
70,66db6da2-0aca-11e7-82f6-3863bb44ef7c,304,-74.01361706,40.70463334,4962.01,False,Broadway & Battery Pl,48,True,[],classic,"['CREDITCARD', 'KEY']",304,False,71,https://bkn.lft.to/lastmile_qr_scan,https://bkn.lft.to/lastmile_qr_scan
71,66db6e49-0aca-11e7-82f6-3863bb44ef7c,305,-73.96724467,40.76095756,6762.02,False,E 58 St & 3 Ave,33,True,[],classic,"['CREDITCARD', 'KEY']",305,False,71,https://bkn.lft.to/lastmile_qr_scan,https://bkn.lft.to/lastmile_qr_scan
72,66db6f2e-0aca-11e7-82f6-3863bb44ef7c,307,-73.98990025,40.71427487,5303.08,False,Canal St & Rutgers St,31,True,[],classic,"['CREDITCARD', 'KEY']",307,False,71,https://bkn.lft.to/lastmile_qr_scan,https://bkn.lft.to/lastmile_qr_scan
73,66db7152-0aca-11e7-82f6-3863bb44ef7c,308,-73.99851193,40.71307916,5238.05,False,St James Pl & Oliver St,48,True,[],classic,"['CREDITCARD', 'KEY']",308,False,71,https://bkn.lft.to/lastmile_qr_scan,https://bkn.lft.to/lastmile_qr_scan
74,66db71be-0aca-11e7-82f6-3863bb44ef7c,309,-74.013012,40.7149787,5329.06,False,Murray St & West St,41,True,[],classic,"['CREDITCARD', 'KEY']",309,False,71,https://bkn.lft.to/lastmile_qr_scan,https://bkn.lft.to/lastmile_qr_scan
75,66db728c-0aca-11e7-82f6-3863bb44ef7c,311,-73.98802084,40.7172274,5374.01,False,Norfolk St & Broome St,59,True,[],classic,"['CREDITCARD', 'KEY']",311,False,71,https://bkn.lft.to/lastmile_qr_scan,https://bkn.lft.to/lastmile_qr_scan
76,66db72f1-0aca-11e7-82f6-3863bb44ef7c,312,-73.989111,40.722055,5484.09,False,Allen St & Stanton St,33,True,[],classic,"['CREDITCARD', 'KEY']",312,False,71,https://bkn.lft.to/lastmile_qr_scan,https://bkn.lft.to/lastmile_qr_scan
77,66db74a5-0aca-11e7-82f6-3863bb44ef7c,313,-73.96751037,40.69610226,4724.03,False,Washington Ave & Park Ave,55,True,[],classic,"['CREDITCARD', 'KEY']",313,False,71,https://bkn.lft.to/lastmile_qr_scan,https://bkn.lft.to/lastmile_qr_scan
78,66db75cc-0aca-11e7-82f6-3863bb44ef7c,315,-74.00670227,40.70355377,4953.04,False,South St & Gouverneur Ln,29,True,[],classic,"['CREDITCARD', 'KEY']",315,False,71,https://bkn.lft.to/lastmile_qr_scan,https://bkn.lft.to/lastmile_qr_scan
79,66db7637-0aca-11e7-82f6-3863bb44ef7c,316,-74.00655090808868,40.70960089363537,5137.11,False,Fulton St & William St,43,True,[],classic,"['CREDITCARD', 'KEY']",316,False,71,https://bkn.lft.to/lastmile_qr_scan,https://bkn.lft.to/lastmile_qr_scan
80,66db76a1-0aca-11e7-82f6-3863bb44ef7c,317,-73.98185424,40.72453734,5584.04,False,E 6 St & Avenue B,67,True,[],classic,"['CREDITCARD', 'KEY']",317,False,71,https://bkn.lft.to/lastmile_qr_scan,https://bkn.lft.to/lastmile_qr_scan
81,66db79a3-0aca-11e7-82f6-3863bb44ef7c,319,-74.009447,40.711066,5175.08,False,Fulton St & Broadway,33,True,[],classic,"['CREDITCARD', 'KEY']",319,False,71,https://bkn.lft.to/lastmile_qr_scan,https://bkn.lft.to/lastmile_qr_scan
82,66db7a0d-0aca-11e7-82f6-3863bb44ef7c,320,-74.005549,40.717571,5359.11,False,Leonard St & Church St,54,True,[],classic,"['CREDITCARD', 'KEY']",320,False,71,https://bkn.lft.to/lastmile_qr_scan,https://bkn.lft.to/lastmile_qr_scan
83,66db7a71-0aca-11e7-82f6-3863bb44ef7c,321,-73.98971773,40.69991755,4821.06,False,Cadman Plaza E & Red Cross Pl,39,True,[],classic,"['CREDITCARD', 'KEY']",321,False,71,https://bkn.lft.to/lastmile_qr_scan,https://bkn.lft.to/lastmile_qr_scan
84,66db88f5-0aca-11e7-82f6-3863bb44ef7c,323,-73.98631746,40.69236178,4596.09,False,Lawrence St & Willoughby St,39,True,[],classic,"['CREDITCARD', 'KEY']",323,False,71,https://bkn.lft.to/lastmile_qr_scan,https://bkn.lft.to/lastmile_qr_scan
85,66db89a3-0aca-11e7-82f6-3863bb44ef7c,324,-73.981013,40.689888,4513.06,False,DeKalb Ave & Hudson Ave,74,True,[],classic,"['CREDITCARD', 'KEY']",324,False,71,https://bkn.lft.to/lastmile_qr_scan,https://bkn.lft.to/lastmile_qr_scan
86,66db8c10-0aca-11e7-82f6-3863bb44ef7c,325,-73.98473765,40.73624527,5938.01,False,E 19 St & 3 Ave,35,True,[],classic,"['CREDITCARD', 'KEY']",325,False,71,https://bkn.lft.to/lastmile_qr_scan,https://bkn.lft.to/lastmile_qr_scan
87,66db8ca4-0aca-11e7-82f6-3863bb44ef7c,326,-73.98426726,40.72953837,5746.14,False,E 11 St & 1 Ave,41,True,[],classic,"['CREDITCARD', 'KEY']",326,False,71,https://bkn.lft.to/lastmile_qr_scan,https://bkn.lft.to/lastmile_qr_scan
88,66db8d89-0aca-11e7-82f6-3863bb44ef7c,327,-74.01658354,40.7153379,5297.02,False,Vesey Pl & River Terrace,39,True,[],classic,"['CREDITCARD', 'KEY']",327,False,71,https://bkn.lft.to/lastmile_qr_scan,https://bkn.lft.to/lastmile_qr_scan
89,66db8fde-0aca-11e7-82f6-3863bb44ef7c,328,-74.00965965,40.72405549,5578.02,False,Watts St & Greenwich St,35,True,[],classic,"['CREDITCARD', 'KEY']",328,False,71,https://bkn.lft.to/lastmile_qr_scan,https://bkn.lft.to/lastmile_qr_scan
90,66db90f1-0aca-11e7-82f6-3863bb44ef7c,330,-74.00562789,40.71450451,5247.10,False,Reade St & Broadway,42,True,[],classic,"['CREDITCARD', 'KEY']",330,False,71,https://bkn.lft.to/lastmile_qr_scan,https://bkn.lft.to/lastmile_qr_scan
91,66db930d-0aca-11e7-82f6-3863bb44ef7c,331,-73.99193043,40.71173107,5159.04,False,Pike St & Monroe St,27,True,[],classic,"['CREDITCARD', 'KEY']",331,False,71,https://bkn.lft.to/lastmile_qr_scan,https://bkn.lft.to/lastmile_qr_scan
92,66db93a1-0aca-11e7-82f6-3863bb44ef7c,332,-73.97948148,40.71219906,5181.04,False,Cherry St,36,True,[],classic,"['CREDITCARD', 'KEY']",332,False,71,https://bkn.lft.to/lastmile_qr_scan,https://bkn.lft.to/lastmile_qr_scan
93,66db95e5-0aca-11e7-82f6-3863bb44ef7c,334,-73.99726235,40.74238787,6182.02,False,W 20 St & 7 Ave,44,True,[],classic,"['CREDITCARD', 'KEY']",334,False,71,https://bkn.lft.to/lastmile_qr_scan,https://bkn.lft.to/lastmile_qr_scan
94,66db9675-0aca-11e7-82f6-3863bb44ef7c,335,-73.99404649,40.72903917,5755.01,False,Washington Pl & Broadway,27,True,[],classic,"['CREDITCARD', 'KEY']",335,False,71,https://bkn.lft.to/lastmile_qr_scan,https://bkn.lft.to/lastmile_qr_scan
95,66db9845-0aca-11e7-82f6-3863bb44ef7c,336,-73.99906065,40.73047747,5721.01,False,Sullivan St & Washington Sq,57,True,[],classic,"['CREDITCARD', 'KEY']",336,False,71,https://bkn.lft.to/lastmile_qr_scan,https://bkn.lft.to/lastmile_qr_scan
96,66db9c2e-0aca-11e7-82f6-3863bb44ef7c,339,-73.97422494,40.72580614,5575.08,False,Avenue D & E 12 St,41,True,[],classic,"['CREDITCARD', 'KEY']",339,False,71,https://bkn.lft.to/lastmile_qr_scan,https://bkn.lft.to/lastmile_qr_scan
97,66db9cc4-0aca-11e7-82f6-3863bb44ef7c,340,-73.98776323,40.71269042,5190.07,False,Madison St & Clinton St,27,True,[],classic,"['CREDITCARD', 'KEY']",340,False,71,https://bkn.lft.to/lastmile_qr_scan,https://bkn.lft.to/lastmile_qr_scan
98,66db9e99-0aca-11e7-82f6-3863bb44ef7c,341,-73.97628939,40.71782143,5326.06,False,Stanton St & Mangin St,19,True,[],classic,"['CREDITCARD', 'KEY']",341,False,71,https://bkn.lft.to/lastmile_qr_scan,https://bkn.lft.to/lastmile_qr_scan
99,66dba0ba-0aca-11e7-82f6-3863bb44ef7c,342,-73.98016555,40.71739973,5365.02,False,Columbia St & Rivington St,29,True,[],classic,"['CREDITCARD', 'KEY']",342,False,71,https://bkn.lft.to/lastmile_qr_scan,https://bkn.lft.to/lastmile_qr_scan
100,66dba303-0aca-11e7-82f6-3863bb44ef7c,343,-73.96986848,40.69794,4762.04,False,Clinton Ave & Flushing Ave,23,True,[],classic,"['CREDITCARD', 'KEY']",343,False,71,https://bkn.lft.to/lastmile_qr_scan,https://bkn.lft.to/lastmile_qr_scan
101,66dbb869-0aca-11e7-82f6-3863bb44ef7c,344,-73.95380904,40.6851443,4368.05,False,Monroe St & Bedford Ave,23,True,[],classic,"['CREDITCARD', 'KEY']",344,False,71,https://bkn.lft.to/lastmile_qr_scan,https://bkn.lft.to/lastmile_qr_scan
102,66dbbc4a-0aca-11e7-82f6-3863bb44ef7c,346,-74.00618026,40.73652889,5922.08,False,Bank St & Hudson St,27,True,[],classic,"['CREDITCARD', 'KEY']",346,False,71,https://bkn.lft.to/lastmile_qr_scan,https://bkn.lft.to/lastmile_qr_scan
103,66dbbeda-0aca-11e7-82f6-3863bb44ef7c,347,-74.008591,40.728846,5730.08,False,Greenwich St & W Houston St,54,True,[],classic,"['CREDITCARD', 'KEY']",347,False,71,https://bkn.lft.to/lastmile_qr_scan,https://bkn.lft.to/lastmile_qr_scan
104,66dbc37a-0aca-11e7-82f6-3863bb44ef7c,349,-73.98329859,40.71850211,5406.02,False,Rivington St & Ridge St,61,True,[],classic,"['CREDITCARD', 'KEY']",349,False,71,https://bkn.lft.to/lastmile_qr_scan,https://bkn.lft.to/lastmile_qr_scan
105,66dbc420-0aca-11e7-82f6-3863bb44ef7c,350,-73.9870295,40.71559509,5303.06,False,Clinton St & Grand St,47,True,[],classic,"['CREDITCARD', 'KEY']",350,False,71,https://bkn.lft.to/lastmile_qr_scan,https://bkn.lft.to/lastmile_qr_scan
106,66dbc551-0aca-11e7-82f6-3863bb44ef7c,352,-73.97722479,40.76340613,6809.07,False,W 56 St & 6 Ave,36,True,[],classic,"['CREDITCARD', 'KEY']",352,False,71,https://bkn.lft.to/lastmile_qr_scan,https://bkn.lft.to/lastmile_qr_scan
107,66dbc60f-0aca-11e7-82f6-3863bb44ef7c,353,-73.97431458,40.68539567,4354.05,False,S Portland Ave & Hanson Pl,27,True,[],classic,"['CREDITCARD', 'KEY']",353,False,71,https://bkn.lft.to/lastmile_qr_scan,https://bkn.lft.to/lastmile_qr_scan
108,66dbc6ae-0aca-11e7-82f6-3863bb44ef7c,354,-73.96223558,40.69363137,4683.02,False,Emerson Pl & Myrtle Ave,63,True,[],classic,"['CREDITCARD', 'KEY']",354,False,71,https://bkn.lft.to/lastmile_qr_scan,https://bkn.lft.to/lastmile_qr_scan
109,66dbc745-0aca-11e7-82f6-3863bb44ef7c,355,-73.99974372,40.71602118,5351.03,False,Bayard St & Baxter St,43,True,[],classic,"['CREDITCARD', 'KEY']",355,False,71,https://bkn.lft.to/lastmile_qr_scan,https://bkn.lft.to/lastmile_qr_scan
110,66dbc7d2-0aca-11e7-82f6-3863bb44ef7c,356,-73.98261206,40.71622644,5335.03,False,Bialystoker Pl & Delancey St,23,True,[],classic,"['CREDITCARD', 'KEY']",356,False,71,https://bkn.lft.to/lastmile_qr_scan,https://bkn.lft.to/lastmile_qr_scan
111,66dbc8f5-0aca-11e7-82f6-3863bb44ef7c,358,-74.00711384,40.73291553,5847.01,False,Christopher St & Greenwich St,50,True,[],classic,"['CREDITCARD', 'KEY']",358,False,71,https://bkn.lft.to/lastmile_qr_scan,https://bkn.lft.to/lastmile_qr_scan
112,66dbc982-0aca-11e7-82f6-3863bb44ef7c,359,-73.97498696,40.75510267,6584.12,False,E 47 St & Park Ave,79,True,[],classic,"['CREDITCARD', 'KEY']",359,False,71,https://bkn.lft.to/lastmile_qr_scan,https://bkn.lft.to/lastmile_qr_scan
113,66dbca0f-0aca-11e7-82f6-3863bb44ef7c,360,-74.00887308,40.70717936,5065.12,False,William St & Pine St,39,True,[],classic,"['CREDITCARD', 'KEY']",360,False,71,https://bkn.lft.to/lastmile_qr_scan,https://bkn.lft.to/lastmile_qr_scan
114,66dbca9c-0aca-11e7-82f6-3863bb44ef7c,361,-73.99190759,40.71605866,5342.10,False,Allen St & Hester St,79,True,[],classic,"['CREDITCARD', 'KEY']",361,False,71,https://bkn.lft.to/lastmile_qr_scan,https://bkn.lft.to/lastmile_qr_scan
115,66dbcb2f-0aca-11e7-82f6-3863bb44ef7c,362,-73.98753523,40.75172632,6441.02,False,Broadway & W 37 St,57,True,[],classic,"['CREDITCARD', 'KEY']",362,False,71,https://bkn.lft.to/lastmile_qr_scan,https://bkn.lft.to/lastmile_qr_scan
116,66dbcbbc-0aca-11e7-82f6-3863bb44ef7c,363,-74.01713445,40.70834698,5114.06,False,West Thames St,73,True,[],classic,"['CREDITCARD', 'KEY']",363,False,71,https://bkn.lft.to/lastmile_qr_scan,https://bkn.lft.to/lastmile_qr_scan
117,66dbcc49-0aca-11e7-82f6-3863bb44ef7c,364,-73.96023854,40.68900443,4452.01,False,Lafayette Ave & Classon Ave,27,True,[],classic,"['CREDITCARD', 'KEY']",364,False,71,https://bkn.lft.to/lastmile_qr_scan,https://bkn.lft.to/lastmile_qr_scan
118,66dbcd6c-0aca-11e7-82f6-3863bb44ef7c,366,-73.968896,40.693261,4651.02,False,Clinton Ave & Myrtle Ave,33,True,[],classic,"['CREDITCARD', 'KEY']",366,False,71,https://bkn.lft.to/lastmile_qr_scan,https://bkn.lft.to/lastmile_qr_scan
119,66dbcdfc-0aca-11e7-82f6-3863bb44ef7c,367,-73.97069431,40.75828065,6617.09,False,E 53 St & Lexington Ave,43,True,[],classic,"['CREDITCARD', 'KEY']",367,False,71,https://bkn.lft.to/lastmile_qr_scan,https://bkn.lft.to/lastmile_qr_scan
120,66dbce8a-0aca-11e7-82f6-3863bb44ef7c,368,-74.00214988,40.73038599,5763.03,False,Carmine St & 6 Ave,47,True,[],classic,"['CREDITCARD', 'KEY']",368,False,71,https://bkn.lft.to/lastmile_qr_scan,https://bkn.lft.to/lastmile_qr_scan
121,66dbcf18-0aca-11e7-82f6-3863bb44ef7c,369,-74.00026394,40.73224119,5838.09,False,Washington Pl & 6 Ave,76,True,[],classic,"['CREDITCARD', 'KEY']",369,False,71,https://bkn.lft.to/lastmile_qr_scan,https://bkn.lft.to/lastmile_qr_scan
122,66dbe15d-0aca-11e7-82f6-3863bb44ef7c,372,-73.95801365375519,40.694546087246025,4715.01,False,Franklin Ave & Myrtle Ave,27,True,[],classic,"['CREDITCARD', 'KEY']",372,False,71,https://bkn.lft.to/lastmile_qr_scan,https://bkn.lft.to/lastmile_qr_scan
123,66dbe250-0aca-11e7-82f6-3863bb44ef7c,373,-73.95381995,40.69331716,4634.02,False,Willoughby Ave & Walworth St,19,True,[],classic,"['CREDITCARD', 'KEY']",373,False,71,https://bkn.lft.to/lastmile_qr_scan,https://bkn.lft.to/lastmile_qr_scan
124,66dbe3a2-0aca-11e7-82f6-3863bb44ef7c,376,-74.00722156,40.70862144,5065.04,False,John St & William St,19,True,[],classic,"['CREDITCARD', 'KEY']",376,False,71,https://bkn.lft.to/lastmile_qr_scan,https://bkn.lft.to/lastmile_qr_scan
125,66dbe441-0aca-11e7-82f6-3863bb44ef7c,377,-74.00566443,40.72243797,5500.07,False,6 Ave & Canal St,49,True,[],classic,"['CREDITCARD', 'KEY']",377,False,71,https://bkn.lft.to/lastmile_qr_scan,https://bkn.lft.to/lastmile_qr_scan
126,66dbe4db-0aca-11e7-82f6-3863bb44ef7c,379,-73.9916,40.749156,6331.01,False,W 31 St & 7 Ave,55,True,[],classic,"['CREDITCARD', 'KEY']",379,False,71,https://bkn.lft.to/lastmile_qr_scan,https://bkn.lft.to/lastmile_qr_scan
127,66dbe571-0aca-11e7-82f6-3863bb44ef7c,380,-74.00293877,40.73401143,5880.02,False,W 4 St & 7 Ave S,42,True,[],classic,"['CREDITCARD', 'KEY']",380,False,71,https://bkn.lft.to/lastmile_qr_scan,https://bkn.lft.to/lastmile_qr_scan
128,66dbe68e-0aca-11e7-82f6-3863bb44ef7c,383,-74.000271,40.735238,5914.08,False,Greenwich Ave & Charles St,39,True,[],classic,"['CREDITCARD', 'KEY']",383,False,71,https://bkn.lft.to/lastmile_qr_scan,https://bkn.lft.to/lastmile_qr_scan
129,66dbe7b6-0aca-11e7-82f6-3863bb44ef7c,385,-73.96603308,40.75797322,6650.07,False,E 55 St & 2 Ave,29,True,[],classic,"['CREDITCARD', 'KEY']",385,False,71,https://bkn.lft.to/lastmile_qr_scan,https://bkn.lft.to/lastmile_qr_scan
130,66dbe848-0aca-11e7-82f6-3863bb44ef7c,386,-74.00234482,40.71494807,5279.03,False,Centre St & Worth St,82,True,[],classic,"['CREDITCARD', 'KEY']",386,False,71,https://bkn.lft.to/lastmile_qr_scan,https://bkn.lft.to/lastmile_qr_scan
131,66dbe8d6-0aca-11e7-82f6-3863bb44ef7c,387,-74.0046073,40.71273266,5207.01,False,Centre St & Chambers St,39,True,[],classic,"['CREDITCARD', 'KEY']",387,False,71,https://bkn.lft.to/lastmile_qr_scan,https://bkn.lft.to/lastmile_qr_scan
132,66dbe96d-0aca-11e7-82f6-3863bb44ef7c,388,-74.002950346,40.749717753,6382.05,False,W 26 St & 10 Ave,35,True,[],classic,"['CREDITCARD', 'KEY']",388,False,71,https://bkn.lft.to/lastmile_qr_scan,https://bkn.lft.to/lastmile_qr_scan
133,66dbe9fc-0aca-11e7-82f6-3863bb44ef7c,389,-73.96525063,40.71044554,5164.04,False,Broadway & Berry St,27,True,[],classic,"['CREDITCARD', 'KEY']",389,False,71,https://bkn.lft.to/lastmile_qr_scan,https://bkn.lft.to/lastmile_qr_scan
134,66dbea8d-0aca-11e7-82f6-3863bb44ef7c,390,-73.9842844,40.69221589,4596.05,False,Duffield St & Willoughby St,48,True,[],classic,"['CREDITCARD', 'KEY']",390,False,71,https://bkn.lft.to/lastmile_qr_scan,https://bkn.lft.to/lastmile_qr_scan
135,66dbeb1b-0aca-11e7-82f6-3863bb44ef7c,391,-73.99344559,40.69760127,4789.03,False,Clark St & Henry St,43,True,[],classic,"['CREDITCARD', 'KEY']",391,False,71,https://bkn.lft.to/lastmile_qr_scan,https://bkn.lft.to/lastmile_qr_scan
136,66dbebad-0aca-11e7-82f6-3863bb44ef7c,392,-73.987167,40.695065,4710.06,False,Jay St & Tech Pl,35,True,[],classic,"['CREDITCARD', 'KEY']",392,False,71,https://bkn.lft.to/lastmile_qr_scan,https://bkn.lft.to/lastmile_qr_scan
137,66dbec40-0aca-11e7-82f6-3863bb44ef7c,393,-73.97995466,40.72299208,5545.04,False,E 5 St & Avenue C,37,True,[],classic,"['CREDITCARD', 'KEY']",393,False,71,https://bkn.lft.to/lastmile_qr_scan,https://bkn.lft.to/lastmile_qr_scan
138,66dbecd0-0aca-11e7-82f6-3863bb44ef7c,394,-73.97768752,40.72521311,5616.01,False,E 9 St & Avenue C,34,True,[],classic,"['CREDITCARD', 'KEY']",394,False,71,https://bkn.lft.to/lastmile_qr_scan,https://bkn.lft.to/lastmile_qr_scan
139,66dbeded-0aca-11e7-82f6-3863bb44ef7c,396,-73.9557689392,40.680342423,4222.02,False,Lefferts Pl & Franklin Ave,25,True,[],classic,"['CREDITCARD', 'KEY']",396,False,71,https://bkn.lft.to/lastmile_qr_scan,https://bkn.lft.to/lastmile_qr_scan
140,66dbee85-0aca-11e7-82f6-3863bb44ef7c,397,-73.96922273,40.68415748,4386.05,False,Fulton St & Clermont Ave,75,True,[],classic,"['CREDITCARD', 'KEY']",397,False,71,https://bkn.lft.to/lastmile_qr_scan,https://bkn.lft.to/lastmile_qr_scan
141,66dbef15-0aca-11e7-82f6-3863bb44ef7c,398,-73.9999786,40.69165183,4614.04,False,Atlantic Ave & Furman St,37,True,[],classic,"['CREDITCARD', 'KEY']",398,False,71,https://bkn.lft.to/lastmile_qr_scan,https://bkn.lft.to/lastmile_qr_scan
142,66dbef85-0aca-11e7-82f6-3863bb44ef7c,399,-73.9647628,40.68851534,4494.04,False,Lafayette Ave & St James Pl,39,True,[],classic,"['CREDITCARD', 'KEY']",399,False,71,https://bkn.lft.to/lastmile_qr_scan,https://bkn.lft.to/lastmile_qr_scan
143,66dbefee-0aca-11e7-82f6-3863bb44ef7c,400,-73.98178024,40.71926081,5406.04,False,Pitt St & Stanton St,15,True,[],classic,"['CREDITCARD', 'KEY']",400,False,71,https://bkn.lft.to/lastmile_qr_scan,https://bkn.lft.to/lastmile_qr_scan
144,66dbf062-0aca-11e7-82f6-3863bb44ef7c,401,-73.98997825,40.72019576,5414.06,False,Allen St & Rivington St,42,True,[],classic,"['CREDITCARD', 'KEY']",401,False,71,https://bkn.lft.to/lastmile_qr_scan,https://bkn.lft.to/lastmile_qr_scan
145,66dbf140-0aca-11e7-82f6-3863bb44ef7c,403,-73.99069656,40.72502876,5593.02,False,E 2 St & 2 Ave,58,True,[],classic,"['CREDITCARD', 'KEY']",403,False,71,https://bkn.lft.to/lastmile_qr_scan,https://bkn.lft.to/lastmile_qr_scan
146,66dbf215-0aca-11e7-82f6-3863bb44ef7c,405,-74.008119,40.739323,6039.06,False,Washington St & Gansevoort St,51,True,[],classic,"['CREDITCARD', 'KEY']",405,False,71,https://bkn.lft.to/lastmile_qr_scan,https://bkn.lft.to/lastmile_qr_scan
147,66dbf288-0aca-11e7-82f6-3863bb44ef7c,406,-73.99595065,40.69512845,4645.09,False,Hicks St & Montague St,20,True,[],classic,"['CREDITCARD', 'KEY']",406,False,71,https://bkn.lft.to/lastmile_qr_scan,https://bkn.lft.to/lastmile_qr_scan
148,66dbf362-0aca-11e7-82f6-3863bb44ef7c,408,-73.99400398,40.71076228,5198.04,False,Market St & Cherry St,45,True,[],classic,"['CREDITCARD', 'KEY']",408,False,71,https://bkn.lft.to/lastmile_qr_scan,https://bkn.lft.to/lastmile_qr_scan
149,66dbf442-0aca-11e7-82f6-3863bb44ef7c,410,-73.98517977,40.72066442,5445.02,False,Suffolk St & Stanton St,79,True,[],classic,"['CREDITCARD', 'KEY']",410,False,71,https://bkn.lft.to/lastmile_qr_scan,https://bkn.lft.to/lastmile_qr_scan
150,66dbf4ac-0aca-11e7-82f6-3863bb44ef7c,411,-73.97668709,40.72228087,5506.14,False,E 6 St & Avenue D,31,True,[],classic,"['CREDITCARD', 'KEY']",411,False,71,https://bkn.lft.to/lastmile_qr_scan,https://bkn.lft.to/lastmile_qr_scan
151,66dbf518-0aca-11e7-82f6-3863bb44ef7c,412,-73.99422366,40.7158155,5270.07,False,Forsyth St & Canal St,29,True,[],classic,"['CREDITCARD', 'KEY']",412,False,71,https://bkn.lft.to/lastmile_qr_scan,https://bkn.lft.to/lastmile_qr_scan
152,66dbf667-0aca-11e7-82f6-3863bb44ef7c,415,-74.00926027,40.7047177,4993.02,False,Pearl St & Hanover Square,46,True,[],classic,"['CREDITCARD', 'KEY']",415,False,71,https://bkn.lft.to/lastmile_qr_scan,https://bkn.lft.to/lastmile_qr_scan
153,66dbf6d2-0aca-11e7-82f6-3863bb44ef7c,416,-73.97265183,40.68753406,4428.02,False,Cumberland St & Lafayette Ave,31,True,[],classic,"['CREDITCARD', 'KEY']",416,False,71,https://bkn.lft.to/lastmile_qr_scan,https://bkn.lft.to/lastmile_qr_scan
154,66dbf73d-0aca-11e7-82f6-3863bb44ef7c,417,-74.01020234,40.71291224,5216.04,False,Barclay St & Church St,25,True,[],classic,"['CREDITCARD', 'KEY']",417,False,71,https://bkn.lft.to/lastmile_qr_scan,https://bkn.lft.to/lastmile_qr_scan
155,66dc0bbd-0aca-11e7-82f6-3863bb44ef7c,418,-73.982578,40.70224,4927.04,False,Front St & Gold St,37,True,[],classic,"['CREDITCARD', 'KEY']",418,False,71,https://bkn.lft.to/lastmile_qr_scan,https://bkn.lft.to/lastmile_qr_scan
156,66dc0c53-0aca-11e7-82f6-3863bb44ef7c,419,-73.97355569,40.69580705,4732.04,False,Carlton Ave & Park Ave,23,True,[],classic,"['CREDITCARD', 'KEY']",419,False,71,https://bkn.lft.to/lastmile_qr_scan,https://bkn.lft.to/lastmile_qr_scan
157,66dc0cc7-0aca-11e7-82f6-3863bb44ef7c,420,-73.96968902,40.68764484,4461.01,False,Clermont Ave & Lafayette Ave,51,True,[],classic,"['CREDITCARD', 'KEY']",420,False,71,https://bkn.lft.to/lastmile_qr_scan,https://bkn.lft.to/lastmile_qr_scan
158,66dc0d3a-0aca-11e7-82f6-3863bb44ef7c,421,-73.97129668,40.69573398,4692.01,False,Clermont Ave & Park Ave,19,True,[],classic,"['CREDITCARD', 'KEY']",421,False,71,https://bkn.lft.to/lastmile_qr_scan,https://bkn.lft.to/lastmile_qr_scan
159,66dc0dab-0aca-11e7-82f6-3863bb44ef7c,422,-73.988038,40.770513,7023.04,False,W 59 St & 10 Ave,79,True,[],classic,"['CREDITCARD', 'KEY']",422,False,71,https://bkn.lft.to/lastmile_qr_scan,https://bkn.lft.to/lastmile_qr_scan
160,66dc0e24-0aca-11e7-82f6-3863bb44ef7c,423,-73.98690506,40.76584941,6920.03,False,W 54 St & 9 Ave,44,True,[],classic,"['CREDITCARD', 'KEY']",423,False,71,https://bkn.lft.to/lastmile_qr_scan,https://bkn.lft.to/lastmile_qr_scan
161,66dc0e99-0aca-11e7-82f6-3863bb44ef7c,426,-74.01322069,40.71754834,5329.03,False,West St & Chambers St,81,True,[],classic,"['CREDITCARD', 'KEY']",426,False,71,https://bkn.lft.to/lastmile_qr_scan,https://bkn.lft.to/lastmile_qr_scan
162,66dc0f1b-0aca-11e7-82f6-3863bb44ef7c,427,-74.013942,40.701907,4889.06,False,Bus Slip & State St,47,True,[],classic,"['CREDITCARD', 'KEY']",427,False,71,https://bkn.lft.to/lastmile_qr_scan,https://bkn.lft.to/lastmile_qr_scan
163,66dc0f8a-0aca-11e7-82f6-3863bb44ef7c,428,-73.98783413,40.72467721,5553.03,False,E 3 St & 1 Ave,41,True,[],classic,"['CREDITCARD', 'KEY']",428,False,71,https://bkn.lft.to/lastmile_qr_scan,https://bkn.lft.to/lastmile_qr_scan
164,66dc10d1-0aca-11e7-82f6-3863bb44ef7c,432,-73.98379855,40.72621788,5626.07,False,E 7 St & Avenue A,31,True,[],classic,"['CREDITCARD', 'KEY']",432,False,71,https://bkn.lft.to/lastmile_qr_scan,https://bkn.lft.to/lastmile_qr_scan
165,66dc11a7-0aca-11e7-82f6-3863bb44ef7c,434,-74.00366443,40.74317449,6190.08,False,9 Ave & W 18 St,60,True,[],classic,"['CREDITCARD', 'KEY']",434,False,71,https://bkn.lft.to/lastmile_qr_scan,https://bkn.lft.to/lastmile_qr_scan
166,66dc120f-0aca-11e7-82f6-3863bb44ef7c,435,-73.99415556,40.74173969,6140.05,False,W 21 St & 6 Ave,50,True,[],classic,"['CREDITCARD', 'KEY']",435,False,71,https://bkn.lft.to/lastmile_qr_scan,https://bkn.lft.to/lastmile_qr_scan
167,66dc1545-0aca-11e7-82f6-3863bb44ef7c,436,-73.95399026,40.68216564,4255.05,False,Hancock St & Bedford Ave,27,True,[],classic,"['CREDITCARD', 'KEY']",436,False,71,https://bkn.lft.to/lastmile_qr_scan,https://bkn.lft.to/lastmile_qr_scan
168,66dc1687-0aca-11e7-82f6-3863bb44ef7c,437,-73.9500479759,40.6809833854,4214.03,False,Macon St & Nostrand Ave,24,True,[],classic,"['CREDITCARD', 'KEY']",437,False,71,https://bkn.lft.to/lastmile_qr_scan,https://bkn.lft.to/lastmile_qr_scan
169,66dc1702-0aca-11e7-82f6-3863bb44ef7c,438,-73.98564945,40.72779126,5626.13,False,St Marks Pl & 1 Ave,47,True,[],classic,"['CREDITCARD', 'KEY']",438,False,71,https://bkn.lft.to/lastmile_qr_scan,https://bkn.lft.to/lastmile_qr_scan
170,66dc176f-0aca-11e7-82f6-3863bb44ef7c,439,-73.98978041,40.7262807,5593.04,False,E 4 St & 2 Ave,43,True,[],classic,"['CREDITCARD', 'KEY']",439,False,71,https://bkn.lft.to/lastmile_qr_scan,https://bkn.lft.to/lastmile_qr_scan
171,66dc17df-0aca-11e7-82f6-3863bb44ef7c,440,-73.97282625,40.75255434,6464.08,False,E 45 St & 3 Ave,32,True,[],classic,"['CREDITCARD', 'KEY']",440,False,71,https://bkn.lft.to/lastmile_qr_scan,https://bkn.lft.to/lastmile_qr_scan
172,66dc18c2-0aca-11e7-82f6-3863bb44ef7c,442,-73.993915,40.746647,6247.06,False,W 27 St & 7 Ave,51,True,[],classic,"['CREDITCARD', 'KEY']",442,False,71,https://bkn.lft.to/lastmile_qr_scan,https://bkn.lft.to/lastmile_qr_scan
173,66dc192f-0aca-11e7-82f6-3863bb44ef7c,443,-73.96408963,40.70853074,5093.01,False,Bedford Ave & S 9 St,23,True,[],classic,"['CREDITCARD', 'KEY']",443,False,71,https://bkn.lft.to/lastmile_qr_scan,https://bkn.lft.to/lastmile_qr_scan
174,66dc1beb-0aca-11e7-82f6-3863bb44ef7c,445,-73.98142006,40.72740794,5659.05,False,E 10 St & Avenue A,107,True,[],classic,"['CREDITCARD', 'KEY']",445,False,71,https://bkn.lft.to/lastmile_qr_scan,https://bkn.lft.to/lastmile_qr_scan
175,66dc1c5c-0aca-11e7-82f6-3863bb44ef7c,446,-73.99529885,40.74487634,6257.03,False,W 24 St & 7 Ave,79,True,[],classic,"['CREDITCARD', 'KEY']",446,False,71,https://bkn.lft.to/lastmile_qr_scan,https://bkn.lft.to/lastmile_qr_scan
176,66dc1d0c-0aca-11e7-82f6-3863bb44ef7c,447,-73.9851615,40.76370739,6816.07,False,8 Ave & W 52 St,31,True,[],classic,"['CREDITCARD', 'KEY']",447,False,71,https://bkn.lft.to/lastmile_qr_scan,https://bkn.lft.to/lastmile_qr_scan
177,66dc1d80-0aca-11e7-82f6-3863bb44ef7c,448,-73.9979009,40.75660359,6611.02,False,W 37 St & 10 Ave,27,True,[],classic,"['CREDITCARD', 'KEY']",448,False,71,https://bkn.lft.to/lastmile_qr_scan,https://bkn.lft.to/lastmile_qr_scan
178,66dc1e55-0aca-11e7-82f6-3863bb44ef7c,450,-73.98788205,40.76227205,6747.06,False,W 49 St & 8 Ave,67,True,[],classic,"['CREDITCARD', 'KEY']",450,False,71,https://bkn.lft.to/lastmile_qr_scan,https://bkn.lft.to/lastmile_qr_scan
179,66dc209c-0aca-11e7-82f6-3863bb44ef7c,453,-73.99915362,40.74475148,6224.03,False,W 22 St & 8 Ave,66,True,[],classic,"['CREDITCARD', 'KEY']",453,False,71,https://bkn.lft.to/lastmile_qr_scan,https://bkn.lft.to/lastmile_qr_scan
180,66dc210e-0aca-11e7-82f6-3863bb44ef7c,454,-73.96592976,40.75455731,6532.06,False,E 51 St & 1 Ave,35,True,[],classic,"['CREDITCARD', 'KEY']",454,False,71,https://bkn.lft.to/lastmile_qr_scan,https://bkn.lft.to/lastmile_qr_scan
181,66dc2172-0aca-11e7-82f6-3863bb44ef7c,455,-73.96905301,40.75001986,6379.03,False,1 Ave & E 44 St,59,True,[],classic,"['CREDITCARD', 'KEY']",455,False,71,https://bkn.lft.to/lastmile_qr_scan,https://bkn.lft.to/lastmile_qr_scan
182,66dc21d4-0aca-11e7-82f6-3863bb44ef7c,456,-73.97402311,40.7597108,6659.03,False,E 53 St & Madison Ave,51,True,[],classic,"['CREDITCARD', 'KEY']",456,False,71,https://bkn.lft.to/lastmile_qr_scan,https://bkn.lft.to/lastmile_qr_scan
183,66dc2238-0aca-11e7-82f6-3863bb44ef7c,457,-73.98169333,40.76695317,6948.10,False,Broadway & W 58 St,79,True,[],classic,"['CREDITCARD', 'KEY']",457,False,71,https://bkn.lft.to/lastmile_qr_scan,https://bkn.lft.to/lastmile_qr_scan
184,66dc22a7-0aca-11e7-82f6-3863bb44ef7c,458,-74.005226,40.751396,6425.04,False,11 Ave & W 27 St,31,True,[],classic,"['CREDITCARD', 'KEY']",458,False,71,https://bkn.lft.to/lastmile_qr_scan,https://bkn.lft.to/lastmile_qr_scan
185,66dc252e-0aca-11e7-82f6-3863bb44ef7c,460,-73.96590294,40.71285887,5204.05,False,S 4 St & Wythe Ave,25,True,[],classic,"['CREDITCARD', 'KEY']",460,False,71,https://bkn.lft.to/lastmile_qr_scan,https://bkn.lft.to/lastmile_qr_scan
186,66dc259a-0aca-11e7-82f6-3863bb44ef7c,461,-73.98205027,40.73587678,5971.08,False,E 20 St & 2 Ave,56,True,[],classic,"['CREDITCARD', 'KEY']",461,False,71,https://bkn.lft.to/lastmile_qr_scan,https://bkn.lft.to/lastmile_qr_scan
187,66dc2606-0aca-11e7-82f6-3863bb44ef7c,462,-74.00451887,40.74691959,6306.06,False,W 22 St & 10 Ave,77,True,[],classic,"['CREDITCARD', 'KEY']",462,False,71,https://bkn.lft.to/lastmile_qr_scan,https://bkn.lft.to/lastmile_qr_scan
188,66dc28bd-0aca-11e7-82f6-3863bb44ef7c,464,-73.96759673,40.75934501,6691.11,False,E 56 St & 3 Ave,53,True,[],classic,"['CREDITCARD', 'KEY']",464,False,71,https://bkn.lft.to/lastmile_qr_scan,https://bkn.lft.to/lastmile_qr_scan
189,66dc292c-0aca-11e7-82f6-3863bb44ef7c,465,-73.98658032,40.75513557,6560.01,False,Broadway & W 41 St,39,True,[],classic,"['CREDITCARD', 'KEY']",465,False,71,https://bkn.lft.to/lastmile_qr_scan,https://bkn.lft.to/lastmile_qr_scan
190,66dc2995-0aca-11e7-82f6-3863bb44ef7c,466,-73.99144871,40.74395411,6215.04,False,W 25 St & 6 Ave,35,True,[],classic,"['CREDITCARD', 'KEY']",466,False,71,https://bkn.lft.to/lastmile_qr_scan,https://bkn.lft.to/lastmile_qr_scan
191,66dc2bc5-0aca-11e7-82f6-3863bb44ef7c,468,-73.98192338,40.7652654,6847.02,False,Broadway & W 56 St,79,True,[],classic,"['CREDITCARD', 'KEY']",468,False,71,https://bkn.lft.to/lastmile_qr_scan,https://bkn.lft.to/lastmile_qr_scan
192,66dc2c78-0aca-11e7-82f6-3863bb44ef7c,469,-73.98268129,40.76344058,6779.05,False,Broadway & W 53 St,57,True,[],classic,"['CREDITCARD', 'KEY']",469,False,71,https://bkn.lft.to/lastmile_qr_scan,https://bkn.lft.to/lastmile_qr_scan
193,66dc36c3-0aca-11e7-82f6-3863bb44ef7c,470,-74.00004031,40.74345335,6224.05,False,W 20 St & 8 Ave,84,True,[],classic,"['CREDITCARD', 'KEY']",470,False,71,https://bkn.lft.to/lastmile_qr_scan,https://bkn.lft.to/lastmile_qr_scan
194,66dc3782-0aca-11e7-82f6-3863bb44ef7c,471,-73.95698119,40.71286844,5267.08,False,Grand St & Havemeyer St,31,True,[],classic,"['CREDITCARD', 'KEY']",471,False,71,https://bkn.lft.to/lastmile_qr_scan,https://bkn.lft.to/lastmile_qr_scan
195,66dc3a1a-0aca-11e7-82f6-3863bb44ef7c,472,-73.98194829,40.7457121,6280.12,False,E 32 St & Park Ave,55,True,[],classic,"['CREDITCARD', 'KEY']",472,False,71,https://bkn.lft.to/lastmile_qr_scan,https://bkn.lft.to/lastmile_qr_scan
196,66dc3ab9-0aca-11e7-82f6-3863bb44ef7c,473,-73.9919254,40.72110063,5453.01,False,Rivington St & Chrystie St,64,True,[],classic,"['CREDITCARD', 'KEY']",473,False,71,https://bkn.lft.to/lastmile_qr_scan,https://bkn.lft.to/lastmile_qr_scan
197,66dc3b97-0aca-11e7-82f6-3863bb44ef7c,474,-73.98683077,40.7451677,6248.06,False,5 Ave & E 29 St,56,True,[],classic,"['CREDITCARD', 'KEY']",474,False,71,https://bkn.lft.to/lastmile_qr_scan,https://bkn.lft.to/lastmile_qr_scan
198,66dc3e89-0aca-11e7-82f6-3863bb44ef7c,476,-73.97966069,40.74394314,6239.08,False,E 31 St & 3 Ave,65,True,[],classic,"['CREDITCARD', 'KEY']",476,False,71,https://bkn.lft.to/lastmile_qr_scan,https://bkn.lft.to/lastmile_qr_scan
199,66dc3f08-0aca-11e7-82f6-3863bb44ef7c,477,-73.9900262,40.75640548,6602.03,False,W 41 St & 8 Ave,71,True,[],classic,"['CREDITCARD', 'KEY']",477,False,71,https://bkn.lft.to/lastmile_qr_scan,https://bkn.lft.to/lastmile_qr_scan
200,66dc41bb-0aca-11e7-82f6-3863bb44ef7c,478,-73.99884222,40.76030096,6726.01,False,11 Ave & W 41 St,37,True,[],classic,"['CREDITCARD', 'KEY']",478,False,71,https://bkn.lft.to/lastmile_qr_scan,https://bkn.lft.to/lastmile_qr_scan
201,66dc42a0-0aca-11e7-82f6-3863bb44ef7c,479,-73.9912551,40.76019252,6717.06,False,9 Ave & W 45 St,31,True,[],classic,"['CREDITCARD', 'KEY']",479,False,71,https://bkn.lft.to/lastmile_qr_scan,https://bkn.lft.to/lastmile_qr_scan
202,66dc4334-0aca-11e7-82f6-3863bb44ef7c,480,-73.99061728,40.76669671,6890.01,False,W 53 St & 10 Ave,29,True,[],classic,"['CREDITCARD', 'KEY']",480,False,71,https://bkn.lft.to/lastmile_qr_scan,https://bkn.lft.to/lastmile_qr_scan
203,66dc4599-0aca-11e7-82f6-3863bb44ef7c,481,-73.96264403,40.71260486,5235.05,False,S 3 St & Bedford Ave,25,True,[],classic,"['CREDITCARD', 'KEY']",481,False,71,https://bkn.lft.to/lastmile_qr_scan,https://bkn.lft.to/lastmile_qr_scan
204,66dc462a-0aca-11e7-82f6-3863bb44ef7c,482,-73.99931783,40.73935542,6030.06,False,W 15 St & 7 Ave,79,True,[],classic,"['CREDITCARD', 'KEY']",482,False,71,https://bkn.lft.to/lastmile_qr_scan,https://bkn.lft.to/lastmile_qr_scan
205,66dc481a-0aca-11e7-82f6-3863bb44ef7c,483,-73.98889957,40.73223272,5788.12,False,E 12 St & 3 Ave,48,True,[],classic,"['CREDITCARD', 'KEY']",483,False,71,https://bkn.lft.to/lastmile_qr_scan,https://bkn.lft.to/lastmile_qr_scan
206,66dc48ef-0aca-11e7-82f6-3863bb44ef7c,484,-73.98014437,40.75500254,6551.02,False,W 44 St & 5 Ave,46,True,[],classic,"['CREDITCARD', 'KEY']",484,False,71,https://bkn.lft.to/lastmile_qr_scan,https://bkn.lft.to/lastmile_qr_scan
207,66dc4b4c-0aca-11e7-82f6-3863bb44ef7c,485,-73.98338988,40.75038009,6398.06,False,W 37 St & 5 Ave,40,True,[],classic,"['CREDITCARD', 'KEY']",485,False,71,https://bkn.lft.to/lastmile_qr_scan,https://bkn.lft.to/lastmile_qr_scan
208,66dc4bd9-0aca-11e7-82f6-3863bb44ef7c,486,-73.98855723,40.7462009,6289.06,False,Broadway & W 29 St,41,True,[],classic,"['CREDITCARD', 'KEY']",486,False,71,https://bkn.lft.to/lastmile_qr_scan,https://bkn.lft.to/lastmile_qr_scan
209,66dc4fb5-0aca-11e7-82f6-3863bb44ef7c,488,-73.99372222,40.75645824,6644.04,False,W 39 St & 9 Ave,44,True,[],classic,"['CREDITCARD', 'KEY']",488,False,71,https://bkn.lft.to/lastmile_qr_scan,https://bkn.lft.to/lastmile_qr_scan
210,66dc51e9-0aca-11e7-82f6-3863bb44ef7c,489,-74.00176802,40.75066386,6459.04,False,10 Ave & W 28 St,49,True,[],classic,"['CREDITCARD', 'KEY']",489,False,71,https://bkn.lft.to/lastmile_qr_scan,https://bkn.lft.to/lastmile_qr_scan
211,66dc686c-0aca-11e7-82f6-3863bb44ef7c,490,-73.993934,40.751551,6450.12,False,8 Ave & W 33 St,66,True,[],classic,"['CREDITCARD', 'KEY']",490,False,71,https://bkn.lft.to/lastmile_qr_scan,https://bkn.lft.to/lastmile_qr_scan
212,66dc7323-0aca-11e7-82f6-3863bb44ef7c,494,-73.99723551,40.74734825,6297.02,False,W 26 St & 8 Ave,66,True,[],classic,"['CREDITCARD', 'KEY']",494,False,71,https://bkn.lft.to/lastmile_qr_scan,https://bkn.lft.to/lastmile_qr_scan
213,66dc73b0-0aca-11e7-82f6-3863bb44ef7c,495,-73.99301222,40.76269882,6824.07,False,W 47 St & 10 Ave,39,True,[],classic,"['CREDITCARD', 'KEY']",495,False,71,https://bkn.lft.to/lastmile_qr_scan,https://bkn.lft.to/lastmile_qr_scan
214,66dc741f-0aca-11e7-82f6-3863bb44ef7c,496,-73.99238967,40.73726186,6022.04,False,E 16 St & 5 Ave,65,True,[],classic,"['CREDITCARD', 'KEY']",496,False,71,https://bkn.lft.to/lastmile_qr_scan,https://bkn.lft.to/lastmile_qr_scan
215,66dc748f-0aca-11e7-82f6-3863bb44ef7c,497,-73.99009296,40.73704984,5980.07,False,E 17 St & Broadway,66,True,[],classic,"['CREDITCARD', 'KEY']",497,False,71,https://bkn.lft.to/lastmile_qr_scan,https://bkn.lft.to/lastmile_qr_scan
216,66dc75ec-0aca-11e7-82f6-3863bb44ef7c,500,-73.98336183,40.76228826,6779.04,False,Broadway & W 51 St,52,True,[],classic,"['CREDITCARD', 'KEY']",500,False,71,https://bkn.lft.to/lastmile_qr_scan,https://bkn.lft.to/lastmile_qr_scan
217,66dc7659-0aca-11e7-82f6-3863bb44ef7c,501,-73.97121214,40.744219,6230.04,False,FDR Drive & E 35 St,83,True,[],classic,"['CREDITCARD', 'KEY']",501,False,71,https://bkn.lft.to/lastmile_qr_scan,https://bkn.lft.to/lastmile_qr_scan
218,66dc76cd-0aca-11e7-82f6-3863bb44ef7c,502,-73.981095,40.714211,5294.04,False,Henry St & Grand St,36,True,[],classic,"['CREDITCARD', 'KEY']",502,False,71,https://bkn.lft.to/lastmile_qr_scan,https://bkn.lft.to/lastmile_qr_scan
219,66dc7773-0aca-11e7-82f6-3863bb44ef7c,503,-73.98751968,40.73827428,6055.08,False,E 20 St & Park Ave,31,True,[],classic,"['CREDITCARD', 'KEY']",503,False,71,https://bkn.lft.to/lastmile_qr_scan,https://bkn.lft.to/lastmile_qr_scan
220,66dc7802-0aca-11e7-82f6-3863bb44ef7c,504,-73.98165557,40.73221853,5779.08,False,1 Ave & E 16 St,54,True,[],classic,"['CREDITCARD', 'KEY']",504,False,71,https://bkn.lft.to/lastmile_qr_scan,https://bkn.lft.to/lastmile_qr_scan
221,66dc78c4-0aca-11e7-82f6-3863bb44ef7c,505,-73.98848395,40.74901271,6364.07,False,6 Ave & W 33 St,52,True,[],classic,"['CREDITCARD', 'KEY']",505,False,71,https://bkn.lft.to/lastmile_qr_scan,https://bkn.lft.to/lastmile_qr_scan
222,66dc7957-0aca-11e7-82f6-3863bb44ef7c,507,-73.97973776,40.73912601,6046.02,False,E 25 St & 2 Ave,79,True,[],classic,"['CREDITCARD', 'KEY']",507,False,71,https://bkn.lft.to/lastmile_qr_scan,https://bkn.lft.to/lastmile_qr_scan
223,66dc79e6-0aca-11e7-82f6-3863bb44ef7c,508,-73.99667444,40.76341379,6795.01,False,W 46 St & 11 Ave,25,True,[],classic,"['CREDITCARD', 'KEY']",508,False,71,https://bkn.lft.to/lastmile_qr_scan,https://bkn.lft.to/lastmile_qr_scan
224,66dc7a7d-0aca-11e7-82f6-3863bb44ef7c,509,-74.00197139,40.7454973,6266.06,False,9 Ave & W 22 St,61,True,[],classic,"['CREDITCARD', 'KEY']",509,False,71,https://bkn.lft.to/lastmile_qr_scan,https://bkn.lft.to/lastmile_qr_scan
225,66dc7b10-0aca-11e7-82f6-3863bb44ef7c,510,-73.98042047,40.7606597,6740.10,False,W 51 St & 6 Ave,55,True,[],classic,"['CREDITCARD', 'KEY']",510,False,71,https://bkn.lft.to/lastmile_qr_scan,https://bkn.lft.to/lastmile_qr_scan
226,66dc7ba2-0aca-11e7-82f6-3863bb44ef7c,511,-73.97772429,40.72938685,5736.09,False,E 14 St & Avenue B,31,True,[],classic,"['CREDITCARD', 'KEY']",511,False,71,https://bkn.lft.to/lastmile_qr_scan,https://bkn.lft.to/lastmile_qr_scan
227,66dc7c31-0aca-11e7-82f6-3863bb44ef7c,512,-73.99839279,40.7500727,6416.06,False,W 29 St & 9 Ave,29,True,[],classic,"['CREDITCARD', 'KEY']",512,False,71,https://bkn.lft.to/lastmile_qr_scan,https://bkn.lft.to/lastmile_qr_scan
228,66dc7cc3-0aca-11e7-82f6-3863bb44ef7c,513,-73.988639,40.768254,6955.01,False,W 56 St & 10 Ave,29,True,[],classic,"['CREDITCARD', 'KEY']",513,False,71,https://bkn.lft.to/lastmile_qr_scan,https://bkn.lft.to/lastmile_qr_scan
229,66dc7d58-0aca-11e7-82f6-3863bb44ef7c,514,-74.00277668,40.76087502,6765.01,False,12 Ave & W 40 St,51,True,[],classic,"['CREDITCARD', 'KEY']",514,False,71,https://bkn.lft.to/lastmile_qr_scan,https://bkn.lft.to/lastmile_qr_scan
230,66dc7de9-0aca-11e7-82f6-3863bb44ef7c,515,-73.99461843,40.76009437,6756.01,False,W 43 St & 10 Ave,79,True,[],classic,"['CREDITCARD', 'KEY']",515,False,71,https://bkn.lft.to/lastmile_qr_scan,https://bkn.lft.to/lastmile_qr_scan
231,66dc7e75-0aca-11e7-82f6-3863bb44ef7c,516,-73.96784384,40.75206862,6498.09,False,E 47 St & 1 Ave,48,True,[],classic,"['CREDITCARD', 'KEY']",516,False,71,https://bkn.lft.to/lastmile_qr_scan,https://bkn.lft.to/lastmile_qr_scan
232,66dc81ce-0aca-11e7-82f6-3863bb44ef7c,522,-73.97207836,40.75714758,6659.01,False,E 51 St & Lexington Ave,51,True,[],classic,"['CREDITCARD', 'KEY']",522,False,71,https://bkn.lft.to/lastmile_qr_scan,https://bkn.lft.to/lastmile_qr_scan
233,66dc8382-0aca-11e7-82f6-3863bb44ef7c,525,-74.0021163,40.75594159,6578.01,False,W 34 St & 11 Ave,56,True,[],classic,"['CREDITCARD', 'KEY']",525,False,71,https://bkn.lft.to/lastmile_qr_scan,https://bkn.lft.to/lastmile_qr_scan
234,66dc840f-0aca-11e7-82f6-3863bb44ef7c,526,-73.98490707,40.74765947,6322.01,False,E 33 St & 5 Ave,40,True,[],classic,"['CREDITCARD', 'KEY']",526,False,71,https://bkn.lft.to/lastmile_qr_scan,https://bkn.lft.to/lastmile_qr_scan
235,66dc8527-0aca-11e7-82f6-3863bb44ef7c,528,-73.97706058,40.74290902,6197.02,False,2 Ave & E 31 St,39,True,[],classic,"['CREDITCARD', 'KEY']",528,False,71,https://bkn.lft.to/lastmile_qr_scan,https://bkn.lft.to/lastmile_qr_scan
236,66dc85bb-0aca-11e7-82f6-3863bb44ef7c,529,-73.99098507,40.7575699,6602.05,False,W 42 St & 8 Ave,41,True,[],classic,"['CREDITCARD', 'KEY']",529,False,71,https://bkn.lft.to/lastmile_qr_scan,https://bkn.lft.to/lastmile_qr_scan
237,66dc864c-0aca-11e7-82f6-3863bb44ef7c,530,-73.99046033620834,40.77149671054441,7059.01,False,11 Ave & W 59 St,24,True,[],classic,"['CREDITCARD', 'KEY']",530,False,71,https://bkn.lft.to/lastmile_qr_scan,https://bkn.lft.to/lastmile_qr_scan
238,66dc86d9-0aca-11e7-82f6-3863bb44ef7c,531,-73.99266288,40.71893904,5453.05,False,Forsyth St & Broome St,66,True,[],classic,"['CREDITCARD', 'KEY']",531,False,71,https://bkn.lft.to/lastmile_qr_scan,https://bkn.lft.to/lastmile_qr_scan
239,66dc8768-0aca-11e7-82f6-3863bb44ef7c,532,-73.960876,40.710451,5125.03,False,S 5 Pl & S 5 St,43,True,[],classic,"['CREDITCARD', 'KEY']",532,False,71,https://bkn.lft.to/lastmile_qr_scan,https://bkn.lft.to/lastmile_qr_scan
240,66dc89ae-0aca-11e7-82f6-3863bb44ef7c,536,-73.97536082,40.74144387,6079.03,False,1 Ave & E 30 St,29,True,[],classic,"['CREDITCARD', 'KEY']",536,False,71,https://bkn.lft.to/lastmile_qr_scan,https://bkn.lft.to/lastmile_qr_scan
241,66dc8a3d-0aca-11e7-82f6-3863bb44ef7c,537,-73.98409214,40.74025878,6089.07,False,Lexington Ave & E 24 St,53,True,[],classic,"['CREDITCARD', 'KEY']",537,False,71,https://bkn.lft.to/lastmile_qr_scan,https://bkn.lft.to/lastmile_qr_scan
242,66dc8b6a-0aca-11e7-82f6-3863bb44ef7c,539,-73.96024116,40.71534825,5308.04,False,Metropolitan Ave & Bedford Ave,31,True,[],classic,"['CREDITCARD', 'KEY']",539,False,71,https://bkn.lft.to/lastmile_qr_scan,https://bkn.lft.to/lastmile_qr_scan
243,66dc8bfd-0aca-11e7-82f6-3863bb44ef7c,540,-73.98215353488922,40.74311555376486,6164.09,False,Lexington Ave & E 29 St,50,True,[],classic,"['CREDITCARD', 'KEY']",540,False,71,https://bkn.lft.to/lastmile_qr_scan,https://bkn.lft.to/lastmile_qr_scan
244,66dc8c90-0aca-11e7-82f6-3863bb44ef7c,545,-73.97809472,40.736502,5929.01,False,E 23 St & 1 Ave,27,True,[],classic,"['CREDITCARD', 'KEY']",545,False,71,https://bkn.lft.to/lastmile_qr_scan,https://bkn.lft.to/lastmile_qr_scan
245,66dc8d1d-0aca-11e7-82f6-3863bb44ef7c,546,-73.98303529,40.74444921,6206.08,False,E 30 St & Park Ave S,19,True,[],classic,"['CREDITCARD', 'KEY']",546,False,71,https://bkn.lft.to/lastmile_qr_scan,https://bkn.lft.to/lastmile_qr_scan
246,66dc8db1-0aca-11e7-82f6-3863bb44ef7c,2000,-73.98940236,40.70255088,4936.01,False,Front St & Washington St,57,True,[],classic,"['CREDITCARD', 'KEY']",2000,False,71,https://bkn.lft.to/lastmile_qr_scan,https://bkn.lft.to/lastmile_qr_scan
247,66dc8eb1-0aca-11e7-82f6-3863bb44ef7c,2002,-73.963198,40.716887,5348.02,False,Wythe Ave & Metropolitan Ave,57,True,[],classic,"['CREDITCARD', 'KEY']",2002,False,71,https://bkn.lft.to/lastmile_qr_scan,https://bkn.lft.to/lastmile_qr_scan
248,66dc8f1f-0aca-11e7-82f6-3863bb44ef7c,2003,-73.98054420948029,40.733812191966315,5854.09,False,1 Ave & E 18 St,54,True,[],classic,"['CREDITCARD', 'KEY']",2003,False,71,https://bkn.lft.to/lastmile_qr_scan,https://bkn.lft.to/lastmile_qr_scan
249,66dc9068-0aca-11e7-82f6-3863bb44ef7c,2006,-73.97634151,40.76590936,6876.04,False,Central Park S & 6 Ave,49,True,[],classic,"['CREDITCARD', 'KEY']",2006,False,71,https://bkn.lft.to/lastmile_qr_scan,https://bkn.lft.to/lastmile_qr_scan
250,66dc90d5-0aca-11e7-82f6-3863bb44ef7c,2008,-74.01677685,40.70569254,5001.08,False,Little West St & 1 Pl,35,True,[],classic,"['CREDITCARD', 'KEY']",2008,False,71,https://bkn.lft.to/lastmile_qr_scan,https://bkn.lft.to/lastmile_qr_scan
251,66dc9143-0aca-11e7-82f6-3863bb44ef7c,2009,-73.99682619,40.71117444,5128.04,False,Catherine St & Monroe St,35,True,[],classic,"['CREDITCARD', 'KEY']",2009,False,71,https://bkn.lft.to/lastmile_qr_scan,https://bkn.lft.to/lastmile_qr_scan
252,66dc91b5-0aca-11e7-82f6-3863bb44ef7c,2010,-74.00238141417502,40.72170005235607,5500.02,False,Grand St & Greene St,65,True,[],classic,"['CREDITCARD', 'KEY']",2010,False,71,https://bkn.lft.to/lastmile_qr_scan,https://bkn.lft.to/lastmile_qr_scan
253,66dc9223-0aca-11e7-82f6-3863bb44ef7c,2012,-73.976806,40.739445,6004.06,False,E 27 St & 1 Ave,41,True,[],classic,"['CREDITCARD', 'KEY']",2012,False,71,https://bkn.lft.to/lastmile_qr_scan,https://bkn.lft.to/lastmile_qr_scan
254,66dca682-0aca-11e7-82f6-3863bb44ef7c,2021,-73.98859651,40.75929124,6676.02,False,W 45 St & 8 Ave,65,True,[],classic,"['CREDITCARD', 'KEY']",2021,False,71,https://bkn.lft.to/lastmile_qr_scan,https://bkn.lft.to/lastmile_qr_scan
255,66dca6f4-0aca-11e7-82f6-3863bb44ef7c,2022,-73.959223,40.759107,6682.08,False,E 60 St & York Ave,33,True,[],classic,"['CREDITCARD', 'KEY']",2022,False,71,https://bkn.lft.to/lastmile_qr_scan,https://bkn.lft.to/lastmile_qr_scan
256,66dcac42-0aca-11e7-82f6-3863bb44ef7c,3016,-73.96165072917938,40.72036775298455,5489.03,False,Kent Ave & N 7 St,54,True,[],classic,"['CREDITCARD', 'KEY']",3016,False,71,https://bkn.lft.to/lastmile_qr_scan,https://bkn.lft.to/lastmile_qr_scan
257,66dcb9f7-0aca-11e7-82f6-3863bb44ef7c,3041,-73.94142771,40.67890679,4205.06,False,Kingston Ave & Herkimer St,24,True,[],classic,"['CREDITCARD', 'KEY']",3041,False,71,https://bkn.lft.to/lastmile_qr_scan,https://bkn.lft.to/lastmile_qr_scan
258,66dcba5e-0aca-11e7-82f6-3863bb44ef7c,3042,-73.9298911,40.6794268,4228.02,False,Fulton St & Utica Ave,19,True,[],classic,"['CREDITCARD', 'KEY']",3042,False,71,https://bkn.lft.to/lastmile_qr_scan,https://bkn.lft.to/lastmile_qr_scan
259,66dcbac5-0aca-11e7-82f6-3863bb44ef7c,3043,-73.934903,40.6814598,4237.01,False,Lewis Ave & Decatur St,19,True,[],classic,"['CREDITCARD', 'KEY']",3043,False,71,https://bkn.lft.to/lastmile_qr_scan,https://bkn.lft.to/lastmile_qr_scan
260,66dcbb2c-0aca-11e7-82f6-3863bb44ef7c,3044,-73.938475,40.6800105,4237.02,False,Albany Ave & Fulton St,27,True,[],classic,"['CREDITCARD', 'KEY']",3044,False,71,https://bkn.lft.to/lastmile_qr_scan,https://bkn.lft.to/lastmile_qr_scan
261,66dcbbfe-0aca-11e7-82f6-3863bb44ef7c,3046,-73.938037,40.682601,4278.03,False,Marcus Garvey Blvd & Macon St,19,True,[],classic,"['CREDITCARD', 'KEY']",3046,False,71,https://bkn.lft.to/lastmile_qr_scan,https://bkn.lft.to/lastmile_qr_scan
262,66dcbdc2-0aca-11e7-82f6-3863bb44ef7c,3047,-73.944118,40.6823687,4319.07,False,Halsey St & Tompkins Ave,21,True,[],classic,"['CREDITCARD', 'KEY']",3047,False,71,https://bkn.lft.to/lastmile_qr_scan,https://bkn.lft.to/lastmile_qr_scan
263,66dcbe7c-0aca-11e7-82f6-3863bb44ef7c,3048,-73.94977,40.68402,4327.09,False,Putnam Ave & Nostrand Ave,19,True,[],classic,"['CREDITCARD', 'KEY']",3048,False,71,https://bkn.lft.to/lastmile_qr_scan,https://bkn.lft.to/lastmile_qr_scan
264,66dcbefb-0aca-11e7-82f6-3863bb44ef7c,3049,-73.96304,40.68488,4377.04,False,Cambridge Pl & Gates Ave,18,True,[],classic,"['CREDITCARD', 'KEY']",3049,False,71,https://bkn.lft.to/lastmile_qr_scan,https://bkn.lft.to/lastmile_qr_scan
265,66dcbf69-0aca-11e7-82f6-3863bb44ef7c,3050,-73.94111,40.6851532,4392.04,False,Putnam Ave & Throop Ave,21,True,[],classic,"['CREDITCARD', 'KEY']",3050,False,71,https://bkn.lft.to/lastmile_qr_scan,https://bkn.lft.to/lastmile_qr_scan
266,66dcc047-0aca-11e7-82f6-3863bb44ef7c,3052,-73.935775,40.686312,4425.02,False,Lewis Ave & Madison St,23,True,[],classic,"['CREDITCARD', 'KEY']",3052,False,71,https://bkn.lft.to/lastmile_qr_scan,https://bkn.lft.to/lastmile_qr_scan
267,66dcc0b2-0aca-11e7-82f6-3863bb44ef7c,3053,-73.947915,40.6900815,4476.03,False,Marcy Ave & Lafayette Ave,23,True,[],classic,"['CREDITCARD', 'KEY']",3053,False,71,https://bkn.lft.to/lastmile_qr_scan,https://bkn.lft.to/lastmile_qr_scan
268,66dcc30b-0aca-11e7-82f6-3863bb44ef7c,3054,-73.942061,40.6894932,4510.04,False,Greene Ave & Throop Ave,19,True,[],classic,"['CREDITCARD', 'KEY']",3054,False,71,https://bkn.lft.to/lastmile_qr_scan,https://bkn.lft.to/lastmile_qr_scan
269,66dcc37f-0aca-11e7-82f6-3863bb44ef7c,3055,-73.950916,40.6883337,4519.02,False,Greene Ave & Nostrand Ave,23,True,[],classic,"['CREDITCARD', 'KEY']",3055,False,71,https://bkn.lft.to/lastmile_qr_scan,https://bkn.lft.to/lastmile_qr_scan
270,66dcc3e5-0aca-11e7-82f6-3863bb44ef7c,3056,-73.95133465,40.69072549,4519.04,False,Kosciuszko St & Nostrand Ave,23,True,[],classic,"['CREDITCARD', 'KEY']",3056,False,71,https://bkn.lft.to/lastmile_qr_scan,https://bkn.lft.to/lastmile_qr_scan
271,66dcc44a-0aca-11e7-82f6-3863bb44ef7c,3057,-73.9452416,40.69128258,4553.04,False,Kosciuszko St & Tompkins Ave,18,True,[],classic,"['CREDITCARD', 'KEY']",3057,False,71,https://bkn.lft.to/lastmile_qr_scan,https://bkn.lft.to/lastmile_qr_scan
272,66dcc5ca-0aca-11e7-82f6-3863bb44ef7c,3058,-73.93705428,40.69237074,4617.01,False,Lewis Ave & Kosciuszko St,24,True,[],classic,"['CREDITCARD', 'KEY']",3058,False,71,https://bkn.lft.to/lastmile_qr_scan,https://bkn.lft.to/lastmile_qr_scan
273,66dcc65c-0aca-11e7-82f6-3863bb44ef7c,3059,-73.939877,40.6933982,4656.03,False,Pulaski St & Marcus Garvey Blvd,19,True,[],classic,"['CREDITCARD', 'KEY']",3059,False,71,https://bkn.lft.to/lastmile_qr_scan,https://bkn.lft.to/lastmile_qr_scan
274,66dcc8b3-0aca-11e7-82f6-3863bb44ef7c,3060,-73.94626915,40.69425403,4665.02,False,Willoughby Ave & Tompkins Ave,19,True,[],classic,"['CREDITCARD', 'KEY']",3060,False,71,https://bkn.lft.to/lastmile_qr_scan,https://bkn.lft.to/lastmile_qr_scan
275,66dcc920-0aca-11e7-82f6-3863bb44ef7c,3061,-73.94371094,40.69622937,4697.01,False,Throop Ave & Myrtle Ave,21,True,[],classic,"['CREDITCARD', 'KEY']",3061,False,71,https://bkn.lft.to/lastmile_qr_scan,https://bkn.lft.to/lastmile_qr_scan
276,66dcca0d-0aca-11e7-82f6-3863bb44ef7c,3062,-73.94954908,40.69539817,4707.03,False,Myrtle Ave & Marcy Ave,23,True,[],classic,"['CREDITCARD', 'KEY']",3062,False,71,https://bkn.lft.to/lastmile_qr_scan,https://bkn.lft.to/lastmile_qr_scan
277,66dcca76-0aca-11e7-82f6-3863bb44ef7c,3063,-73.95238108,40.69527008,4707.04,False,Nostrand Ave & Myrtle Ave,20,True,[],classic,"['CREDITCARD', 'KEY']",3063,False,71,https://bkn.lft.to/lastmile_qr_scan,https://bkn.lft.to/lastmile_qr_scan
278,66dccad8-0aca-11e7-82f6-3863bb44ef7c,3064,-73.93756926,40.69681963,4729.01,False,Myrtle Ave & Lewis Ave,15,True,[],classic,"['CREDITCARD', 'KEY']",3064,False,71,https://bkn.lft.to/lastmile_qr_scan,https://bkn.lft.to/lastmile_qr_scan
279,66dccc99-0aca-11e7-82f6-3863bb44ef7c,3065,-73.95032283,40.70029511,4818.03,False,Union Ave & Wallabout St,31,True,[],classic,"['CREDITCARD', 'KEY']",3065,False,71,https://bkn.lft.to/lastmile_qr_scan,https://bkn.lft.to/lastmile_qr_scan
280,66dcccfe-0aca-11e7-82f6-3863bb44ef7c,3066,-73.94708417,40.69957608,4850.04,False,Tompkins Ave & Hopkins St,19,True,[],classic,"['CREDITCARD', 'KEY']",3066,False,71,https://bkn.lft.to/lastmile_qr_scan,https://bkn.lft.to/lastmile_qr_scan
281,66dccd65-0aca-11e7-82f6-3863bb44ef7c,3067,-73.9437303,40.7016657,4883.03,False,Broadway & Whipple St,27,True,[],classic,"['CREDITCARD', 'KEY']",3067,False,71,https://bkn.lft.to/lastmile_qr_scan,https://bkn.lft.to/lastmile_qr_scan
282,66dce2a4-0aca-11e7-82f6-3863bb44ef7c,3068,-73.940636,40.7031724,4956.02,False,Humboldt St & Varet St,42,True,[],classic,"['CREDITCARD', 'KEY']",3068,False,71,https://bkn.lft.to/lastmile_qr_scan,https://bkn.lft.to/lastmile_qr_scan
283,66dce4fc-0aca-11e7-82f6-3863bb44ef7c,3069,-73.94818595,40.70411791,4965.01,False,Lorimer St & Broadway,29,True,[],classic,"['CREDITCARD', 'KEY']",3069,False,71,https://bkn.lft.to/lastmile_qr_scan,https://bkn.lft.to/lastmile_qr_scan
284,66dce567-0aca-11e7-82f6-3863bb44ef7c,3070,-73.94407279,40.70510918,4996.08,False,McKibbin St & Manhattan Ave,23,True,[],classic,"['CREDITCARD', 'KEY']",3070,False,71,https://bkn.lft.to/lastmile_qr_scan,https://bkn.lft.to/lastmile_qr_scan
285,66dce5c9-0aca-11e7-82f6-3863bb44ef7c,3071,-73.94976519,40.70538077,5004.02,False,Boerum St & Broadway,19,True,[],classic,"['CREDITCARD', 'KEY']",3071,False,71,https://bkn.lft.to/lastmile_qr_scan,https://bkn.lft.to/lastmile_qr_scan
286,66dce660-0aca-11e7-82f6-3863bb44ef7c,3072,-73.94644578,40.70583339,5036.06,False,Leonard St & Boerum St,24,True,[],classic,"['CREDITCARD', 'KEY']",3072,False,71,https://bkn.lft.to/lastmile_qr_scan,https://bkn.lft.to/lastmile_qr_scan
287,66dce8db-0aca-11e7-82f6-3863bb44ef7c,3074,-73.94016171,40.70767788,5068.02,False,Montrose Ave & Bushwick Ave,42,True,[],classic,"['CREDITCARD', 'KEY']",3074,False,71,https://bkn.lft.to/lastmile_qr_scan,https://bkn.lft.to/lastmile_qr_scan
288,66dce9b5-0aca-11e7-82f6-3863bb44ef7c,3075,-73.95796783,40.70708701,5084.03,False,Division Ave & Marcy Ave,33,True,[],classic,"['CREDITCARD', 'KEY']",3075,False,71,https://bkn.lft.to/lastmile_qr_scan,https://bkn.lft.to/lastmile_qr_scan
289,66dcec6b-0aca-11e7-82f6-3863bb44ef7c,3076,-73.9448625,40.70870368,5108.01,False,Scholes St & Manhattan Ave,36,True,[],classic,"['CREDITCARD', 'KEY']",3076,False,71,https://bkn.lft.to/lastmile_qr_scan,https://bkn.lft.to/lastmile_qr_scan
290,66dcecfa-0aca-11e7-82f6-3863bb44ef7c,3077,-73.95095259,40.70877084,5117.05,False,Stagg St & Union Ave,33,True,[],classic,"['CREDITCARD', 'KEY']",3077,False,71,https://bkn.lft.to/lastmile_qr_scan,https://bkn.lft.to/lastmile_qr_scan
291,66dced76-0aca-11e7-82f6-3863bb44ef7c,3078,-73.96063148975372,40.70924826276157,5125.07,False,Broadway & Roebling St,27,True,[],classic,"['CREDITCARD', 'KEY']",3078,False,71,https://bkn.lft.to/lastmile_qr_scan,https://bkn.lft.to/lastmile_qr_scan
292,66dcf023-0aca-11e7-82f6-3863bb44ef7c,3080,-73.95608,40.70934,5156.05,False,S 4 St & Rodney St,21,True,[],classic,"['CREDITCARD', 'KEY']",3080,False,71,https://bkn.lft.to/lastmile_qr_scan,https://bkn.lft.to/lastmile_qr_scan
293,66dcf0b3-0aca-11e7-82f6-3863bb44ef7c,3081,-73.944024,40.711863,5178.06,False,Graham Ave & Grand St,29,True,[],classic,"['CREDITCARD', 'KEY']",3081,False,71,https://bkn.lft.to/lastmile_qr_scan,https://bkn.lft.to/lastmile_qr_scan
294,66dcf30d-0aca-11e7-82f6-3863bb44ef7c,3082,-73.95141312,40.71167351,5187.03,False,Hope St & Union Ave,25,True,[],classic,"['CREDITCARD', 'KEY']",3082,False,71,https://bkn.lft.to/lastmile_qr_scan,https://bkn.lft.to/lastmile_qr_scan
295,66dcf394-0aca-11e7-82f6-3863bb44ef7c,3083,-73.94100005,40.71247661,5250.05,False,Bushwick Ave & Powers St,32,True,[],classic,"['CREDITCARD', 'KEY']",3083,False,71,https://bkn.lft.to/lastmile_qr_scan,https://bkn.lft.to/lastmile_qr_scan
296,66dcf640-0aca-11e7-82f6-3863bb44ef7c,3085,-73.95739,40.71469,5267.09,False,Roebling St & N 4 St,25,True,[],classic,"['CREDITCARD', 'KEY']",3085,False,71,https://bkn.lft.to/lastmile_qr_scan,https://bkn.lft.to/lastmile_qr_scan
297,66dcf897-0aca-11e7-82f6-3863bb44ef7c,3086,-73.944507,40.715143,5291.05,False,Graham Ave & Conselyea St,30,True,[],classic,"['CREDITCARD', 'KEY']",3086,False,71,https://bkn.lft.to/lastmile_qr_scan,https://bkn.lft.to/lastmile_qr_scan
298,66dcf922-0aca-11e7-82f6-3863bb44ef7c,3087,-73.95234386,40.71413311,5300.05,False,Metropolitan Ave & Meeker Ave,30,True,[],classic,"['CREDITCARD', 'KEY']",3087,False,71,https://bkn.lft.to/lastmile_qr_scan,https://bkn.lft.to/lastmile_qr_scan
299,66dcfaf6-0aca-11e7-82f6-3863bb44ef7c,3088,-73.952029,40.7160751,5300.06,False,Union Ave & Jackson St,19,True,[],classic,"['CREDITCARD', 'KEY']",3088,False,71,https://bkn.lft.to/lastmile_qr_scan,https://bkn.lft.to/lastmile_qr_scan
300,66dd01c5-0aca-11e7-82f6-3863bb44ef7c,3092,-73.95852515,40.7190095,5379.09,False,Berry St & N 8 St,27,True,[],classic,"['CREDITCARD', 'KEY']",3092,False,71,https://bkn.lft.to/lastmile_qr_scan,https://bkn.lft.to/lastmile_qr_scan
301,66dd039b-0aca-11e7-82f6-3863bb44ef7c,3093,-73.95850939,40.71745169,5379.10,False,N 6 St & Bedford Ave,28,True,[],classic,"['CREDITCARD', 'KEY']",3093,False,71,https://bkn.lft.to/lastmile_qr_scan,https://bkn.lft.to/lastmile_qr_scan
302,66dd056e-0aca-11e7-82f6-3863bb44ef7c,3094,-73.94485918,40.7169811,5403.04,False,Graham Ave & Withers St,18,True,[],classic,"['CREDITCARD', 'KEY']",3094,False,71,https://bkn.lft.to/lastmile_qr_scan,https://bkn.lft.to/lastmile_qr_scan
303,66dd0808-0aca-11e7-82f6-3863bb44ef7c,3095,-73.94500379,40.71929301,5403.05,False,Graham Ave & Herbert St,26,True,[],classic,"['CREDITCARD', 'KEY']",3095,False,71,https://bkn.lft.to/lastmile_qr_scan,https://bkn.lft.to/lastmile_qr_scan
304,66dd1585-0aca-11e7-82f6-3863bb44ef7c,3096,-73.95242,40.71924,5411.07,False,Union Ave & N 12 St,39,True,[],classic,"['CREDITCARD', 'KEY']",3096,False,71,https://bkn.lft.to/lastmile_qr_scan,https://bkn.lft.to/lastmile_qr_scan
305,66dd17a5-0aca-11e7-82f6-3863bb44ef7c,3100,-73.94752621650696,40.724812564400175,5623.03,False,Nassau Ave & Newell St,51,True,[],classic,"['CREDITCARD', 'KEY']",3100,False,71,https://bkn.lft.to/lastmile_qr_scan,https://bkn.lft.to/lastmile_qr_scan
306,66dd1846-0aca-11e7-82f6-3863bb44ef7c,3101,-73.95484712,40.72079821,5450.04,False,N 12 St & Bedford Ave,27,True,[],classic,"['CREDITCARD', 'KEY']",3101,False,71,https://bkn.lft.to/lastmile_qr_scan,https://bkn.lft.to/lastmile_qr_scan
307,66dd18dd-0aca-11e7-82f6-3863bb44ef7c,3102,-73.9504154,40.72179134,5481.04,False,Driggs Ave & Lorimer St,27,True,[],classic,"['CREDITCARD', 'KEY']",3102,False,71,https://bkn.lft.to/lastmile_qr_scan,https://bkn.lft.to/lastmile_qr_scan
308,66dd1ad8-0aca-11e7-82f6-3863bb44ef7c,3105,-73.955736,40.724055,5520.09,False,N 15 St & Wythe Ave,54,True,[],classic,"['CREDITCARD', 'KEY']",3105,False,71,https://bkn.lft.to/lastmile_qr_scan,https://bkn.lft.to/lastmile_qr_scan
309,66dd1b65-0aca-11e7-82f6-3863bb44ef7c,3106,-73.94308,40.72325,5542.04,False,Driggs Ave & N Henry St,52,True,[],classic,"['CREDITCARD', 'KEY']",3106,False,71,https://bkn.lft.to/lastmile_qr_scan,https://bkn.lft.to/lastmile_qr_scan
310,66dd1bf3-0aca-11e7-82f6-3863bb44ef7c,3107,-73.95212324,40.72311651,5550.05,False,Bedford Ave & Nassau Ave,39,True,[],classic,"['CREDITCARD', 'KEY']",3107,False,71,https://bkn.lft.to/lastmile_qr_scan,https://bkn.lft.to/lastmile_qr_scan
311,66dd1c7f-0aca-11e7-82f6-3863bb44ef7c,3108,-73.94434,40.72557,5581.01,False,Nassau Ave & Russell St,51,True,[],classic,"['CREDITCARD', 'KEY']",3108,False,71,https://bkn.lft.to/lastmile_qr_scan,https://bkn.lft.to/lastmile_qr_scan
312,66dd1d0f-0aca-11e7-82f6-3863bb44ef7c,3109,-73.95621,40.72606,5633.04,False,Banker St & Meserole Ave,31,True,[],classic,"['CREDITCARD', 'KEY']",3109,False,71,https://bkn.lft.to/lastmile_qr_scan,https://bkn.lft.to/lastmile_qr_scan
313,66dd1d9c-0aca-11e7-82f6-3863bb44ef7c,3110,-73.95299117,40.72708584,5666.04,False,Meserole Ave & Manhattan Ave,28,True,[],classic,"['CREDITCARD', 'KEY']",3110,False,71,https://bkn.lft.to/lastmile_qr_scan,https://bkn.lft.to/lastmile_qr_scan
314,66dd1eb2-0aca-11e7-82f6-3863bb44ef7c,3112,-73.95779,40.72906,5752.07,False,Milton St & Franklin St,33,True,[],classic,"['CREDITCARD', 'KEY']",3112,False,71,https://bkn.lft.to/lastmile_qr_scan,https://bkn.lft.to/lastmile_qr_scan
315,66dd1f44-0aca-11e7-82f6-3863bb44ef7c,3113,-73.95394,40.73026,5785.05,False,Greenpoint Ave & Manhattan Ave,27,True,[],classic,"['CREDITCARD', 'KEY']",3113,False,71,https://bkn.lft.to/lastmile_qr_scan,https://bkn.lft.to/lastmile_qr_scan
316,66dd2060-0aca-11e7-82f6-3863bb44ef7c,3115,-73.9550858,40.73232194,5826.02,False,India St & Manhattan Ave,50,True,[],classic,"['CREDITCARD', 'KEY']",3115,False,71,https://bkn.lft.to/lastmile_qr_scan,https://bkn.lft.to/lastmile_qr_scan
317,66dd20eb-0aca-11e7-82f6-3863bb44ef7c,3116,-73.95826,40.73266,5869.04,False,Huron St & Franklin St,35,True,[],classic,"['CREDITCARD', 'KEY']",3116,False,71,https://bkn.lft.to/lastmile_qr_scan,https://bkn.lft.to/lastmile_qr_scan
318,66dd217d-0aca-11e7-82f6-3863bb44ef7c,3117,-73.95866,40.73564,5944.01,False,Franklin St & Dupont St,27,True,[],classic,"['CREDITCARD', 'KEY']",3117,False,71,https://bkn.lft.to/lastmile_qr_scan,https://bkn.lft.to/lastmile_qr_scan
319,66dd2208-0aca-11e7-82f6-3863bb44ef7c,3118,-73.95284,40.73555,5977.01,False,McGuinness Blvd & Eagle St,42,True,[],classic,"['CREDITCARD', 'KEY']",3118,False,71,https://bkn.lft.to/lastmile_qr_scan,https://bkn.lft.to/lastmile_qr_scan
320,66dd2292-0aca-11e7-82f6-3863bb44ef7c,3119,-73.95411749,40.74232744,6170.02,False,Vernon Blvd & 50 Ave,45,True,[],classic,"['CREDITCARD', 'KEY']",3119,False,71,https://bkn.lft.to/lastmile_qr_scan,https://bkn.lft.to/lastmile_qr_scan
321,66dd23a9-0aca-11e7-82f6-3863bb44ef7c,3121,-73.94733276,40.74524768,6203.02,False,Jackson Ave & 46 Rd,27,True,[],classic,"['CREDITCARD', 'KEY']",3121,False,71,https://bkn.lft.to/lastmile_qr_scan,https://bkn.lft.to/lastmile_qr_scan
322,66dd243c-0aca-11e7-82f6-3863bb44ef7c,3122,-73.9558732509613,40.744363287066875,6212.04,False,48 Ave & 5 St,79,True,[],classic,"['CREDITCARD', 'KEY']",3122,False,71,https://bkn.lft.to/lastmile_qr_scan,https://bkn.lft.to/lastmile_qr_scan
323,66dd24ca-0aca-11e7-82f6-3863bb44ef7c,3123,-73.93540375,40.74469738,6227.02,False,31 St & Thomson Ave,47,True,[],classic,"['CREDITCARD', 'KEY']",3123,False,71,https://bkn.lft.to/lastmile_qr_scan,https://bkn.lft.to/lastmile_qr_scan
324,66dd2556-0aca-11e7-82f6-3863bb44ef7c,3124,-73.95451,40.74731,6286.02,False,46 Ave & 5 St,43,True,[],classic,"['CREDITCARD', 'KEY']",3124,False,71,https://bkn.lft.to/lastmile_qr_scan,https://bkn.lft.to/lastmile_qr_scan
325,66dd25e0-0aca-11e7-82f6-3863bb44ef7c,3125,-73.94977234,40.74708586,6319.01,False,45 Rd & 11 St,23,True,[],classic,"['CREDITCARD', 'KEY']",3125,False,71,https://bkn.lft.to/lastmile_qr_scan,https://bkn.lft.to/lastmile_qr_scan
326,66dd266a-0aca-11e7-82f6-3863bb44ef7c,3126,-73.9432635,40.74718234,6352.01,False,44 Dr & Jackson Ave,34,True,[],classic,"['CREDITCARD', 'KEY']",3126,False,71,https://bkn.lft.to/lastmile_qr_scan,https://bkn.lft.to/lastmile_qr_scan
327,66dd26f9-0aca-11e7-82f6-3863bb44ef7c,3127,-73.9521,40.74966,6361.03,False,9 St & 44 Rd,34,True,[],classic,"['CREDITCARD', 'KEY']",3127,False,71,https://bkn.lft.to/lastmile_qr_scan,https://bkn.lft.to/lastmile_qr_scan
328,66dd2786-0aca-11e7-82f6-3863bb44ef7c,3128,-73.94594845,40.75052534,6395.01,False,21 St & 43 Ave,27,True,[],classic,"['CREDITCARD', 'KEY']",3128,False,71,https://bkn.lft.to/lastmile_qr_scan,https://bkn.lft.to/lastmile_qr_scan
329,66dd2811-0aca-11e7-82f6-3863bb44ef7c,3129,-73.94073717,40.75110165,6429.01,False,Queens Plaza North & Crescent St,40,True,[],classic,"['CREDITCARD', 'KEY']",3129,False,71,https://bkn.lft.to/lastmile_qr_scan,https://bkn.lft.to/lastmile_qr_scan
330,66dd3cb4-0aca-11e7-82f6-3863bb44ef7c,3130,-73.94335788,40.75325964,6471.02,False,21 St & Queens Plaza North,35,True,[],classic,"['CREDITCARD', 'KEY']",3130,False,71,https://bkn.lft.to/lastmile_qr_scan,https://bkn.lft.to/lastmile_qr_scan
331,66dd3d7f-0aca-11e7-82f6-3863bb44ef7c,3131,-73.96224617958069,40.76712840349542,6896.16,False,E 68 St & 3 Ave,36,True,[],classic,"['CREDITCARD', 'KEY']",3131,False,71,https://bkn.lft.to/lastmile_qr_scan,https://bkn.lft.to/lastmile_qr_scan
332,66dd3e14-0aca-11e7-82f6-3863bb44ef7c,3132,-73.97109243,40.76350532,6801.01,False,E 59 St & Madison Ave,35,True,[],classic,"['CREDITCARD', 'KEY']",3132,False,71,https://bkn.lft.to/lastmile_qr_scan,https://bkn.lft.to/lastmile_qr_scan
333,66dd3f33-0aca-11e7-82f6-3863bb44ef7c,3134,-73.96526895,40.76312584,6762.04,False,3 Ave & E 62 St,51,True,[],classic,"['CREDITCARD', 'KEY']",3134,False,71,https://bkn.lft.to/lastmile_qr_scan,https://bkn.lft.to/lastmile_qr_scan
334,66dd3fc3-0aca-11e7-82f6-3863bb44ef7c,3135,-73.95772297,40.77112927,6991.12,False,E 75 St & 3 Ave,41,True,[],classic,"['CREDITCARD', 'KEY']",3135,False,71,https://bkn.lft.to/lastmile_qr_scan,https://bkn.lft.to/lastmile_qr_scan
335,66dd4051-0aca-11e7-82f6-3863bb44ef7c,3136,-73.971518,40.766368,6904.06,False,5 Ave & E 63 St,51,True,[],classic,"['CREDITCARD', 'KEY']",3136,False,71,https://bkn.lft.to/lastmile_qr_scan,https://bkn.lft.to/lastmile_qr_scan
336,66dd40dd-0aca-11e7-82f6-3863bb44ef7c,3137,-73.96685276,40.77282817,7100.07,False,5 Ave & E 72 St,31,True,[],classic,"['CREDITCARD', 'KEY']",3137,False,71,https://bkn.lft.to/lastmile_qr_scan,https://bkn.lft.to/lastmile_qr_scan
337,66dd41ef-0aca-11e7-82f6-3863bb44ef7c,3139,-73.96409422159195,40.77118287540658,6998.08,False,E 72 St & Park Ave,43,True,[],classic,"['CREDITCARD', 'KEY']",3139,False,71,https://bkn.lft.to/lastmile_qr_scan,https://bkn.lft.to/lastmile_qr_scan
338,66dd427e-0aca-11e7-82f6-3863bb44ef7c,3140,-73.9535166,40.77140426,7020.09,False,1 Ave & E 78 St,57,True,[],classic,"['CREDITCARD', 'KEY']",3140,False,71,https://bkn.lft.to/lastmile_qr_scan,https://bkn.lft.to/lastmile_qr_scan
339,66dd42eb-0aca-11e7-82f6-3863bb44ef7c,3141,-73.95818491,40.76500525,6822.09,False,1 Ave & E 68 St,62,True,[],classic,"['CREDITCARD', 'KEY']",3141,False,71,https://bkn.lft.to/lastmile_qr_scan,https://bkn.lft.to/lastmile_qr_scan
340,66dd4356-0aca-11e7-82f6-3863bb44ef7c,3142,-73.96094022,40.7612274,6753.08,False,1 Ave & E 62 St,45,True,[],classic,"['CREDITCARD', 'KEY']",3142,False,71,https://bkn.lft.to/lastmile_qr_scan,https://bkn.lft.to/lastmile_qr_scan
341,66dd43bd-0aca-11e7-82f6-3863bb44ef7c,3143,-73.96427392959595,40.77632142182271,7161.08,False,5 Ave & E 78 St,47,True,[],classic,"['CREDITCARD', 'KEY']",3143,False,71,https://bkn.lft.to/lastmile_qr_scan,https://bkn.lft.to/lastmile_qr_scan
342,66dd4423-0aca-11e7-82f6-3863bb44ef7c,3144,-73.9590097,40.77677702,7188.10,False,E 81 St & Park Ave,46,True,[],classic,"['CREDITCARD', 'KEY']",3144,False,71,https://bkn.lft.to/lastmile_qr_scan,https://bkn.lft.to/lastmile_qr_scan
343,66dd448f-0aca-11e7-82f6-3863bb44ef7c,3145,-73.95772073,40.77862688,7243.04,False,E 84 St & Park Ave,45,True,[],classic,"['CREDITCARD', 'KEY']",3145,False,71,https://bkn.lft.to/lastmile_qr_scan,https://bkn.lft.to/lastmile_qr_scan
344,66dd44f7-0aca-11e7-82f6-3863bb44ef7c,3146,-73.9567526,40.77573034,7154.07,False,E 81 St & 3 Ave,47,True,[],classic,"['CREDITCARD', 'KEY']",3146,False,71,https://bkn.lft.to/lastmile_qr_scan,https://bkn.lft.to/lastmile_qr_scan
345,66dd455e-0aca-11e7-82f6-3863bb44ef7c,3147,-73.95407149,40.77801203,7212.05,False,E 85 St & 3 Ave,39,True,[],classic,"['CREDITCARD', 'KEY']",3147,False,71,https://bkn.lft.to/lastmile_qr_scan,https://bkn.lft.to/lastmile_qr_scan
346,66dd45c7-0aca-11e7-82f6-3863bb44ef7c,3148,-73.95068615,40.77565541,7180.02,False,E 84 St & 1 Ave,31,True,[],classic,"['CREDITCARD', 'KEY']",3148,False,71,https://bkn.lft.to/lastmile_qr_scan,https://bkn.lft.to/lastmile_qr_scan
347,66dd46a2-0aca-11e7-82f6-3863bb44ef7c,3150,-73.94803392,40.77536905,7146.04,False,E 85 St & York Ave,47,True,[],classic,"['CREDITCARD', 'KEY']",3150,False,71,https://bkn.lft.to/lastmile_qr_scan,https://bkn.lft.to/lastmile_qr_scan
348,66dd470b-0aca-11e7-82f6-3863bb44ef7c,3151,-73.94989233,40.7728384,7084.12,False,E 81 St & York Ave,47,True,[],classic,"['CREDITCARD', 'KEY']",3151,False,71,https://bkn.lft.to/lastmile_qr_scan,https://bkn.lft.to/lastmile_qr_scan
349,66dd4772-0aca-11e7-82f6-3863bb44ef7c,3152,-73.96119945,40.76873687,6960.10,False,3 Ave & E 71 St,42,True,[],classic,"['CREDITCARD', 'KEY']",3152,False,71,https://bkn.lft.to/lastmile_qr_scan,https://bkn.lft.to/lastmile_qr_scan
350,66dd4841-0aca-11e7-82f6-3863bb44ef7c,3154,-73.95856158,40.77314236,7092.06,False,E 77 St & 3 Ave,46,True,[],classic,"['CREDITCARD', 'KEY']",3154,False,71,https://bkn.lft.to/lastmile_qr_scan,https://bkn.lft.to/lastmile_qr_scan
351,66dd491c-0aca-11e7-82f6-3863bb44ef7c,3156,-73.95348296,40.76663814,6889.12,False,E 72 St & York Ave,37,True,[],classic,"['CREDITCARD', 'KEY']",3156,False,71,https://bkn.lft.to/lastmile_qr_scan,https://bkn.lft.to/lastmile_qr_scan
352,66dd4981-0aca-11e7-82f6-3863bb44ef7c,3157,-73.94446054,40.77518615,7113.08,False,East End Ave & E 86 St,27,True,[],classic,"['CREDITCARD', 'KEY']",3157,False,71,https://bkn.lft.to/lastmile_qr_scan,https://bkn.lft.to/lastmile_qr_scan
353,66dd49eb-0aca-11e7-82f6-3863bb44ef7c,3158,-73.98261428,40.77163851,7052.01,False,W 63 St & Broadway,31,True,[],classic,"['CREDITCARD', 'KEY']",3158,False,71,https://bkn.lft.to/lastmile_qr_scan,https://bkn.lft.to/lastmile_qr_scan
354,66dd4a52-0aca-11e7-82f6-3863bb44ef7c,3159,-73.98266566,40.77492513,7116.04,False,W 67 St & Broadway,31,True,[],classic,"['CREDITCARD', 'KEY']",3159,False,71,https://bkn.lft.to/lastmile_qr_scan,https://bkn.lft.to/lastmile_qr_scan
355,66dd4ac1-0aca-11e7-82f6-3863bb44ef7c,3160,-73.97374737,40.77896784,7253.04,False,Central Park West & W 76 St,39,True,[],classic,"['CREDITCARD', 'KEY']",3160,False,71,https://bkn.lft.to/lastmile_qr_scan,https://bkn.lft.to/lastmile_qr_scan
356,66dd4b2b-0aca-11e7-82f6-3863bb44ef7c,3161,-73.97728532552719,40.7801839724239,7281.09,False,W 76 St & Columbus Ave,59,True,[],classic,"['CREDITCARD', 'KEY']",3161,False,71,https://bkn.lft.to/lastmile_qr_scan,https://bkn.lft.to/lastmile_qr_scan
357,66dd4bf7-0aca-11e7-82f6-3863bb44ef7c,3163,-73.97782542,40.7734066,7079.06,False,Central Park West & W 68 St,43,True,[],classic,"['CREDITCARD', 'KEY']",3163,False,71,https://bkn.lft.to/lastmile_qr_scan,https://bkn.lft.to/lastmile_qr_scan
358,66dd4c5f-0aca-11e7-82f6-3863bb44ef7c,3164,-73.97898475,40.7770575,7175.05,False,Columbus Ave & W 72 St,67,True,[],classic,"['CREDITCARD', 'KEY']",3164,False,71,https://bkn.lft.to/lastmile_qr_scan,https://bkn.lft.to/lastmile_qr_scan
359,66dd4ccc-0aca-11e7-82f6-3863bb44ef7c,3165,-73.9762057363987,40.77579376683666,7141.07,False,Central Park West & W 72 St,51,True,[],classic,"['CREDITCARD', 'KEY']",3165,False,71,https://bkn.lft.to/lastmile_qr_scan,https://bkn.lft.to/lastmile_qr_scan
360,66dd4d70-0aca-11e7-82f6-3863bb44ef7c,3166,-73.98562431335449,40.78057799010334,7288.04,False,Riverside Dr & W 72 St,41,True,[],classic,"['CREDITCARD', 'KEY']",3166,False,71,https://bkn.lft.to/lastmile_qr_scan,https://bkn.lft.to/lastmile_qr_scan
361,66dd4de9-0aca-11e7-82f6-3863bb44ef7c,3167,-73.98093044757842,40.77966809007312,7260.09,False,Amsterdam Ave & W 73 St,55,True,[],classic,"['CREDITCARD', 'KEY']",3167,False,71,https://bkn.lft.to/lastmile_qr_scan,https://bkn.lft.to/lastmile_qr_scan
362,66dd4ec7-0aca-11e7-82f6-3863bb44ef7c,3169,-73.98128127,40.78720869,7388.10,False,Riverside Dr & W 82 St,75,True,[],classic,"['CREDITCARD', 'KEY']",3169,False,71,https://bkn.lft.to/lastmile_qr_scan,https://bkn.lft.to/lastmile_qr_scan
363,66dd4f31-0aca-11e7-82f6-3863bb44ef7c,3170,-73.97283406,40.78499979,7382.04,False,W 84 St & Columbus Ave,35,True,[],classic,"['CREDITCARD', 'KEY']",3170,False,71,https://bkn.lft.to/lastmile_qr_scan,https://bkn.lft.to/lastmile_qr_scan
364,66dd4f9b-0aca-11e7-82f6-3863bb44ef7c,3171,-73.97667321,40.78524672,7360.10,False,Amsterdam Ave & W 82 St,39,True,[],classic,"['CREDITCARD', 'KEY']",3171,False,71,https://bkn.lft.to/lastmile_qr_scan,https://bkn.lft.to/lastmile_qr_scan
365,66dd515d-0aca-11e7-82f6-3863bb44ef7c,3172,-73.97754961,40.7785669,7230.10,False,W 74 St & Columbus Ave,27,True,[],classic,"['CREDITCARD', 'KEY']",3172,False,71,https://bkn.lft.to/lastmile_qr_scan,https://bkn.lft.to/lastmile_qr_scan
366,66dd51e6-0aca-11e7-82f6-3863bb44ef7c,3173,-73.98888587951659,40.777507027547976,7183.03,False,Riverside Blvd & W 67 St,79,True,[],classic,"['CREDITCARD', 'KEY']",3173,False,71,https://bkn.lft.to/lastmile_qr_scan,https://bkn.lft.to/lastmile_qr_scan
367,66dd52c8-0aca-11e7-82f6-3863bb44ef7c,3175,-73.98288594,40.77748046,7207.08,False,W 70 St & Amsterdam Ave,43,True,[],classic,"['CREDITCARD', 'KEY']",3175,False,71,https://bkn.lft.to/lastmile_qr_scan,https://bkn.lft.to/lastmile_qr_scan
368,66dd539f-0aca-11e7-82f6-3863bb44ef7c,3177,-73.977112,40.7867947,7409.08,False,W 84 St & Broadway,63,True,[],classic,"['CREDITCARD', 'KEY']",3177,False,71,https://bkn.lft.to/lastmile_qr_scan,https://bkn.lft.to/lastmile_qr_scan
369,66dd5407-0aca-11e7-82f6-3863bb44ef7c,3178,-73.98362492,40.78414472,7340.06,False,Riverside Dr & W 78 St,79,True,[],classic,"['CREDITCARD', 'KEY']",3178,False,71,https://bkn.lft.to/lastmile_qr_scan,https://bkn.lft.to/lastmile_qr_scan
370,66dd546c-0aca-11e7-82f6-3863bb44ef7c,3179,-73.941342,40.698617,4768.02,False,Park Ave & Marcus Garvey Blvd,23,True,[],classic,"['CREDITCARD', 'KEY']",3179,False,71,https://bkn.lft.to/lastmile_qr_scan,https://bkn.lft.to/lastmile_qr_scan
371,66dd58f2-0aca-11e7-82f6-3863bb44ef7c,3184,-74.0335519,40.7141454,JC002,False,Paulus Hook,14,True,[],classic,"['CREDITCARD', 'KEY']",3184,False,70,https://bkn.lft.to/lastmile_qr_scan,https://bkn.lft.to/lastmile_qr_scan
372,66dd5960-0aca-11e7-82f6-3863bb44ef7c,3185,-74.043845,40.7177325,JC003,False,City Hall,22,True,[],classic,"['CREDITCARD', 'KEY']",3185,False,70,https://bkn.lft.to/lastmile_qr_scan,https://bkn.lft.to/lastmile_qr_scan
373,66dd59d5-0aca-11e7-82f6-3863bb44ef7c,3186,-74.04311746358871,40.71958611647166,JC005,False,Grove St PATH,42,True,[],classic,"['CREDITCARD', 'KEY']",3186,False,70,https://bkn.lft.to/lastmile_qr_scan,https://bkn.lft.to/lastmile_qr_scan
374,66dd5a42-0aca-11e7-82f6-3863bb44ef7c,3187,-74.03805095,40.7211236,JC006,False,Warren St,22,True,[],classic,"['CREDITCARD', 'KEY']",3187,False,70,https://bkn.lft.to/lastmile_qr_scan,https://bkn.lft.to/lastmile_qr_scan
375,66dd5e69-0aca-11e7-82f6-3863bb44ef7c,3191,-74.0836394,40.7182113,JC051,False,Union St,18,True,[],classic,"['CREDITCARD', 'KEY']",3191,False,70,https://bkn.lft.to/lastmile_qr_scan,https://bkn.lft.to/lastmile_qr_scan
376,66dd5f24-0aca-11e7-82f6-3863bb44ef7c,3192,-74.0557013,40.7112423,JC052,False,Liberty Light Rail,22,True,[],classic,"['CREDITCARD', 'KEY']",3192,False,70,https://bkn.lft.to/lastmile_qr_scan,https://bkn.lft.to/lastmile_qr_scan
377,66dd5f99-0aca-11e7-82f6-3863bb44ef7c,3193,-74.07840594649315,40.7246050998869,JC053,False,Lincoln Park,18,True,[],classic,"['CREDITCARD', 'KEY']",3193,False,70,https://bkn.lft.to/lastmile_qr_scan,https://bkn.lft.to/lastmile_qr_scan
378,66dd6000-0aca-11e7-82f6-3863bb44ef7c,3194,-74.06762212514877,40.7253399253558,JC055,False,McGinley Square,22,True,[],classic,"['CREDITCARD', 'KEY']",3194,False,70,https://bkn.lft.to/lastmile_qr_scan,https://bkn.lft.to/lastmile_qr_scan
379,66dd606c-0aca-11e7-82f6-3863bb44ef7c,3195,-74.06391263008118,40.73089709786179,JC056,False,Sip Ave,34,True,[],classic,"['CREDITCARD', 'KEY']",3195,False,70,https://bkn.lft.to/lastmile_qr_scan,https://bkn.lft.to/lastmile_qr_scan
380,66dd630c-0aca-11e7-82f6-3863bb44ef7c,3196,-74.0439909,40.7443187,JC057,False,Riverview Park,18,True,[],classic,"['CREDITCARD', 'KEY']",3196,False,70,https://bkn.lft.to/lastmile_qr_scan,https://bkn.lft.to/lastmile_qr_scan
381,66dd63de-0aca-11e7-82f6-3863bb44ef7c,3198,-74.04044330120087,40.748715945380226,JC059,False,Heights Elevator,18,True,[],classic,"['CREDITCARD', 'KEY']",3198,False,70,https://bkn.lft.to/lastmile_qr_scan,https://bkn.lft.to/lastmile_qr_scan
382,66dd6441-0aca-11e7-82f6-3863bb44ef7c,3199,-74.0321082,40.7287448,JC008,False,Newport Pkwy,14,True,[],classic,"['CREDITCARD', 'KEY']",3199,False,70,https://bkn.lft.to/lastmile_qr_scan,https://bkn.lft.to/lastmile_qr_scan
383,66dd650d-0aca-11e7-82f6-3863bb44ef7c,3201,-74.066921,40.737711,JC065,False,Dey St,18,True,[],classic,"['CREDITCARD', 'KEY']",3201,False,70,https://bkn.lft.to/lastmile_qr_scan,https://bkn.lft.to/lastmile_qr_scan
384,66dd6721-0aca-11e7-82f6-3863bb44ef7c,3202,-74.0337589,40.7272235,JC066,False,Newport PATH,18,True,[],classic,"['CREDITCARD', 'KEY']",3202,False,70,https://bkn.lft.to/lastmile_qr_scan,https://bkn.lft.to/lastmile_qr_scan
385,66dd7b37-0aca-11e7-82f6-3863bb44ef7c,3203,-74.044247311,40.727595966,JC009,False,Hamilton Park,26,True,[],classic,"['CREDITCARD', 'KEY']",3203,False,70,https://bkn.lft.to/lastmile_qr_scan,https://bkn.lft.to/lastmile_qr_scan
386,66dd7c33-0aca-11e7-82f6-3863bb44ef7c,3205,-74.0496379137039,40.71653978099194,JC011,False,JC Medical Center,22,True,[],classic,"['CREDITCARD', 'KEY']",3205,False,70,https://bkn.lft.to/lastmile_qr_scan,https://bkn.lft.to/lastmile_qr_scan
387,66dd7cab-0aca-11e7-82f6-3863bb44ef7c,3206,-74.0575736,40.7311689,JC019,False,Hilltop,26,True,[],classic,"['CREDITCARD', 'KEY']",3206,False,70,https://bkn.lft.to/lastmile_qr_scan,https://bkn.lft.to/lastmile_qr_scan
388,66dd7f10-0aca-11e7-82f6-3863bb44ef7c,3207,-74.0524783,40.7376037,JC022,False,Oakland Ave,26,True,[],classic,"['CREDITCARD', 'KEY']",3207,False,70,https://bkn.lft.to/lastmile_qr_scan,https://bkn.lft.to/lastmile_qr_scan
389,66dd7fe2-0aca-11e7-82f6-3863bb44ef7c,3209,-74.0506564,40.7241765,JC023,False,Brunswick St,22,True,[],classic,"['CREDITCARD', 'KEY']",3209,False,70,https://bkn.lft.to/lastmile_qr_scan,https://bkn.lft.to/lastmile_qr_scan
390,66dd8043-0aca-11e7-82f6-3863bb44ef7c,3210,-74.051788633,40.742677141,JC024,False,Pershing Field,18,True,[],classic,"['CREDITCARD', 'KEY']",3210,False,70,https://bkn.lft.to/lastmile_qr_scan,https://bkn.lft.to/lastmile_qr_scan
391,66dd80ac-0aca-11e7-82f6-3863bb44ef7c,3211,-74.046304543,40.72152515,JC032,False,Newark Ave,22,True,[],classic,"['CREDITCARD', 'KEY']",3211,False,70,https://bkn.lft.to/lastmile_qr_scan,https://bkn.lft.to/lastmile_qr_scan
392,66dd836d-0aca-11e7-82f6-3863bb44ef7c,3212,-74.050443636,40.734785818,JC034,False,Christ Hospital,22,True,[],classic,"['CREDITCARD', 'KEY']",3212,False,70,https://bkn.lft.to/lastmile_qr_scan,https://bkn.lft.to/lastmile_qr_scan
393,66dd83fc-0aca-11e7-82f6-3863bb44ef7c,3213,-74.047726625,40.71848892,JC035,False,Van Vorst Park,22,True,[],classic,"['CREDITCARD', 'KEY']",3213,False,70,https://bkn.lft.to/lastmile_qr_scan,https://bkn.lft.to/lastmile_qr_scan
394,66dd8479-0aca-11e7-82f6-3863bb44ef7c,3214,-74.0364857,40.7127742,JC038,False,Essex Light Rail,22,True,[],classic,"['CREDITCARD', 'KEY']",3214,False,70,https://bkn.lft.to/lastmile_qr_scan,https://bkn.lft.to/lastmile_qr_scan
395,66dd8b48-0aca-11e7-82f6-3863bb44ef7c,3220,-74.0595030784607,40.734961020009514,JC018,False,5 Corners Library,18,True,[],classic,"['CREDITCARD', 'KEY']",3220,False,70,https://bkn.lft.to/lastmile_qr_scan,https://bkn.lft.to/lastmile_qr_scan
396,66dd8bd9-0aca-11e7-82f6-3863bb44ef7c,3221,-73.93561,40.743,6151.03,False,47 Ave & 31 St,27,True,[],classic,"['CREDITCARD', 'KEY']",3221,False,71,https://bkn.lft.to/lastmile_qr_scan,https://bkn.lft.to/lastmile_qr_scan
397,66dd9183-0aca-11e7-82f6-3863bb44ef7c,3225,-74.0641943,40.7236589,JC020,False,Baldwin at Montgomery,14,True,[],classic,"['CREDITCARD', 'KEY']",3225,False,70,https://bkn.lft.to/lastmile_qr_scan,https://bkn.lft.to/lastmile_qr_scan
398,66dd9213-0aca-11e7-82f6-3863bb44ef7c,3226,-73.97137,40.78275,7304.08,False,W 82 St & Central Park West,45,True,[],classic,"['CREDITCARD', 'KEY']",3226,False,71,https://bkn.lft.to/lastmile_qr_scan,https://bkn.lft.to/lastmile_qr_scan
399,66dd9b0f-0aca-11e7-82f6-3863bb44ef7c,3231,-73.96592080593109,40.76780080148132,6932.14,False,E 67 St & Park Ave,39,True,[],classic,"['CREDITCARD', 'KEY']",3231,False,71,https://bkn.lft.to/lastmile_qr_scan,https://bkn.lft.to/lastmile_qr_scan
400,66dd9dba-0aca-11e7-82f6-3863bb44ef7c,3232,-73.98304268717766,40.68962188790333,4479.06,False,Bond St & Fulton St,47,True,[],classic,"['CREDITCARD', 'KEY']",3232,False,71,https://bkn.lft.to/lastmile_qr_scan,https://bkn.lft.to/lastmile_qr_scan
401,66dd9fa6-0aca-11e7-82f6-3863bb44ef7c,3233,-73.97805914282799,40.75724567911726,6626.01,False,E 48 St & 5 Ave,41,True,[],classic,"['CREDITCARD', 'KEY']",3233,False,71,https://bkn.lft.to/lastmile_qr_scan,https://bkn.lft.to/lastmile_qr_scan
402,66dda376-0aca-11e7-82f6-3863bb44ef7c,3235,-73.97992193698882,40.752165280621966,6474.12,False,E 41 St & Madison Ave (SW corner),34,True,[],classic,"['CREDITCARD', 'KEY']",3235,False,71,https://bkn.lft.to/lastmile_qr_scan,https://bkn.lft.to/lastmile_qr_scan
403,66dda55f-0aca-11e7-82f6-3863bb44ef7c,3236,-73.99379968643188,40.75898481399634,6644.07,False,W 42 St & Dyer Ave,33,True,[],classic,"['CREDITCARD', 'KEY']",3236,False,71,https://bkn.lft.to/lastmile_qr_scan,https://bkn.lft.to/lastmile_qr_scan
404,66ddb595-0aca-11e7-82f6-3863bb44ef7c,3241,-73.944694,40.686203,4434.06,False,Monroe St & Tompkins Ave,19,True,[],classic,"['CREDITCARD', 'KEY']",3241,False,71,https://bkn.lft.to/lastmile_qr_scan,https://bkn.lft.to/lastmile_qr_scan
405,66ddb605-0aca-11e7-82f6-3863bb44ef7c,3242,-73.99183362722397,40.69102925677968,4565.04,False,Schermerhorn St & Court St,59,True,[],classic,"['CREDITCARD', 'KEY']",3242,False,71,https://bkn.lft.to/lastmile_qr_scan,https://bkn.lft.to/lastmile_qr_scan
406,66ddb66e-0aca-11e7-82f6-3863bb44ef7c,3243,-73.96226227283478,40.75892386377695,6682.03,False,E 58 St & 1 Ave (NE Corner),29,True,[],classic,"['CREDITCARD', 'KEY']",3243,False,71,https://bkn.lft.to/lastmile_qr_scan,https://bkn.lft.to/lastmile_qr_scan
407,66ddb6d9-0aca-11e7-82f6-3863bb44ef7c,3244,-73.99490341544151,40.73143724085228,5755.14,False,University Pl & E 8 St,79,True,[],classic,"['CREDITCARD', 'KEY']",3244,False,71,https://bkn.lft.to/lastmile_qr_scan,https://bkn.lft.to/lastmile_qr_scan
408,66ddb7bf-0aca-11e7-82f6-3863bb44ef7c,3246,-73.9923272,40.6942715,4677.06,False,Montague St & Clinton St,49,True,[],classic,"['CREDITCARD', 'KEY']",3246,False,71,https://bkn.lft.to/lastmile_qr_scan,https://bkn.lft.to/lastmile_qr_scan
409,66ddb95a-0aca-11e7-82f6-3863bb44ef7c,3249,-73.9476791024208,40.6803560840434,4124.04,False,Verona Pl & Fulton St,19,True,[],classic,"['CREDITCARD', 'KEY']",3249,False,71,https://bkn.lft.to/lastmile_qr_scan,https://bkn.lft.to/lastmile_qr_scan
410,66ddbc89-0aca-11e7-82f6-3863bb44ef7c,3254,-74.01486575603485,40.69231660719192,4590.01,False,Soissons Landing,29,True,[],classic,"['CREDITCARD', 'KEY']",3254,False,71,https://bkn.lft.to/lastmile_qr_scan,https://bkn.lft.to/lastmile_qr_scan
411,66ddbd20-0aca-11e7-82f6-3863bb44ef7c,3255,-73.9946848154068,40.7505853470215,6450.05,False,8 Ave & W 31 St,18,True,[],classic,"['CREDITCARD', 'KEY']",3255,False,71,https://bkn.lft.to/lastmile_qr_scan,https://bkn.lft.to/lastmile_qr_scan
412,66ddbdb1-0aca-11e7-82f6-3863bb44ef7c,3256,-74.01129573583603,40.7277140777778,5696.03,False,Pier 40 - Hudson River Park,23,True,[],classic,"['CREDITCARD', 'KEY']",3256,False,71,https://bkn.lft.to/lastmile_qr_scan,https://bkn.lft.to/lastmile_qr_scan
413,66ddd369-0aca-11e7-82f6-3863bb44ef7c,3260,-73.99662137031554,40.72706363348306,5679.05,False,Mercer St & Bleecker St,45,True,[],classic,"['CREDITCARD', 'KEY']",3260,False,71,https://bkn.lft.to/lastmile_qr_scan,https://bkn.lft.to/lastmile_qr_scan
414,66ddd545-0aca-11e7-82f6-3863bb44ef7c,3263,-73.99075269699097,40.72951496224949,5712.03,False,Cooper Square & Astor Pl,59,True,[],classic,"['CREDITCARD', 'KEY']",3263,False,71,https://bkn.lft.to/lastmile_qr_scan,https://bkn.lft.to/lastmile_qr_scan
415,66ddd78e-0aca-11e7-82f6-3863bb44ef7c,3267,-74.03852552175522,40.7124188237569,JC072,False,Morris Canal,14,True,[],classic,"['CREDITCARD', 'KEY']",3267,False,70,https://bkn.lft.to/lastmile_qr_scan,https://bkn.lft.to/lastmile_qr_scan
416,66ddd81a-0aca-11e7-82f6-3863bb44ef7c,3268,-74.06285852193832,40.71346382669195,JC078,False,Lafayette Park,14,True,[],classic,"['CREDITCARD', 'KEY']",3268,False,70,https://bkn.lft.to/lastmile_qr_scan,https://bkn.lft.to/lastmile_qr_scan
417,66ddd8a8-0aca-11e7-82f6-3863bb44ef7c,3269,-74.05038893222809,40.72601172964625,JC081,False,Brunswick & 6th,14,True,[],classic,"['CREDITCARD', 'KEY']",3269,False,70,https://bkn.lft.to/lastmile_qr_scan,https://bkn.lft.to/lastmile_qr_scan
418,66ddd93e-0aca-11e7-82f6-3863bb44ef7c,3270,-74.04557168483734,40.72528910781132,JC027,False,Jersey & 6th St,14,True,[],classic,"['CREDITCARD', 'KEY']",3270,False,70,https://bkn.lft.to/lastmile_qr_scan,https://bkn.lft.to/lastmile_qr_scan
419,66ddda59-0aca-11e7-82f6-3863bb44ef7c,3272,-74.04595255851744,40.72333158646436,JC074,False,Jersey & 3rd,14,True,[],classic,"['CREDITCARD', 'KEY']",3272,False,70,https://bkn.lft.to/lastmile_qr_scan,https://bkn.lft.to/lastmile_qr_scan
420,66dddae7-0aca-11e7-82f6-3863bb44ef7c,3273,-74.04288411140442,40.721650724879986,JC082,False,Manila & 1st,18,True,[],classic,"['CREDITCARD', 'KEY']",3273,False,70,https://bkn.lft.to/lastmile_qr_scan,https://bkn.lft.to/lastmile_qr_scan
421,66dddc08-0aca-11e7-82f6-3863bb44ef7c,3275,-74.03891444206238,40.71835519823214,JC014,False,Columbus Drive,14,True,[],classic,"['CREDITCARD', 'KEY']",3275,False,70,https://bkn.lft.to/lastmile_qr_scan,https://bkn.lft.to/lastmile_qr_scan
422,66dddc98-0aca-11e7-82f6-3863bb44ef7c,3276,-74.04281705617905,40.71458403535893,JC013,False,Marin Light Rail,26,True,[],classic,"['CREDITCARD', 'KEY']",3276,False,70,https://bkn.lft.to/lastmile_qr_scan,https://bkn.lft.to/lastmile_qr_scan
423,66dddd28-0aca-11e7-82f6-3863bb44ef7c,3277,-74.06661093235016,40.71435836870427,JC084,False,Communipaw & Berry Lane,14,True,[],classic,"['CREDITCARD', 'KEY']",3277,False,70,https://bkn.lft.to/lastmile_qr_scan,https://bkn.lft.to/lastmile_qr_scan
