,ride_id,rideable_type,started_at,ended_at,start_station_name,start_station_id,end_station_name,end_station_id,start_lat,start_lng,end_lat,end_lng,member_casual
3879,882E916019CF85D6,classic_bike,2021-09-29 15:43:31,2021-09-29 15:50:02,Rockaway Ave & Bainbridge St,4285,Knickerbocker Ave & Cooper St,4582,40.68319988172761,-73.91166642308235,40.69081,-73.90448,member
3880,B1876376AB312DB5,classic_bike,2021-09-03 14:48:24,2021-09-03 14:54:38,Rockaway Ave & Bainbridge St,4285,Knickerbocker Ave & Cooper St,4582,40.68319988172761,-73.91166642308235,40.69081,-73.90448,member
11602,8F5261D6A71801A4,classic_bike,2021-09-14 20:55:20,2021-09-14 21:10:28,Rockaway Ave & Bainbridge St,4285,Menahan St & Onderdonk Ave,5034,40.68319988172761,-73.91166642308235,40.70553,-73.9096,member
14023,E7DBE41E69E944C1,electric_bike,2021-09-12 20:42:41,2021-09-12 21:13:22,Rockaway Ave & Bainbridge St,4285,Broadway & Berry St,5164,40.68319988172761,-73.91166642308235,40.71044554,-73.96525063,member
14270,18F52CCFD74F351E,electric_bike,2021-09-30 12:26:14,2021-09-30 12:47:37,Rockaway Ave & Bainbridge St,4285,Metropolitan Ave & Bedford Ave,5308,40.68319988172761,-73.91166642308235,40.71534825,-73.96024116,member
14271,16197688FCF8060F,electric_bike,2021-09-14 08:34:05,2021-09-14 09:02:25,Rockaway Ave & Bainbridge St,4285,Metropolitan Ave & Bedford Ave,5308,40.68319988172761,-73.91166642308235,40.71534825,-73.96024116,member
21661,98986920B4524699,electric_bike,2021-09-09 08:11:40,2021-09-09 08:16:55,Rockaway Ave & Bainbridge St,4285,Norman St & Wyckoff Ave,4654,40.68319988172761,-73.91166642308235,40.69517,-73.90311,casual
22025,4FDC4DB9FB546CD9,classic_bike,2021-09-25 14:53:50,2021-09-25 14:58:03,Rockaway Ave & Bainbridge St,4285,Broadway & Furman Ave,4244,40.68319988172761,-73.91166642308235,40.68139,-73.90756,member
23786,05C2CCE74394FD9C,electric_bike,2021-09-11 20:13:10,2021-09-11 21:19:07,Rockaway Ave & Bainbridge St,4285,W 52 St & 11 Ave,6926,40.68319988172761,-73.91166642308235,40.76727216,-73.99392888,member
51277,3AFC2E0DF40492EC,classic_bike,2021-09-10 20:19:04,2021-09-10 20:25:06,Central Ave & Covert St,4550,Rockaway Ave & Bainbridge St,4285,40.68929,-73.90951,40.68319988172761,-73.91166642308235,member
51312,7F43F9C55629AB91,electric_bike,2021-09-14 18:34:26,2021-09-14 18:53:32,Wythe Ave & Metropolitan Ave,5348,Rockaway Ave & Bainbridge St,4285,40.716887,-73.963198,40.68319988172761,-73.91166642308235,member
51319,DD84FF7B06BC3AB8,electric_bike,2021-09-07 05:41:29,2021-09-07 05:53:23,Woodward Ave & Harman St,5074,Rockaway Ave & Bainbridge St,4285,40.70793,-73.91092,40.68319988172761,-73.91166642308235,member
51326,00CD1AF91AF5C5AF,classic_bike,2021-09-29 20:14:29,2021-09-29 20:23:59,Bushwick Ave & Dekalb Ave,4680,Rockaway Ave & Bainbridge St,4285,40.69502,-73.92825,40.68319988172761,-73.91166642308235,casual
51332,8000FEBEAC416F3D,classic_bike,2021-09-20 00:32:53,2021-09-20 01:08:31,Eastern Pkwy & Franklin Ave,3919,Rockaway Ave & Bainbridge St,4285,40.6707767,-73.9576801,40.68319988172761,-73.91166642308235,casual
51355,48AD13DE067FB4E1,electric_bike,2021-09-11 23:44:21,2021-09-11 23:58:49,Halsey St & Tompkins Ave,4319,Rockaway Ave & Bainbridge St,4285,40.6823687,-73.944118,40.68319988172761,-73.91166642308235,casual
51373,47FD8161C58A38D2,classic_bike,2021-09-15 19:51:16,2021-09-15 20:00:14,Rockaway Ave & Bainbridge St,4285,Van Buren St & Broadway,4568,40.68319988172761,-73.91166642308235,40.692,-73.92617,member
51382,915FDD4869198BA8,electric_bike,2021-09-15 19:37:51,2021-09-15 19:56:36,7 Ave & Park Pl,4125,Rockaway Ave & Bainbridge St,4285,40.6776147,-73.97324283,40.68319988172761,-73.91166642308235,member
51386,3A5AD48BAD8C4B94,electric_bike,2021-09-25 21:46:58,2021-09-25 22:03:16,Stagg St & Union Ave,5117,Rockaway Ave & Bainbridge St,4285,40.70877084,-73.95095259,40.68319988172761,-73.91166642308235,member
51405,ADAE4A936CF5B06A,classic_bike,2021-09-25 16:31:15,2021-09-25 16:35:21,Bushwick Ave & Furman Ave,4317,Rockaway Ave & Bainbridge St,4285,40.68281,-73.90623,40.68319988172761,-73.91166642308235,casual
51423,F09C85BBAB05C332,classic_bike,2021-09-02 20:52:05,2021-09-02 20:54:45,Bushwick Ave & Furman Ave,4317,Rockaway Ave & Bainbridge St,4285,40.68281,-73.90623,40.68319988172761,-73.91166642308235,casual
51456,40B1DD16325A52E0,classic_bike,2021-09-25 21:58:53,2021-09-25 22:13:10,Stockholm St & Wilson Ave,4824,Rockaway Ave & Bainbridge St,4285,40.699304,-73.923044,40.68319988172761,-73.91166642308235,casual
51459,2BB7D5B41B2425B7,electric_bike,2021-09-25 11:59:07,2021-09-25 12:24:34,Roebling St & N 4 St,5267,Rockaway Ave & Bainbridge St,4285,40.71469,-73.95739,40.68319988172761,-73.91166642308235,member
51503,A439B3561D9029A9,classic_bike,2021-09-26 15:17:01,2021-09-26 15:29:49,Greene Ave & Throop Ave,4510,Rockaway Ave & Bainbridge St,4285,40.6894932,-73.942061,40.68319988172761,-73.91166642308235,casual
51525,C47BED85CF266B8D,classic_bike,2021-09-07 18:57:43,2021-09-07 19:23:51,Linden St & Knickerbocker Ave,4743,Rockaway Ave & Bainbridge St,4285,40.69714,-73.91566,40.68319988172761,-73.91166642308235,casual
51540,86D8A3C226157542,classic_bike,2021-09-15 12:39:38,2021-09-15 13:27:29,Eastern Pkwy & Washington Ave,3928,Rockaway Ave & Bainbridge St,4285,40.6716493,-73.9631145,40.68319988172761,-73.91166642308235,casual
51636,C104210AEF87CF32,classic_bike,2021-09-23 01:19:51,2021-09-23 01:53:50,Hanson Pl & Ashland Pl,4395,Rockaway Ave & Bainbridge St,4285,40.68506807308177,-73.97790759801863,40.68319988172761,-73.91166642308235,casual
51656,C259ADDFC1C016F5,electric_bike,2021-09-19 16:27:49,2021-09-19 16:30:37,Central Ave & Decatur St,4432,Rockaway Ave & Bainbridge St,4285,40.6882,-73.90798,40.68319988172761,-73.91166642308235,casual
51657,9E7706FB6AFF3FB6,classic_bike,2021-09-26 15:03:24,2021-09-26 15:51:46,Central Ave & Decatur St,4432,Rockaway Ave & Bainbridge St,4285,40.6882,-73.90798,40.68319988172761,-73.91166642308235,casual
51662,DE47CEC89F92C038,electric_bike,2021-09-10 16:05:10,2021-09-10 16:30:42,Bergen St & Vanderbilt Ave,4157,Rockaway Ave & Bainbridge St,4285,40.6794388,-73.9680438,40.68319988172761,-73.91166642308235,casual
51666,3F5B15D664A190F8,electric_bike,2021-09-20 17:08:44,2021-09-20 17:25:49,Monroe St & Bedford Ave,4368,Rockaway Ave & Bainbridge St,4285,40.6851443,-73.95380904,40.68319988172761,-73.91166642308235,member
51674,5DCCBC3F3A0AE098,classic_bike,2021-09-02 16:50:25,2021-09-02 16:55:11,Central Ave & Decatur St,4432,Rockaway Ave & Bainbridge St,4285,40.6882,-73.90798,40.68319988172761,-73.91166642308235,member
51675,9C9117C29C066785,classic_bike,2021-09-12 13:46:18,2021-09-12 13:50:43,Central Ave & Decatur St,4432,Rockaway Ave & Bainbridge St,4285,40.6882,-73.90798,40.68319988172761,-73.91166642308235,member
51676,4C5046CF40D3A605,classic_bike,2021-09-12 23:37:36,2021-09-12 23:40:33,Central Ave & Decatur St,4432,Rockaway Ave & Bainbridge St,4285,40.6882,-73.90798,40.68319988172761,-73.91166642308235,member
51681,21A63D1A23953DF3,classic_bike,2021-09-27 04:46:41,2021-09-27 04:50:29,Central Ave & Decatur St,4432,Rockaway Ave & Bainbridge St,4285,40.6882,-73.90798,40.68319988172761,-73.91166642308235,member
51697,CAD2E49E250E7C8F,classic_bike,2021-09-10 19:34:46,2021-09-10 20:38:03,Ocean Pkwy & Church Ave,3125,Rockaway Ave & Bainbridge St,4285,40.64471895763575,-73.97451460361481,40.68319988172761,-73.91166642308235,casual
51720,B6BBFAC11D264C38,classic_bike,2021-09-27 14:29:06,2021-09-27 14:46:05,Suydam St & Broadway,4689,Rockaway Ave & Bainbridge St,4285,40.69544,-73.93223,40.68319988172761,-73.91166642308235,member
51724,88C1EBC1C22ABFFF,classic_bike,2021-09-17 17:32:47,2021-09-17 18:26:19,St Marks Pl & 2 Ave,5669,Rockaway Ave & Bainbridge St,4285,40.7284186,-73.98713956,40.68319988172761,-73.91166642308235,casual
51729,0002DB698F10A123,classic_bike,2021-09-17 15:50:12,2021-09-17 16:06:43,Suydam St & Broadway,4689,Rockaway Ave & Bainbridge St,4285,40.69544,-73.93223,40.68319988172761,-73.91166642308235,member
51732,E97C22A0A7B18072,classic_bike,2021-09-13 14:38:56,2021-09-13 14:48:46,Suydam St & Broadway,4689,Rockaway Ave & Bainbridge St,4285,40.69544,-73.93223,40.68319988172761,-73.91166642308235,member
51733,7E27A15F430F48EA,electric_bike,2021-09-12 20:26:23,2021-09-12 21:25:20,Suydam St & Broadway,4689,Rockaway Ave & Bainbridge St,4285,40.69544,-73.93223,40.68319988172761,-73.91166642308235,member
51778,5F7DB4B5C87E05AE,electric_bike,2021-09-18 19:53:23,2021-09-18 20:00:45,Bushwick Ave & Harman St,4640,Rockaway Ave & Bainbridge St,4285,40.69356,-73.92524,40.68319988172761,-73.91166642308235,member
51832,949D882033C989B8,electric_bike,2021-09-09 17:41:05,2021-09-09 18:28:35,Broadway & Hancock St,4441,Rockaway Ave & Bainbridge St,4285,40.68663,-73.9168,40.68319988172761,-73.91166642308235,casual
51840,A769B509265BE64E,classic_bike,2021-09-27 19:03:12,2021-09-27 19:08:43,Broadway & Hancock St,4441,Rockaway Ave & Bainbridge St,4285,40.68663,-73.9168,40.68319988172761,-73.91166642308235,member
51847,2CD3C6D2F0520BE5,classic_bike,2021-09-25 14:27:31,2021-09-25 14:46:54,Dean St & Franklin Ave,4107,Rockaway Ave & Bainbridge St,4285,40.67759206937376,-73.955637216568,40.68319988172761,-73.91166642308235,member
51866,4C22CFCE36CA36F5,classic_bike,2021-09-07 17:12:21,2021-09-07 17:41:03,Dean St & Franklin Ave,4107,Rockaway Ave & Bainbridge St,4285,40.67759206937376,-73.955637216568,40.68319988172761,-73.91166642308235,member
51868,AEB417088ADB0D85,electric_bike,2021-09-20 20:20:20,2021-09-20 20:41:19,Metropolitan Ave & Bedford Ave,5308,Rockaway Ave & Bainbridge St,4285,40.71534825,-73.96024116,40.68319988172761,-73.91166642308235,member
51872,E6A187B18543E444,electric_bike,2021-09-26 20:26:25,2021-09-26 20:44:10,Metropolitan Ave & Bedford Ave,5308,Rockaway Ave & Bainbridge St,4285,40.71534825,-73.96024116,40.68319988172761,-73.91166642308235,member
51884,000B52C4E0567AEB,classic_bike,2021-09-10 17:34:16,2021-09-10 18:09:57,Dean St & Franklin Ave,4107,Rockaway Ave & Bainbridge St,4285,40.67759206937376,-73.955637216568,40.68319988172761,-73.91166642308235,member
51913,192D1E5B3EE1563E,classic_bike,2021-09-17 19:26:34,2021-09-17 19:42:51,Willoughby Ave & Walworth St,4634,Rockaway Ave & Bainbridge St,4285,40.69331716,-73.95381995,40.68319988172761,-73.91166642308235,member
51963,74886E81775D8026,classic_bike,2021-09-25 14:00:25,2021-09-25 14:27:23,Emerson Pl & Myrtle Ave,4683,Rockaway Ave & Bainbridge St,4285,40.69363137,-73.96223558,40.68319988172761,-73.91166642308235,casual
51990,669AB711405584A0,classic_bike,2021-09-27 10:01:59,2021-09-27 10:05:49,Broadway & Madison St,4483,Rockaway Ave & Bainbridge St,4285,40.68822,-73.91966,40.68319988172761,-73.91166642308235,member
52003,185BCF457B3F0A0E,classic_bike,2021-09-29 19:11:45,2021-09-29 19:18:55,Broadway & Madison St,4483,Rockaway Ave & Bainbridge St,4285,40.68822,-73.91966,40.68319988172761,-73.91166642308235,casual
52007,DE07CEAA45DD29AC,classic_bike,2021-09-28 09:56:06,2021-09-28 10:00:19,Broadway & Madison St,4483,Rockaway Ave & Bainbridge St,4285,40.68822,-73.91966,40.68319988172761,-73.91166642308235,member
52028,2229D9AB41FD506E,classic_bike,2021-09-11 11:03:38,2021-09-11 11:07:34,Broadway & Madison St,4483,Rockaway Ave & Bainbridge St,4285,40.68822,-73.91966,40.68319988172761,-73.91166642308235,casual
52033,953D9C67E17B9477,classic_bike,2021-09-30 15:39:22,2021-09-30 15:48:24,Broadway & Madison St,4483,Rockaway Ave & Bainbridge St,4285,40.68822,-73.91966,40.68319988172761,-73.91166642308235,casual
52077,174CC8F5215A0163,classic_bike,2021-09-13 12:57:34,2021-09-13 13:00:57,Broadway & Madison St,4483,Rockaway Ave & Bainbridge St,4285,40.68822,-73.91966,40.68319988172761,-73.91166642308235,casual
52079,55D762052E5CFEBC,classic_bike,2021-09-15 21:27:55,2021-09-15 21:45:18,White St & Johnson Ave,5099,Rockaway Ave & Bainbridge St,4285,40.707174,-73.93581,40.68319988172761,-73.91166642308235,member
52172,67923F701D92FF3A,classic_bike,2021-09-19 12:20:32,2021-09-19 12:54:29,Eastern Pkwy & Franklin Ave,3919,Rockaway Ave & Bainbridge St,4285,40.6707767,-73.9576801,40.68319988172761,-73.91166642308235,casual
52242,27ED2E560CE99ACF,electric_bike,2021-09-15 01:09:08,2021-09-15 01:15:41,Cedar St & Evergreen Ave,4721,Rockaway Ave & Bainbridge St,4285,40.69671,-73.92807,40.68319988172761,-73.91166642308235,casual
52243,5A90D2FA9B29C0E3,classic_bike,2021-09-29 18:55:53,2021-09-29 19:04:50,Cedar St & Evergreen Ave,4721,Rockaway Ave & Bainbridge St,4285,40.69671,-73.92807,40.68319988172761,-73.91166642308235,casual
52275,E8B740DE35CD1F05,classic_bike,2021-09-12 15:23:06,2021-09-12 15:37:47,Cambridge Pl & Gates Ave,4377,Rockaway Ave & Bainbridge St,4285,40.68488,-73.96304,40.68319988172761,-73.91166642308235,member
52292,105102454C07A445,classic_bike,2021-09-21 16:51:53,2021-09-21 17:30:40,3 St & 3 Ave,4028,Rockaway Ave & Bainbridge St,4285,40.6750705,-73.98775226,40.68319988172761,-73.91166642308235,casual
52323,0BC0540C13A09EA0,electric_bike,2021-09-18 21:39:04,2021-09-18 22:40:34,Schermerhorn St & Bond St,4479,Rockaway Ave & Bainbridge St,4285,40.688417427540834,-73.98451656103134,40.68319988172761,-73.91166642308235,member
52335,8B29EEB5B9F03C8D,classic_bike,2021-09-22 12:38:48,2021-09-22 12:41:09,Broadway & Hancock St,4441,Rockaway Ave & Bainbridge St,4285,40.68663,-73.9168,40.68319988172761,-73.91166642308235,member
52346,7CCEBABFCE932151,classic_bike,2021-09-12 18:50:10,2021-09-12 19:01:06,Menahan St & Central Ave,4672,Rockaway Ave & Bainbridge St,4285,40.69543,-73.9196,40.68319988172761,-73.91166642308235,casual
52377,3F6740BD5D371BAE,classic_bike,2021-09-24 17:34:09,2021-09-24 17:38:05,Broadway & Madison St,4483,Rockaway Ave & Bainbridge St,4285,40.68822,-73.91966,40.68319988172761,-73.91166642308235,member
52420,BD9199B4EFC589DF,classic_bike,2021-09-18 13:39:20,2021-09-18 13:48:07,Bushwick Ave & Linden St,4600,Rockaway Ave & Bainbridge St,4285,40.69146,-73.92146,40.68319988172761,-73.91166642308235,casual
52428,813C7111307800F2,electric_bike,2021-09-09 23:48:12,2021-09-10 00:02:43,Bushwick Ave & Dekalb Ave,4680,Rockaway Ave & Bainbridge St,4285,40.69502,-73.92825,40.68319988172761,-73.91166642308235,casual
52434,870745CF6252B283,electric_bike,2021-09-26 15:53:25,2021-09-26 16:12:35,Classon Ave & St Marks Ave,4074,Rockaway Ave & Bainbridge St,4285,40.6765198,-73.9596082,40.68319988172761,-73.91166642308235,member
52463,111EB58B381CC324,classic_bike,2021-09-06 01:18:19,2021-09-06 01:25:19,Bushwick Ave & Linden St,4600,Rockaway Ave & Bainbridge St,4285,40.69146,-73.92146,40.68319988172761,-73.91166642308235,casual
52517,4F802AE1552605CF,classic_bike,2021-09-25 19:41:08,2021-09-25 20:02:31,Monroe St & Bedford Ave,4368,Rockaway Ave & Bainbridge St,4285,40.6851443,-73.95380904,40.68319988172761,-73.91166642308235,member
52758,7F42CA50AAA05674,classic_bike,2021-09-14 17:15:28,2021-09-14 18:18:38,Vesey St & Church St,5216,Rockaway Ave & Bainbridge St,4285,40.71221958009051,-74.01047229766846,40.68319988172761,-73.91166642308235,casual
103689,A32440792B5F34DF,classic_bike,2021-09-08 18:51:16,2021-09-08 19:07:33,Rockaway Ave & Bainbridge St,4285,Throop Ave & Myrtle Ave,4697,40.68319988172761,-73.91166642308235,40.69622937,-73.94371094,member
116247,30924F253F449F1C,electric_bike,2021-09-13 20:37:54,2021-09-13 21:14:23,Rockaway Ave & Bainbridge St,4285,9 Ave & W 22 St,6266,40.68319988172761,-73.91166642308235,40.7454973,-74.00197139,member
188875,D1C4F05570B464C8,classic_bike,2021-09-11 17:00:43,2021-09-11 17:20:22,Rockaway Ave & Bainbridge St,4285,Wilson Ave & Troutman St,4864,40.68319988172761,-73.91166642308235,40.70166,-73.92754,member
328751,5A14856E6B041802,electric_bike,2021-09-09 05:28:50,2021-09-09 05:41:16,Rockaway Ave & Bainbridge St,4285,Stagg St & Morgan Ave,5170,40.68319988172761,-73.91166642308235,40.710681,-73.93372,member
328767,A576017421B309FA,electric_bike,2021-09-30 05:39:22,2021-09-30 05:51:50,Rockaway Ave & Bainbridge St,4285,Stagg St & Morgan Ave,5170,40.68319988172761,-73.91166642308235,40.710681,-73.93372,member
329260,E46129F3DE3D3035,electric_bike,2021-09-08 18:21:02,2021-09-08 19:19:14,Eldert St & Bushwick Ave,4399,Rockaway Ave & Bainbridge St,4285,40.68652,-73.91321,40.68319988172761,-73.91166642308235,member
329264,2046333DDBED2399,electric_bike,2021-09-13 16:56:47,2021-09-13 17:22:11,Eldert St & Bushwick Ave,4399,Rockaway Ave & Bainbridge St,4285,40.68652,-73.91321,40.68319988172761,-73.91166642308235,member
329265,CAD24D89D7973D94,classic_bike,2021-09-14 18:08:53,2021-09-14 18:12:55,Eldert St & Bushwick Ave,4399,Rockaway Ave & Bainbridge St,4285,40.68652,-73.91321,40.68319988172761,-73.91166642308235,member
329278,7FC74BF7E6813D03,classic_bike,2021-09-03 23:27:12,2021-09-03 23:37:20,Broadway & Hancock St,4441,Rockaway Ave & Bainbridge St,4285,40.68663,-73.9168,40.68319988172761,-73.91166642308235,casual
329299,7A9231BF36B07FF7,classic_bike,2021-09-06 19:48:27,2021-09-06 20:04:06,Halsey St & Tompkins Ave,4319,Rockaway Ave & Bainbridge St,4285,40.6823687,-73.944118,40.68319988172761,-73.91166642308235,casual
329343,8D707B99C8442382,classic_bike,2021-09-04 20:07:30,2021-09-04 20:18:52,Bushwick Ave & Harman St,4640,Rockaway Ave & Bainbridge St,4285,40.69356,-73.92524,40.68319988172761,-73.91166642308235,member
329348,64443E368CF2C56B,electric_bike,2021-09-27 02:12:10,2021-09-27 02:18:33,Bushwick Ave & Harman St,4640,Rockaway Ave & Bainbridge St,4285,40.69356,-73.92524,40.68319988172761,-73.91166642308235,casual
329480,C7131667A98EBCAF,classic_bike,2021-09-12 14:31:05,2021-09-12 14:32:47,Broadway & Furman Ave,4244,Rockaway Ave & Bainbridge St,4285,40.68139,-73.90756,40.68319988172761,-73.91166642308235,casual
329498,6C6516C24FFF70A3,classic_bike,2021-09-09 14:55:23,2021-09-09 14:59:10,Broadway & Hancock St,4441,Rockaway Ave & Bainbridge St,4285,40.68663,-73.9168,40.68319988172761,-73.91166642308235,member
329502,39C326C412EB9127,electric_bike,2021-09-19 11:29:32,2021-09-19 13:15:29,Somers St & Broadway,4203,Rockaway Ave & Bainbridge St,4285,40.67945,-73.90474,40.68319988172761,-73.91166642308235,casual
329507,A8FA7A43E188DA81,classic_bike,2021-09-02 11:05:36,2021-09-02 11:08:02,Halsey St & Broadway,4366,Rockaway Ave & Bainbridge St,4285,40.68565,-73.91564,40.68319988172761,-73.91166642308235,casual
329509,A08CA4F302BF9E00,classic_bike,2021-09-13 19:52:47,2021-09-13 20:12:44,Clinton Ave & Myrtle Ave,4651,Rockaway Ave & Bainbridge St,4285,40.693261,-73.968896,40.68319988172761,-73.91166642308235,member
329511,FED73D7271323B78,classic_bike,2021-09-17 17:19:30,2021-09-17 17:39:42,Clinton Ave & Myrtle Ave,4651,Rockaway Ave & Bainbridge St,4285,40.693261,-73.968896,40.68319988172761,-73.91166642308235,casual
329530,654DF413EFE8A5CA,electric_bike,2021-09-10 12:43:44,2021-09-10 12:49:35,Central Ave & Decatur St,4432,Rockaway Ave & Bainbridge St,4285,40.6882,-73.90798,40.68319988172761,-73.91166642308235,casual
329568,F013BFEEFAAEC1ED,classic_bike,2021-09-18 16:19:17,2021-09-18 16:37:09,Macon St & Nostrand Ave,4214,Rockaway Ave & Bainbridge St,4285,40.6809833854,-73.9500479759,40.68319988172761,-73.91166642308235,member
329573,E4F9C83B8D7FAFDB,classic_bike,2021-09-20 22:56:07,2021-09-20 22:59:07,Central Ave & Decatur St,4432,Rockaway Ave & Bainbridge St,4285,40.6882,-73.90798,40.68319988172761,-73.91166642308235,member
329660,4E2CC575E66DC1D0,electric_bike,2021-09-19 17:35:41,2021-09-19 17:47:09,Stockholm St & Wilson Ave,4824,Rockaway Ave & Bainbridge St,4285,40.699304,-73.923044,40.68319988172761,-73.91166642308235,member
329684,596AC21F4166E6CB,classic_bike,2021-09-02 15:28:28,2021-09-02 16:30:38,Lafayette St & Jersey St,5561,Rockaway Ave & Bainbridge St,4285,40.72456089,-73.99565293,40.68319988172761,-73.91166642308235,casual
329717,C1833F85CFEB3B72,classic_bike,2021-09-10 11:49:33,2021-09-10 12:47:19,Plaza St East & Flatbush Ave,4010,Rockaway Ave & Bainbridge St,4285,40.673134,-73.969106,40.68319988172761,-73.91166642308235,casual
329740,5E2008E7D205891A,classic_bike,2021-09-22 12:34:20,2021-09-22 13:18:47,Plaza St East & Flatbush Ave,4010,Rockaway Ave & Bainbridge St,4285,40.673134,-73.969106,40.68319988172761,-73.91166642308235,casual
329772,08618A6864CC111C,electric_bike,2021-09-21 19:11:13,2021-09-21 19:33:46,Broadway & Berry St,5164,Rockaway Ave & Bainbridge St,4285,40.71044554,-73.96525063,40.68319988172761,-73.91166642308235,casual
329774,6A46EF1E9EB31E04,electric_bike,2021-09-19 22:17:28,2021-09-19 22:56:33,Allen St & Rivington St,5414,Rockaway Ave & Bainbridge St,4285,40.72019576,-73.98997825,40.68319988172761,-73.91166642308235,casual
329782,584B603D4E7E32B4,electric_bike,2021-09-07 18:00:44,2021-09-07 18:32:59,Franklin St & Dupont St,5944,Rockaway Ave & Bainbridge St,4285,40.73564,-73.95866,40.68319988172761,-73.91166642308235,member
329785,6333A696C9EF82D1,classic_bike,2021-09-09 08:03:36,2021-09-09 08:05:21,Broadway & Furman Ave,4244,Rockaway Ave & Bainbridge St,4285,40.68139,-73.90756,40.68319988172761,-73.91166642308235,member
329793,5859E7A6AB2D017C,classic_bike,2021-09-03 20:43:03,2021-09-03 21:16:39,14 St & 5 Ave,3771,Rockaway Ave & Bainbridge St,4285,40.666287,-73.98895053,40.68319988172761,-73.91166642308235,casual
329799,C1021796F8C56C2A,classic_bike,2021-09-30 20:45:14,2021-09-30 21:07:09,Lefferts Pl & Franklin Ave,4222,Rockaway Ave & Bainbridge St,4285,40.680342423,-73.9557689392,40.68319988172761,-73.91166642308235,casual
329834,58D2FD97F4242AC6,classic_bike,2021-09-02 16:08:52,2021-09-02 16:34:40,Lefferts Pl & Franklin Ave,4222,Rockaway Ave & Bainbridge St,4285,40.680342423,-73.9557689392,40.68319988172761,-73.91166642308235,casual
329860,B2BC514EE5508657,classic_bike,2021-09-11 03:39:42,2021-09-11 04:09:16,N 6 St & Bedford Ave,5379,Rockaway Ave & Bainbridge St,4285,40.71745169,-73.95850939,40.68319988172761,-73.91166642308235,casual
329872,6BCB3C345993BF71,classic_bike,2021-09-24 16:55:33,2021-09-24 17:20:49,DeKalb Ave & S Portland Ave,4546,Rockaway Ave & Bainbridge St,4285,40.68981035,-73.97493121,40.68319988172761,-73.91166642308235,casual
329881,D7795ABBC02DA4EC,electric_bike,2021-09-16 19:32:32,2021-09-16 19:48:10,Lewis Ave & Madison St,4425,Rockaway Ave & Bainbridge St,4285,40.686312,-73.935775,40.68319988172761,-73.91166642308235,casual
329884,202A2A308FC50900,classic_bike,2021-09-06 19:33:45,2021-09-06 19:43:17,Lewis Ave & Madison St,4425,Rockaway Ave & Bainbridge St,4285,40.686312,-73.935775,40.68319988172761,-73.91166642308235,casual
329885,CAD10BC290891FB4,classic_bike,2021-09-09 17:36:14,2021-09-09 17:59:46,Montrose Ave & Bushwick Ave,5068,Rockaway Ave & Bainbridge St,4285,40.70767788,-73.94016171,40.68319988172761,-73.91166642308235,member
329911,EDB1F8970BFA0C38,classic_bike,2021-09-03 18:15:25,2021-09-03 18:42:12,N 6 St & Bedford Ave,5379,Rockaway Ave & Bainbridge St,4285,40.71745169,-73.95850939,40.68319988172761,-73.91166642308235,member
329922,290FB5E6DF3FBE16,classic_bike,2021-09-28 03:04:07,2021-09-28 03:20:38,Montrose Ave & Bushwick Ave,5068,Rockaway Ave & Bainbridge St,4285,40.70767788,-73.94016171,40.68319988172761,-73.91166642308235,casual
329930,5D19110F3DCEFEC4,classic_bike,2021-09-28 20:13:28,2021-09-28 20:26:35,Lewis Ave & Madison St,4425,Rockaway Ave & Bainbridge St,4285,40.686312,-73.935775,40.68319988172761,-73.91166642308235,casual
329940,5819C1CA63295ADA,classic_bike,2021-09-27 14:07:50,2021-09-27 14:25:55,Marcus Garvey Blvd & Macon St,4278,Rockaway Ave & Bainbridge St,4285,40.682601,-73.938037,40.68319988172761,-73.91166642308235,member
329957,7D6AE94D511626EB,classic_bike,2021-09-23 00:48:22,2021-09-23 01:06:06,Verona Pl & Fulton St,4124,Rockaway Ave & Bainbridge St,4285,40.6803560840434,-73.9476791024208,40.68319988172761,-73.91166642308235,casual
329974,744C00630A65B008,classic_bike,2021-09-08 16:44:03,2021-09-08 16:51:40,Knickerbocker Ave & Halsey St,4623,Rockaway Ave & Bainbridge St,4285,40.693,-73.90824,40.68319988172761,-73.91166642308235,casual
329978,DFC98750722393D9,classic_bike,2021-09-02 13:05:35,2021-09-02 13:29:11,Lefferts Pl & Franklin Ave,4222,Rockaway Ave & Bainbridge St,4285,40.680342423,-73.9557689392,40.68319988172761,-73.91166642308235,member
329986,6AD89DAE800DBB13,classic_bike,2021-09-30 20:33:42,2021-09-30 20:41:06,Knickerbocker Ave & Halsey St,4623,Rockaway Ave & Bainbridge St,4285,40.693,-73.90824,40.68319988172761,-73.91166642308235,member
329996,AC994AF8083CD150,electric_bike,2021-09-13 19:32:03,2021-09-13 20:03:30,N 6 St & Bedford Ave,5379,Rockaway Ave & Bainbridge St,4285,40.71745169,-73.95850939,40.68319988172761,-73.91166642308235,member
330001,1F57DE8AA38AA8E2,electric_bike,2021-09-22 09:41:21,2021-09-22 10:24:39,Eldert St & Bushwick Ave,4399,Rockaway Ave & Bainbridge St,4285,40.68652,-73.91321,40.68319988172761,-73.91166642308235,member
330007,1865A20E9D3F50C7,electric_bike,2021-09-16 17:21:48,2021-09-16 17:35:00,Willoughby Ave & Myrtle Ave,4759,Rockaway Ave & Bainbridge St,4285,40.69757,-73.93098,40.68319988172761,-73.91166642308235,casual
330009,EC778C9D00FD0976,classic_bike,2021-09-12 02:44:15,2021-09-12 02:59:20,Willoughby Ave & Myrtle Ave,4759,Rockaway Ave & Bainbridge St,4285,40.69757,-73.93098,40.68319988172761,-73.91166642308235,member
330019,53B58D5786D40392,classic_bike,2021-09-07 16:51:46,2021-09-07 17:21:00,Nassau St & Navy St,4812,Rockaway Ave & Bainbridge St,4285,40.69839895,-73.98068914,40.68319988172761,-73.91166642308235,member
330020,ACF63738BF617015,electric_bike,2021-09-30 16:19:50,2021-09-30 16:55:03,Rivington St & Ridge St,5406,Rockaway Ave & Bainbridge St,4285,40.71850211,-73.98329859,40.68319988172761,-73.91166642308235,member
330022,5C6625952C1A0D81,electric_bike,2021-09-08 20:01:09,2021-09-08 20:35:01,Rivington St & Ridge St,5406,Rockaway Ave & Bainbridge St,4285,40.71850211,-73.98329859,40.68319988172761,-73.91166642308235,member
330044,55129D0A7A34B0A1,classic_bike,2021-09-06 01:49:10,2021-09-06 02:10:38,Leonard St & Maujer St,5148,Rockaway Ave & Bainbridge St,4285,40.7103685423523,-73.94705951213837,40.68319988172761,-73.91166642308235,casual
330073,93AE4226DA45C3B2,electric_bike,2021-09-09 20:02:12,2021-09-09 20:10:32,Menahan St & Central Ave,4672,Rockaway Ave & Bainbridge St,4285,40.69543,-73.9196,40.68319988172761,-73.91166642308235,member
330101,E5FBEF0B0168A082,classic_bike,2021-09-15 20:56:03,2021-09-15 21:41:34,Boerum Pl\t& Pacific St,4488,Rockaway Ave & Bainbridge St,4285,40.68848905639242,-73.99116039276123,40.68319988172761,-73.91166642308235,member
330180,2DDD78F843EACE58,electric_bike,2021-09-11 17:08:43,2021-09-11 17:37:32,Johnson St & Gold St,4668,Rockaway Ave & Bainbridge St,4285,40.69474881,-73.98362464,40.68319988172761,-73.91166642308235,member
330207,AE0896630864CE13,classic_bike,2021-09-04 14:27:22,2021-09-04 14:56:57,DeKalb Ave & Franklin Ave,4528,Rockaway Ave & Bainbridge St,4285,40.69064807082943,-73.95746178925037,40.68319988172761,-73.91166642308235,member
330222,8D6F203F56858716,classic_bike,2021-09-26 16:03:32,2021-09-26 16:09:13,Central Ave & Weirfield St,4591,Rockaway Ave & Bainbridge St,4285,40.69055,-73.91181,40.68319988172761,-73.91166642308235,casual
330224,2E919037E8DD416B,classic_bike,2021-09-20 18:54:23,2021-09-20 19:33:54,Court St & State St,4488,Rockaway Ave & Bainbridge St,4285,40.6902375,-73.99203074,40.68319988172761,-73.91166642308235,member
330235,467EF0481A490647,classic_bike,2021-09-23 16:17:19,2021-09-23 16:44:01,Marcy Ave & Lafayette Ave,4476,Rockaway Ave & Bainbridge St,4285,40.6900815,-73.947915,40.68319988172761,-73.91166642308235,casual
330237,03808F7C450E5EBE,electric_bike,2021-09-10 00:10:31,2021-09-10 00:31:49,Jackson St & Leonard St,5332,Rockaway Ave & Bainbridge St,4285,40.71638031973561,-73.94821286201477,40.68319988172761,-73.91166642308235,casual
330244,8C8904A07DEF7294,electric_bike,2021-09-08 04:17:28,2021-09-08 06:34:50,Marcy Ave & Lafayette Ave,4476,Rockaway Ave & Bainbridge St,4285,40.6900815,-73.947915,40.68319988172761,-73.91166642308235,casual
330289,3F3F1DFA6EC49429,electric_bike,2021-09-24 16:24:30,2021-09-24 16:37:43,Madison St & Cypress Ave,4807,Rockaway Ave & Bainbridge St,4285,40.70068,-73.90742,40.68319988172761,-73.91166642308235,member
330303,9487B6DFF11C319C,electric_bike,2021-09-01 01:45:24,2021-09-01 01:58:15,Marcy Ave & Lafayette Ave,4476,Rockaway Ave & Bainbridge St,4285,40.6900815,-73.947915,40.68319988172761,-73.91166642308235,member
330325,E997690EA77CAFE7,classic_bike,2021-09-14 18:14:14,2021-09-14 18:24:43,Madison St & Cypress Ave,4807,Rockaway Ave & Bainbridge St,4285,40.70068,-73.90742,40.68319988172761,-73.91166642308235,member
330373,CBD7DAD5BC08AC09,electric_bike,2021-09-15 18:55:58,2021-09-15 19:17:52,Scholes St & Manhattan Ave,5108,Rockaway Ave & Bainbridge St,4285,40.70870368,-73.9448625,40.68319988172761,-73.91166642308235,member
330375,2698744296CDE930,electric_bike,2021-09-18 23:32:46,2021-09-18 23:59:40,Prospect Park West & 8 St,3722,Rockaway Ave & Bainbridge St,4285,40.66514681533792,-73.97637605667114,40.68319988172761,-73.91166642308235,casual
330379,6DB27055D46BC006,electric_bike,2021-09-01 16:04:59,2021-09-01 16:37:30,S 4 St & Wythe Ave,5204,Rockaway Ave & Bainbridge St,4285,40.71285887,-73.96590294,40.68319988172761,-73.91166642308235,casual
330389,88A125058EDA4D81,electric_bike,2021-09-24 18:25:24,2021-09-24 18:31:54,Grove St & Broadway,4526,Rockaway Ave & Bainbridge St,4285,40.69047,-73.923511,40.68319988172761,-73.91166642308235,casual
330409,2B9FC22BE81EBDB6,electric_bike,2021-09-09 13:07:31,2021-09-09 13:14:19,Grove St & Broadway,4526,Rockaway Ave & Bainbridge St,4285,40.69047,-73.923511,40.68319988172761,-73.91166642308235,member
330420,C4F19A794CE705F6,classic_bike,2021-09-30 21:33:33,2021-09-30 21:48:29,Monroe St & Tompkins Ave,4434,Rockaway Ave & Bainbridge St,4285,40.686203,-73.944694,40.68319988172761,-73.91166642308235,member
330425,355CBF78F363A1F1,classic_bike,2021-09-16 04:55:12,2021-09-16 05:17:06,Waterbury St & Stagg St,5099,Rockaway Ave & Bainbridge St,4285,40.71019,-73.93734,40.68319988172761,-73.91166642308235,member
330435,946BC6F74ED9E25B,classic_bike,2021-09-21 15:23:57,2021-09-21 15:36:58,Willoughby Ave & Myrtle Ave,4759,Rockaway Ave & Bainbridge St,4285,40.69757,-73.93098,40.68319988172761,-73.91166642308235,member
330445,504C042F727964DA,classic_bike,2021-09-03 18:47:09,2021-09-03 18:59:20,Willoughby Ave & Myrtle Ave,4759,Rockaway Ave & Bainbridge St,4285,40.69757,-73.93098,40.68319988172761,-73.91166642308235,casual
330450,4034CCEBF852C61F,electric_bike,2021-09-06 02:56:36,2021-09-06 03:18:19,Bushwick Ave & Furman Ave,4317,Rockaway Ave & Bainbridge St,4285,40.68281,-73.90623,40.68319988172761,-73.91166642308235,member
330453,EEE2E256BB855CF8,electric_bike,2021-09-14 22:58:17,2021-09-14 23:03:23,Bushwick Ave & Furman Ave,4317,Rockaway Ave & Bainbridge St,4285,40.68281,-73.90623,40.68319988172761,-73.91166642308235,casual
330471,527AFC94EE6E01AB,classic_bike,2021-09-02 18:24:23,2021-09-02 18:31:01,Knickerbocker Ave & Halsey St,4623,Rockaway Ave & Bainbridge St,4285,40.693,-73.90824,40.68319988172761,-73.91166642308235,member
330476,D3520278981B0D4E,classic_bike,2021-09-18 23:10:19,2021-09-19 00:05:48,Center Blvd & 51 Ave,6179,Rockaway Ave & Bainbridge St,4285,40.74336608027021,-73.95960688591003,40.68319988172761,-73.91166642308235,casual
330556,FA3BA09D41F5C09E,electric_bike,2021-09-29 21:37:41,2021-09-29 21:54:08,Fulton St & Waverly Ave,4345,Rockaway Ave & Bainbridge St,4285,40.68323865460341,-73.96599590778351,40.68319988172761,-73.91166642308235,casual
330569,9A93F8ECB44AB0CE,electric_bike,2021-09-03 18:50:17,2021-09-03 19:07:18,Waterbury St & Stagg St,5099,Rockaway Ave & Bainbridge St,4285,40.71019,-73.93734,40.68319988172761,-73.91166642308235,member
330591,B672113FF6C58567,electric_bike,2021-09-29 21:38:49,2021-09-29 21:54:17,Fulton St & Waverly Ave,4345,Rockaway Ave & Bainbridge St,4285,40.68323865460341,-73.96599590778351,40.68319988172761,-73.91166642308235,casual
330603,CB55B086FDF87020,electric_bike,2021-09-19 01:55:31,2021-09-19 02:13:53,Montrose Ave & Bushwick Ave,5068,Rockaway Ave & Bainbridge St,4285,40.70767788,-73.94016171,40.68319988172761,-73.91166642308235,casual
330616,220FCFD792E331B1,electric_bike,2021-09-01 11:21:07,2021-09-01 11:38:44,Morgan Ave & Maspeth Ave,5354,Rockaway Ave & Bainbridge St,4285,40.716657,-73.93637,40.68319988172761,-73.91166642308235,member
330625,F916E65F88373381,classic_bike,2021-09-10 17:58:41,2021-09-10 18:39:05,Montrose Ave & Bushwick Ave,5068,Rockaway Ave & Bainbridge St,4285,40.70767788,-73.94016171,40.68319988172761,-73.91166642308235,member
330666,EB37FEFB64835385,classic_bike,2021-09-12 18:54:04,2021-09-12 19:23:38,Bayard St & Leonard St,5442,Rockaway Ave & Bainbridge St,4285,40.71915571696044,-73.94885390996933,40.68319988172761,-73.91166642308235,casual
330669,7EC1811AFFDB9CAF,electric_bike,2021-09-09 22:34:48,2021-09-09 22:55:43,Broadway & Berry St,5164,Rockaway Ave & Bainbridge St,4285,40.71044554,-73.96525063,40.68319988172761,-73.91166642308235,casual
331029,AE664F57963B4AB6,classic_bike,2021-09-06 01:26:20,2021-09-06 01:31:16,Central Ave & Weirfield St,4591,Rockaway Ave & Bainbridge St,4285,40.69055,-73.91181,40.68319988172761,-73.91166642308235,member
331142,3391019DC963C1BD,electric_bike,2021-09-17 07:37:52,2021-09-17 07:53:57,Washington Ave & Greene Ave,4419,Rockaway Ave & Bainbridge St,4285,40.68650065,-73.96563307,40.68319988172761,-73.91166642308235,member
331244,7A71FD03B52B5E94,classic_bike,2021-09-04 03:35:06,2021-09-04 03:51:14,Willoughby Ave & Myrtle Ave,4759,Rockaway Ave & Bainbridge St,4285,40.69757,-73.93098,40.68319988172761,-73.91166642308235,member
331315,D9BF5D68100D59C6,classic_bike,2021-09-24 22:53:54,2021-09-24 23:45:05,West Drive & Prospect Park West,3651,Rockaway Ave & Bainbridge St,4285,40.6610633719006,-73.97945255041122,40.68319988172761,-73.91166642308235,casual
376561,3729C947E46DB397,classic_bike,2021-09-17 11:50:49,2021-09-17 12:30:57,Rockaway Ave & Bainbridge St,4285,7 St & 3 Ave,3996,40.68319988172761,-73.91166642308235,40.67260298150126,-73.98983001708984,casual
388710,5F91BD26E4C1CDF4,classic_bike,2021-09-05 13:32:22,2021-09-05 13:56:19,Rockaway Ave & Bainbridge St,4285,Sterling Pl & Bedford Ave,3993,40.68319988172761,-73.91166642308235,40.672695,-73.954131,casual
388728,53BBFACA404BBD2C,electric_bike,2021-09-21 23:56:58,2021-09-22 00:15:35,Rockaway Ave & Bainbridge St,4285,Emerson Pl & Myrtle Ave,4683,40.68319988172761,-73.91166642308235,40.69363137,-73.96223558,casual
388746,0D10DB8551C841D4,electric_bike,2021-09-15 21:26:05,2021-09-15 21:45:08,Rockaway Ave & Bainbridge St,4285,Sterling Pl & Bedford Ave,3993,40.68319988172761,-73.91166642308235,40.672695,-73.954131,casual
388749,EAF7075F69A7EBCA,electric_bike,2021-09-02 21:55:59,2021-09-02 22:13:15,Rockaway Ave & Bainbridge St,4285,Sterling Pl & Bedford Ave,3993,40.68319988172761,-73.91166642308235,40.672695,-73.954131,casual
388792,4579FC53DF7FE536,electric_bike,2021-09-08 08:58:33,2021-09-08 09:31:01,Rockaway Ave & Bainbridge St,4285,Schermerhorn St & Court St,4565,40.68319988172761,-73.91166642308235,40.69102925677968,-73.99183362722397,member
391419,4D60C1C0FF704A76,electric_bike,2021-09-25 15:10:30,2021-09-25 15:58:10,Rockaway Ave & Bainbridge St,4285,7 Ave & 41 St,3192,40.68319988172761,-73.91166642308235,40.647379,-74.000911,casual
391420,6C11A6BE275AFE88,electric_bike,2021-09-24 23:37:57,2021-09-24 23:53:02,Rockaway Ave & Bainbridge St,4285,Emerson Pl & Myrtle Ave,4683,40.68319988172761,-73.91166642308235,40.69363137,-73.96223558,casual
394549,EF8C88890EEE2C26,classic_bike,2021-09-05 13:34:19,2021-09-05 13:56:14,Rockaway Ave & Bainbridge St,4285,Sterling Pl & Bedford Ave,3993,40.68319988172761,-73.91166642308235,40.672695,-73.954131,casual
395430,C458E79E4587C2C4,electric_bike,2021-09-07 11:02:18,2021-09-07 11:37:04,Rockaway Ave & Bainbridge St,4285,Schermerhorn St & Court St,4565,40.68319988172761,-73.91166642308235,40.69102925677968,-73.99183362722397,member
397329,45EA7113AD693F1A,classic_bike,2021-09-18 00:13:10,2021-09-18 00:39:12,Rockaway Ave & Bainbridge St,4285,Emerson Pl & Myrtle Ave,4683,40.68319988172761,-73.91166642308235,40.69363137,-73.96223558,member
400976,4289FBAB6B2AA366,electric_bike,2021-09-21 23:52:48,2021-09-22 00:13:52,Rockaway Ave & Bainbridge St,4285,Emerson Pl & Myrtle Ave,4683,40.68319988172761,-73.91166642308235,40.69363137,-73.96223558,casual
401779,BA1DCCDD6AA3E2BC,electric_bike,2021-09-27 08:40:21,2021-09-27 09:07:43,Rockaway Ave & Bainbridge St,4285,Schermerhorn St & Court St,4565,40.68319988172761,-73.91166642308235,40.69102925677968,-73.99183362722397,member
401823,B9E61FCE04E9ADE9,classic_bike,2021-09-25 23:24:45,2021-09-25 23:47:47,Rockaway Ave & Bainbridge St,4285,Sterling Pl & Bedford Ave,3993,40.68319988172761,-73.91166642308235,40.672695,-73.954131,casual
418421,C9D08C0DC6BA8319,classic_bike,2021-09-22 17:33:34,2021-09-22 17:51:09,Rockaway Ave & Bainbridge St,4285,Suydam St & St. Nicholas Ave,5043,40.68319988172761,-73.91166642308235,40.70636,-73.91945,casual
422659,CC8719DF4FBDB2E4,classic_bike,2021-09-11 14:40:47,2021-09-11 15:07:46,Rockaway Ave & Bainbridge St,4285,Manhattan Av & Leonard St,5442,40.68319988172761,-73.91166642308235,40.72084,-73.94844,member
431079,951D7D98B0398617,electric_bike,2021-09-03 05:13:32,2021-09-03 05:31:50,Rockaway Ave & Bainbridge St,4285,Washington Ave & Park Ave,4724,40.68319988172761,-73.91166642308235,40.69610226,-73.96751037,member
439043,DC39B3D1E1772006,classic_bike,2021-09-14 22:36:10,2021-09-14 23:18:04,Rockaway Ave & Bainbridge St,4285,Carlton Ave & Park Ave,4732,40.68319988172761,-73.91166642308235,40.69580705,-73.97355569,casual
440161,49DDCFEAACAC798A,electric_bike,2021-09-10 05:14:56,2021-09-10 05:31:44,Rockaway Ave & Bainbridge St,4285,Washington Ave & Park Ave,4724,40.68319988172761,-73.91166642308235,40.69610226,-73.96751037,member
440162,F156B64BAFEED717,classic_bike,2021-09-07 05:14:10,2021-09-07 05:35:23,Rockaway Ave & Bainbridge St,4285,Washington Ave & Park Ave,4724,40.68319988172761,-73.91166642308235,40.69610226,-73.96751037,member
448218,8E862BEF1384CD0C,electric_bike,2021-09-12 09:35:16,2021-09-12 10:20:24,Rockaway Ave & Bainbridge St,4285,34 St & 5 Ave,3451,40.68319988172761,-73.91166642308235,40.654098,-74.001131,member
451461,BAFA4B9B51DFAC09,classic_bike,2021-09-12 09:35:28,2021-09-12 10:20:31,Rockaway Ave & Bainbridge St,4285,34 St & 5 Ave,3451,40.68319988172761,-73.91166642308235,40.654098,-74.001131,member
465684,4F838D841C5CD237,classic_bike,2021-09-11 09:17:29,2021-09-11 09:31:27,Rockaway Ave & Bainbridge St,4285,Bushwick Ave & Harman St,4640,40.68319988172761,-73.91166642308235,40.69356,-73.92524,member
465726,6D87A20DF0B9A9D6,classic_bike,2021-09-08 16:37:13,2021-09-08 16:58:48,Rockaway Ave & Bainbridge St,4285,Bushwick Ave & Harman St,4640,40.68319988172761,-73.91166642308235,40.69356,-73.92524,member
465727,78A0827AA057582B,classic_bike,2021-09-10 18:21:45,2021-09-10 18:50:11,Rockaway Ave & Bainbridge St,4285,Jefferson St & Cypress Ave,5082,40.68319988172761,-73.91166642308235,40.70907,-73.92157,casual
466122,84929A322686DC25,classic_bike,2021-09-11 09:17:26,2021-09-11 09:31:30,Rockaway Ave & Bainbridge St,4285,Bushwick Ave & Harman St,4640,40.68319988172761,-73.91166642308235,40.69356,-73.92524,member
467236,8C155169F51F23B0,electric_bike,2021-09-09 18:54:03,2021-09-09 19:02:38,Rockaway Ave & Bainbridge St,4285,Bushwick Ave & Harman St,4640,40.68319988172761,-73.91166642308235,40.69356,-73.92524,member
469598,D066FC10CA3AF125,classic_bike,2021-09-10 18:20:34,2021-09-10 18:49:53,Rockaway Ave & Bainbridge St,4285,Jefferson St & Cypress Ave,5082,40.68319988172761,-73.91166642308235,40.70907,-73.92157,casual
469608,EEE60A516552BDFE,electric_bike,2021-09-03 19:20:46,2021-09-03 19:40:19,Rockaway Ave & Bainbridge St,4285,Jefferson St & Cypress Ave,5082,40.68319988172761,-73.91166642308235,40.70907,-73.92157,member
470279,3EB4CF0477D06949,classic_bike,2021-09-04 22:09:59,2021-09-04 22:19:32,Rockaway Ave & Bainbridge St,4285,Bushwick Ave & Harman St,4640,40.68319988172761,-73.91166642308235,40.69356,-73.92524,member
471203,9029597C170AEAA9,classic_bike,2021-09-12 17:11:20,2021-09-12 17:41:37,Rockaway Ave & Bainbridge St,4285,Jefferson St & Cypress Ave,5082,40.68319988172761,-73.91166642308235,40.70907,-73.92157,member
477097,A6A0105FF29EADDF,classic_bike,2021-09-04 09:39:08,2021-09-04 09:45:22,Rockaway Ave & Bainbridge St,4285,Bushwick Ave & Linden St,4600,40.68319988172761,-73.91166642308235,40.69146,-73.92146,member
477110,C188ACE06C1789B3,classic_bike,2021-09-19 10:00:47,2021-09-19 10:34:48,Rockaway Ave & Bainbridge St,4285,Driggs Ave & N Henry St,5542,40.68319988172761,-73.91166642308235,40.72325,-73.94308,member
481567,0E6F88DAB6E0021B,electric_bike,2021-09-28 19:56:50,2021-09-28 20:06:00,Rockaway Ave & Bainbridge St,4285,Bushwick Ave & Linden St,4600,40.68319988172761,-73.91166642308235,40.69146,-73.92146,casual
481599,125B90CAE49BD5FF,classic_bike,2021-09-18 16:45:35,2021-09-18 16:55:04,Rockaway Ave & Bainbridge St,4285,Bushwick Ave & Linden St,4600,40.68319988172761,-73.91166642308235,40.69146,-73.92146,member
481610,4B81AFB28D6199E2,electric_bike,2021-09-13 19:40:16,2021-09-13 20:28:54,Rockaway Ave & Bainbridge St,4285,Driggs Ave & N Henry St,5542,40.68319988172761,-73.91166642308235,40.72325,-73.94308,casual
481623,3D28A6349ADA6166,classic_bike,2021-09-24 16:16:08,2021-09-24 16:27:51,Rockaway Ave & Bainbridge St,4285,Bushwick Ave & Linden St,4600,40.68319988172761,-73.91166642308235,40.69146,-73.92146,casual
481624,43C8FF2E6D1C69A1,electric_bike,2021-09-25 06:54:08,2021-09-25 07:12:49,Rockaway Ave & Bainbridge St,4285,DeKalb Ave & Hudson Ave,4513,40.68319988172761,-73.91166642308235,40.689888,-73.981013,casual
481629,D128734B67B9289F,electric_bike,2021-09-08 21:33:05,2021-09-08 21:39:03,Rockaway Ave & Bainbridge St,4285,Bushwick Ave & Linden St,4600,40.68319988172761,-73.91166642308235,40.69146,-73.92146,member
481644,A2EA2B197E217135,classic_bike,2021-09-24 14:19:33,2021-09-24 14:26:26,Rockaway Ave & Bainbridge St,4285,Bushwick Ave & Linden St,4600,40.68319988172761,-73.91166642308235,40.69146,-73.92146,member
481834,D73C62ABD6EDD447,classic_bike,2021-09-06 12:18:49,2021-09-06 12:25:08,Rockaway Ave & Bainbridge St,4285,Bushwick Ave & Linden St,4600,40.68319988172761,-73.91166642308235,40.69146,-73.92146,casual
485828,3F30980F80052851,classic_bike,2021-09-12 17:38:17,2021-09-12 18:07:36,Rockaway Ave & Bainbridge St,4285,Bushwick Ave & Linden St,4600,40.68319988172761,-73.91166642308235,40.69146,-73.92146,casual
488724,B98F9EE67F1C5B5F,classic_bike,2021-09-18 12:30:02,2021-09-18 12:39:30,Rockaway Ave & Bainbridge St,4285,Bushwick Ave & Linden St,4600,40.68319988172761,-73.91166642308235,40.69146,-73.92146,casual
514839,44300DE76488F29E,electric_bike,2021-09-29 18:41:07,2021-09-29 20:00:03,Rockaway Ave & Bainbridge St,4285,Mercer St & Bleecker St,5679,40.68319988172761,-73.91166642308235,40.72706363348306,-73.99662137031554,casual
514847,7E10911BDD745F29,classic_bike,2021-09-13 18:07:11,2021-09-13 18:42:20,Rockaway Ave & Bainbridge St,4285,Nassau Ave & Newell St,5623,40.68319988172761,-73.91166642308235,40.724812564400175,-73.94752621650696,casual
514857,8F8DAF6F0232A282,classic_bike,2021-09-22 09:00:30,2021-09-22 09:47:38,Rockaway Ave & Bainbridge St,4285,Dean St & Hoyt St,4446,40.68319988172761,-73.91166642308235,40.6864442,-73.98759104,member
539800,C0121E8B52A25164,classic_bike,2021-09-27 23:17:47,2021-09-27 23:52:26,Rockaway Ave & Bainbridge St,4285,Atlantic Ave & Fort Greene Pl,4354,40.68319988172761,-73.91166642308235,40.68382604,-73.97632328,casual
548899,40959A84E40B45FB,electric_bike,2021-09-01 15:47:16,2021-09-01 16:07:15,Rockaway Ave & Bainbridge St,4285,Atlantic Ave & Fort Greene Pl,4354,40.68319988172761,-73.91166642308235,40.68382604,-73.97632328,casual
555746,97425E07A902AE5B,electric_bike,2021-09-13 08:20:52,2021-09-13 09:07:42,Rockaway Ave & Bainbridge St,4285,Lafayette Ave & Classon Ave,4452,40.68319988172761,-73.91166642308235,40.68900443,-73.96023854,casual
556170,7ECB75D1CED91527,electric_bike,2021-09-03 14:49:06,2021-09-03 15:28:04,Rockaway Ave & Bainbridge St,4285,4 Ave & 17 St,3739,40.68319988172761,-73.91166642308235,40.665507,-73.993037,member
560552,1DA2195528DD4557,electric_bike,2021-09-10 09:55:54,2021-09-10 10:23:22,Rockaway Ave & Bainbridge St,4285,Bond St & Fulton St,4479,40.68319988172761,-73.91166642308235,40.68962188790333,-73.98304268717766,member
560557,0ABAE26501F42F4C,classic_bike,2021-09-04 21:32:03,2021-09-04 21:50:17,Rockaway Ave & Bainbridge St,4285,Lafayette Ave & Classon Ave,4452,40.68319988172761,-73.91166642308235,40.68900443,-73.96023854,member
561918,5147064FE7987DE2,electric_bike,2021-09-06 18:32:37,2021-09-06 18:57:41,Rockaway Ave & Bainbridge St,4285,Bedford Ave & Nassau Ave,5550,40.68319988172761,-73.91166642308235,40.72311651,-73.95212324,casual
567458,CD8AED258F842F47,electric_bike,2021-09-15 20:07:23,2021-09-15 20:38:33,Rockaway Ave & Bainbridge St,4285,Lafayette Ave & Classon Ave,4452,40.68319988172761,-73.91166642308235,40.68900443,-73.96023854,casual
568390,37118B59961539D5,classic_bike,2021-09-05 12:25:35,2021-09-05 12:31:19,Rockaway Ave & Bainbridge St,4285,Wilson Ave & Moffat St,4507,40.68319988172761,-73.91166642308235,40.68906,-73.90506,member
568393,4F83FFB9D08BB3F4,classic_bike,2021-09-02 17:47:25,2021-09-02 17:53:02,Rockaway Ave & Bainbridge St,4285,Wilson Ave & Moffat St,4507,40.68319988172761,-73.91166642308235,40.68906,-73.90506,casual
572269,B4F1894238CF6163,electric_bike,2021-09-10 17:11:20,2021-09-10 17:16:36,Rockaway Ave & Bainbridge St,4285,Wilson Ave & Moffat St,4507,40.68319988172761,-73.91166642308235,40.68906,-73.90506,member
572273,90ED0A8CCC312D35,classic_bike,2021-09-18 05:05:42,2021-09-18 05:10:01,Rockaway Ave & Bainbridge St,4285,Wilson Ave & Moffat St,4507,40.68319988172761,-73.91166642308235,40.68906,-73.90506,member
572286,C405AA01D7D40DAF,classic_bike,2021-09-20 14:46:57,2021-09-20 14:52:33,Rockaway Ave & Bainbridge St,4285,Wilson Ave & Moffat St,4507,40.68319988172761,-73.91166642308235,40.68906,-73.90506,member
572287,C8ABA347DD1FC8F5,classic_bike,2021-09-24 10:18:48,2021-09-24 10:23:23,Rockaway Ave & Bainbridge St,4285,Wilson Ave & Moffat St,4507,40.68319988172761,-73.91166642308235,40.68906,-73.90506,member
572291,CA1473919AFE7ADF,electric_bike,2021-09-06 14:21:02,2021-09-06 14:42:01,Rockaway Ave & Bainbridge St,4285,Nassau Ave & Russell St,5581,40.68319988172761,-73.91166642308235,40.72557,-73.94434,casual
572594,19776FB71F5710EC,classic_bike,2021-09-21 11:21:32,2021-09-21 11:26:39,Rockaway Ave & Bainbridge St,4285,Wilson Ave & Moffat St,4507,40.68319988172761,-73.91166642308235,40.68906,-73.90506,member
572595,19597B6202FFAF30,classic_bike,2021-09-25 11:40:02,2021-09-25 11:44:21,Rockaway Ave & Bainbridge St,4285,Wilson Ave & Moffat St,4507,40.68319988172761,-73.91166642308235,40.68906,-73.90506,member
573384,EBEE63D1506D0E06,classic_bike,2021-09-04 10:36:24,2021-09-04 10:41:16,Rockaway Ave & Bainbridge St,4285,Wilson Ave & Moffat St,4507,40.68319988172761,-73.91166642308235,40.68906,-73.90506,member
573385,4463D5E891A994F7,classic_bike,2021-09-22 13:24:25,2021-09-22 13:29:30,Rockaway Ave & Bainbridge St,4285,Wilson Ave & Moffat St,4507,40.68319988172761,-73.91166642308235,40.68906,-73.90506,member
573421,D818FAE084941953,classic_bike,2021-09-02 11:05:28,2021-09-02 11:14:02,Rockaway Ave & Bainbridge St,4285,Wilson Ave & Moffat St,4507,40.68319988172761,-73.91166642308235,40.68906,-73.90506,member
577568,B1EC42551AE86964,electric_bike,2021-09-07 16:05:45,2021-09-07 16:34:08,Rockaway Ave & Bainbridge St,4285,Broadway & Whipple St,4883,40.68319988172761,-73.91166642308235,40.7016657,-73.9437303,casual
577573,6E6C22A523CBA0B1,classic_bike,2021-09-03 23:37:29,2021-09-03 23:45:42,Rockaway Ave & Bainbridge St,4285,Wilson Ave & Moffat St,4507,40.68319988172761,-73.91166642308235,40.68906,-73.90506,casual
577590,34CF66EADFF43ED8,classic_bike,2021-09-24 15:04:25,2021-09-24 15:08:13,Rockaway Ave & Bainbridge St,4285,Wilson Ave & Moffat St,4507,40.68319988172761,-73.91166642308235,40.68906,-73.90506,member
577592,239580A1841F7989,classic_bike,2021-09-07 00:46:49,2021-09-07 00:53:14,Rockaway Ave & Bainbridge St,4285,Wilson Ave & Moffat St,4507,40.68319988172761,-73.91166642308235,40.68906,-73.90506,member
577609,9674B72D727A358F,classic_bike,2021-09-28 13:37:38,2021-09-28 13:43:22,Rockaway Ave & Bainbridge St,4285,Wilson Ave & Moffat St,4507,40.68319988172761,-73.91166642308235,40.68906,-73.90506,member
577613,0C52667839D93074,electric_bike,2021-09-22 10:04:59,2021-09-22 10:21:23,Rockaway Ave & Bainbridge St,4285,Monroe St & Classon Ave,4336,40.68319988172761,-73.91166642308235,40.6845683,-73.95881081,casual
577614,A51F075A85AA857F,electric_bike,2021-09-03 22:35:02,2021-09-03 22:43:24,Rockaway Ave & Bainbridge St,4285,Wilson Ave & Moffat St,4507,40.68319988172761,-73.91166642308235,40.68906,-73.90506,casual
577621,080F3611F01C93A1,classic_bike,2021-09-05 05:17:17,2021-09-05 05:34:37,Rockaway Ave & Bainbridge St,4285,Broadway & Whipple St,4883,40.68319988172761,-73.91166642308235,40.7016657,-73.9437303,casual
577664,04C7EA87E6FC72AD,classic_bike,2021-09-05 12:50:55,2021-09-05 13:09:05,Rockaway Ave & Bainbridge St,4285,Putnam Ave & Nostrand Ave,4327,40.68319988172761,-73.91166642308235,40.68402,-73.94977,casual
577666,F9D550D91E538FED,electric_bike,2021-09-23 10:03:32,2021-09-23 10:19:38,Rockaway Ave & Bainbridge St,4285,Monroe St & Classon Ave,4336,40.68319988172761,-73.91166642308235,40.6845683,-73.95881081,casual
577669,32E819CF74226269,classic_bike,2021-09-01 13:31:08,2021-09-01 13:37:15,Rockaway Ave & Bainbridge St,4285,Wilson Ave & Moffat St,4507,40.68319988172761,-73.91166642308235,40.68906,-73.90506,member
577670,1644BF9DA836704E,classic_bike,2021-09-04 14:45:00,2021-09-04 14:50:34,Rockaway Ave & Bainbridge St,4285,Wilson Ave & Moffat St,4507,40.68319988172761,-73.91166642308235,40.68906,-73.90506,member
577671,101AEC8F3026BCFD,electric_bike,2021-09-18 10:53:47,2021-09-18 11:12:46,Rockaway Ave & Bainbridge St,4285,Putnam Ave & Nostrand Ave,4327,40.68319988172761,-73.91166642308235,40.68402,-73.94977,member
578028,A7161C7F4281D67E,classic_bike,2021-09-10 08:21:58,2021-09-10 08:38:56,Rockaway Ave & Bainbridge St,4285,Broadway & Whipple St,4883,40.68319988172761,-73.91166642308235,40.7016657,-73.9437303,member
578029,859C27D3619B98F9,classic_bike,2021-09-13 13:30:01,2021-09-13 13:35:35,Rockaway Ave & Bainbridge St,4285,Wilson Ave & Moffat St,4507,40.68319988172761,-73.91166642308235,40.68906,-73.90506,member
578030,0C6A419B5D801D1A,classic_bike,2021-09-03 13:40:09,2021-09-03 13:44:48,Rockaway Ave & Bainbridge St,4285,Wilson Ave & Moffat St,4507,40.68319988172761,-73.91166642308235,40.68906,-73.90506,member
587285,9A76F6BF1DD20F38,electric_bike,2021-09-07 07:48:55,2021-09-07 08:14:20,Rockaway Ave & Bainbridge St,4285,Nassau Ave & Russell St,5581,40.68319988172761,-73.91166642308235,40.72557,-73.94434,member
587286,5C9227CCB88A3707,classic_bike,2021-09-25 11:34:28,2021-09-25 11:55:47,Rockaway Ave & Bainbridge St,4285,Putnam Ave & Nostrand Ave,4327,40.68319988172761,-73.91166642308235,40.68402,-73.94977,casual
588556,46311340F68AEDA9,classic_bike,2021-09-27 14:08:18,2021-09-27 14:15:00,Rockaway Ave & Bainbridge St,4285,Wilson Ave & Moffat St,4507,40.68319988172761,-73.91166642308235,40.68906,-73.90506,member
588566,2FC526F2EE8564A2,classic_bike,2021-09-27 14:32:09,2021-09-27 15:01:00,Rockaway Ave & Bainbridge St,4285,Wilson Ave & Moffat St,4507,40.68319988172761,-73.91166642308235,40.68906,-73.90506,member
589739,16751A529A55953F,classic_bike,2021-09-14 22:40:13,2021-09-14 22:48:00,Rockaway Ave & Bainbridge St,4285,Grove St & Broadway,4526,40.68319988172761,-73.91166642308235,40.69047,-73.923511,member
591015,CA58871486BA789A,classic_bike,2021-09-26 17:12:16,2021-09-26 17:21:13,Rockaway Ave & Bainbridge St,4285,Grove St & Broadway,4526,40.68319988172761,-73.91166642308235,40.69047,-73.923511,casual
591016,4298DB5678E514DD,electric_bike,2021-09-25 14:27:55,2021-09-25 15:37:06,Rockaway Ave & Bainbridge St,4285,Wyckoff Av & Jefferson St,5051,40.68319988172761,-73.91166642308235,40.707165,-73.923711,casual
600886,6F1C640166E27387,classic_bike,2021-09-26 11:42:34,2021-09-26 11:47:57,Rockaway Ave & Bainbridge St,4285,Grove St & Broadway,4526,40.68319988172761,-73.91166642308235,40.69047,-73.923511,member
600904,C053B85345B127DE,classic_bike,2021-09-26 11:41:31,2021-09-26 11:48:22,Rockaway Ave & Bainbridge St,4285,Grove St & Broadway,4526,40.68319988172761,-73.91166642308235,40.69047,-73.923511,member
600906,C02ED161051B4DA8,classic_bike,2021-09-30 19:15:57,2021-09-30 19:48:33,Rockaway Ave & Bainbridge St,4285,S 4 St & Wythe Ave,5204,40.68319988172761,-73.91166642308235,40.71285887,-73.96590294,casual
600907,218808719EC550DC,classic_bike,2021-09-21 05:43:24,2021-09-21 05:49:32,Rockaway Ave & Bainbridge St,4285,Grove St & Broadway,4526,40.68319988172761,-73.91166642308235,40.69047,-73.923511,casual
600909,CE2B963279DBDAA3,classic_bike,2021-09-16 15:19:23,2021-09-16 15:37:00,Rockaway Ave & Bainbridge St,4285,Wyckoff Av & Jefferson St,5051,40.68319988172761,-73.91166642308235,40.707165,-73.923711,casual
600912,CECAB067A2299D44,classic_bike,2021-09-13 21:49:49,2021-09-13 21:56:06,Rockaway Ave & Bainbridge St,4285,Grove St & Broadway,4526,40.68319988172761,-73.91166642308235,40.69047,-73.923511,casual
601179,FAD2D751DDA10D23,classic_bike,2021-09-29 08:08:25,2021-09-29 08:13:10,Rockaway Ave & Bainbridge St,4285,Grove St & Broadway,4526,40.68319988172761,-73.91166642308235,40.69047,-73.923511,member
610461,1C2931E53765C716,classic_bike,2021-09-22 07:13:14,2021-09-22 07:18:13,Rockaway Ave & Bainbridge St,4285,Grove St & Broadway,4526,40.68319988172761,-73.91166642308235,40.69047,-73.923511,member
610462,F520DE97D0DB04D9,classic_bike,2021-09-24 21:12:14,2021-09-24 21:17:32,Rockaway Ave & Bainbridge St,4285,Grove St & Broadway,4526,40.68319988172761,-73.91166642308235,40.69047,-73.923511,member
610463,CA2B52F1BBB26D07,classic_bike,2021-09-25 15:29:34,2021-09-25 15:35:42,Rockaway Ave & Bainbridge St,4285,Grove St & Broadway,4526,40.68319988172761,-73.91166642308235,40.69047,-73.923511,member
610478,1F38BA828573F5B8,classic_bike,2021-09-24 17:35:09,2021-09-24 18:19:18,Rockaway Ave & Bainbridge St,4285,Grove St & Broadway,4526,40.68319988172761,-73.91166642308235,40.69047,-73.923511,casual
610481,B2248A7B5C6908B1,classic_bike,2021-09-30 05:25:59,2021-09-30 05:31:11,Rockaway Ave & Bainbridge St,4285,Grove St & Broadway,4526,40.68319988172761,-73.91166642308235,40.69047,-73.923511,member
610482,CADBEE0F4E881269,classic_bike,2021-09-28 06:58:40,2021-09-28 07:04:15,Rockaway Ave & Bainbridge St,4285,Grove St & Broadway,4526,40.68319988172761,-73.91166642308235,40.69047,-73.923511,member
610485,BE40B3E13DB46ACD,classic_bike,2021-09-03 19:19:33,2021-09-03 19:27:11,Rockaway Ave & Bainbridge St,4285,Grove St & Broadway,4526,40.68319988172761,-73.91166642308235,40.69047,-73.923511,casual
610488,16125FDC2D8D61BC,electric_bike,2021-09-15 02:48:40,2021-09-15 02:52:59,Rockaway Ave & Bainbridge St,4285,Grove St & Broadway,4526,40.68319988172761,-73.91166642308235,40.69047,-73.923511,casual
610489,7CE8F24F57115B7E,electric_bike,2021-09-21 18:23:09,2021-09-21 18:35:32,Rockaway Ave & Bainbridge St,4285,Grove St & Broadway,4526,40.68319988172761,-73.91166642308235,40.69047,-73.923511,member
610490,86310D086A2F74CB,classic_bike,2021-09-29 19:07:18,2021-09-29 19:15:37,Rockaway Ave & Bainbridge St,4285,Grove St & Broadway,4526,40.68319988172761,-73.91166642308235,40.69047,-73.923511,casual
610491,A5A18255ABD3B797,classic_bike,2021-09-10 13:48:45,2021-09-10 14:38:19,Rockaway Ave & Bainbridge St,4285,Grove St & Broadway,4526,40.68319988172761,-73.91166642308235,40.69047,-73.923511,casual
610498,1E517D5441730918,classic_bike,2021-09-30 14:22:10,2021-09-30 14:29:43,Rockaway Ave & Bainbridge St,4285,Grove St & Broadway,4526,40.68319988172761,-73.91166642308235,40.69047,-73.923511,casual
610509,61211FDA4AF22B4A,classic_bike,2021-09-27 07:36:24,2021-09-27 07:42:17,Rockaway Ave & Bainbridge St,4285,Grove St & Broadway,4526,40.68319988172761,-73.91166642308235,40.69047,-73.923511,member
610513,04F4A4D46153D81C,electric_bike,2021-09-12 21:26:31,2021-09-12 21:58:24,Rockaway Ave & Bainbridge St,4285,Grove St & Broadway,4526,40.68319988172761,-73.91166642308235,40.69047,-73.923511,member
610517,141F369888F1962B,classic_bike,2021-09-18 10:48:23,2021-09-18 10:56:11,Rockaway Ave & Bainbridge St,4285,Grove St & Broadway,4526,40.68319988172761,-73.91166642308235,40.69047,-73.923511,member
610543,54C8BB25EA9F227D,classic_bike,2021-09-20 18:19:16,2021-09-20 18:27:14,Rockaway Ave & Bainbridge St,4285,Grove St & Broadway,4526,40.68319988172761,-73.91166642308235,40.69047,-73.923511,casual
610561,BF92ACE91C6703B1,classic_bike,2021-09-27 18:22:27,2021-09-27 18:27:30,Rockaway Ave & Bainbridge St,4285,Grove St & Broadway,4526,40.68319988172761,-73.91166642308235,40.69047,-73.923511,member
610562,FC0AE8937CEDA43C,electric_bike,2021-09-01 16:58:55,2021-09-01 17:05:06,Rockaway Ave & Bainbridge St,4285,Grove St & Broadway,4526,40.68319988172761,-73.91166642308235,40.69047,-73.923511,casual
610563,097BE25C37D17B03,electric_bike,2021-09-28 18:53:12,2021-09-28 19:09:28,Rockaway Ave & Bainbridge St,4285,Wyckoff Av & Jefferson St,5051,40.68319988172761,-73.91166642308235,40.707165,-73.923711,casual
610582,AD217616E7DDB68C,classic_bike,2021-09-11 08:52:42,2021-09-11 09:00:01,Rockaway Ave & Bainbridge St,4285,Grove St & Broadway,4526,40.68319988172761,-73.91166642308235,40.69047,-73.923511,member
610598,2D92C8B49B01345D,classic_bike,2021-09-25 15:29:43,2021-09-25 15:35:53,Rockaway Ave & Bainbridge St,4285,Grove St & Broadway,4526,40.68319988172761,-73.91166642308235,40.69047,-73.923511,member
610600,B4B3573C644825C8,classic_bike,2021-09-22 00:05:42,2021-09-22 00:12:56,Rockaway Ave & Bainbridge St,4285,Grove St & Broadway,4526,40.68319988172761,-73.91166642308235,40.69047,-73.923511,member
610601,C19101909EFBA571,classic_bike,2021-09-17 14:30:41,2021-09-17 14:37:23,Rockaway Ave & Bainbridge St,4285,Grove St & Broadway,4526,40.68319988172761,-73.91166642308235,40.69047,-73.923511,member
610603,146E19DF262D3564,classic_bike,2021-09-21 05:07:53,2021-09-21 05:12:30,Rockaway Ave & Bainbridge St,4285,Grove St & Broadway,4526,40.68319988172761,-73.91166642308235,40.69047,-73.923511,member
610606,84D560F610658B37,electric_bike,2021-09-11 22:01:57,2021-09-11 22:09:05,Rockaway Ave & Bainbridge St,4285,Grove St & Broadway,4526,40.68319988172761,-73.91166642308235,40.69047,-73.923511,casual
610624,05D24A3DE76470A3,classic_bike,2021-09-30 07:38:26,2021-09-30 07:44:42,Rockaway Ave & Bainbridge St,4285,Grove St & Broadway,4526,40.68319988172761,-73.91166642308235,40.69047,-73.923511,member
610957,6DA75011AECA726C,electric_bike,2021-09-18 20:23:24,2021-09-18 20:39:25,Rockaway Ave & Bainbridge St,4285,Pacific St & Classon Ave,4148,40.68319988172761,-73.91166642308235,40.6791944,-73.9587903,member
611057,556D971B9895FD88,classic_bike,2021-09-23 07:22:16,2021-09-23 07:27:19,Rockaway Ave & Bainbridge St,4285,Grove St & Broadway,4526,40.68319988172761,-73.91166642308235,40.69047,-73.923511,member
611071,12B9671CF804FD04,classic_bike,2021-09-25 10:38:39,2021-09-25 10:44:59,Rockaway Ave & Bainbridge St,4285,Grove St & Broadway,4526,40.68319988172761,-73.91166642308235,40.69047,-73.923511,member
611074,C0358EA685E02273,classic_bike,2021-09-30 05:26:07,2021-09-30 05:30:53,Rockaway Ave & Bainbridge St,4285,Grove St & Broadway,4526,40.68319988172761,-73.91166642308235,40.69047,-73.923511,member
611075,470250B198B5363B,electric_bike,2021-09-29 21:07:25,2021-09-29 21:12:19,Rockaway Ave & Bainbridge St,4285,Grove St & Broadway,4526,40.68319988172761,-73.91166642308235,40.69047,-73.923511,member
611253,65552430AB1FBC83,classic_bike,2021-09-24 07:17:41,2021-09-24 07:22:22,Rockaway Ave & Bainbridge St,4285,Grove St & Broadway,4526,40.68319988172761,-73.91166642308235,40.69047,-73.923511,member
611273,EB35375A5444904F,classic_bike,2021-09-18 11:31:44,2021-09-18 11:41:42,Rockaway Ave & Bainbridge St,4285,Grove St & Broadway,4526,40.68319988172761,-73.91166642308235,40.69047,-73.923511,member
611276,4191AD7841A3CFE4,classic_bike,2021-09-28 01:21:29,2021-09-28 01:50:29,Rockaway Ave & Bainbridge St,4285,Monroe St & Tompkins Ave,4434,40.68319988172761,-73.91166642308235,40.686203,-73.944694,casual
611279,89CC8E2C0764EAFD,electric_bike,2021-09-27 19:48:53,2021-09-27 20:02:12,Rockaway Ave & Bainbridge St,4285,Monroe St & Tompkins Ave,4434,40.68319988172761,-73.91166642308235,40.686203,-73.944694,casual
611280,143543938EF5061D,classic_bike,2021-09-06 17:44:49,2021-09-06 18:10:26,Rockaway Ave & Bainbridge St,4285,Wyckoff Av & Jefferson St,5051,40.68319988172761,-73.91166642308235,40.707165,-73.923711,casual
611319,D31BD1021F007D78,classic_bike,2021-09-08 22:40:36,2021-09-08 22:49:23,Rockaway Ave & Bainbridge St,4285,Grove St & Broadway,4526,40.68319988172761,-73.91166642308235,40.69047,-73.923511,casual
611320,07F4BCC20BC689FD,electric_bike,2021-09-10 09:53:45,2021-09-10 10:19:23,Rockaway Ave & Bainbridge St,4285,S 4 St & Wythe Ave,5204,40.68319988172761,-73.91166642308235,40.71285887,-73.96590294,casual
611321,63EF4AB895E5CA9C,electric_bike,2021-09-25 21:49:08,2021-09-25 22:02:49,Rockaway Ave & Bainbridge St,4285,Wyckoff Av & Jefferson St,5051,40.68319988172761,-73.91166642308235,40.707165,-73.923711,member
611322,696CB806C16A0980,classic_bike,2021-09-24 19:47:46,2021-09-24 20:04:01,Rockaway Ave & Bainbridge St,4285,Monroe St & Tompkins Ave,4434,40.68319988172761,-73.91166642308235,40.686203,-73.944694,member
611331,CC3766B3B612C347,electric_bike,2021-09-25 14:26:40,2021-09-25 15:36:40,Rockaway Ave & Bainbridge St,4285,Wyckoff Av & Jefferson St,5051,40.68319988172761,-73.91166642308235,40.707165,-73.923711,member
611443,6A8F243A1D1B07A5,electric_bike,2021-09-06 17:48:28,2021-09-06 18:04:16,Rockaway Ave & Bainbridge St,4285,Onderdonk Ave & Dekalb Ave,5115,40.68319988172761,-73.91166642308235,40.70863,-73.91497,casual
611445,577828412C7733F8,classic_bike,2021-09-01 14:58:22,2021-09-01 15:04:19,Rockaway Ave & Bainbridge St,4285,Grove St & Broadway,4526,40.68319988172761,-73.91166642308235,40.69047,-73.923511,member
611450,78BAAE85769E8329,classic_bike,2021-09-11 22:28:48,2021-09-11 22:36:57,Rockaway Ave & Bainbridge St,4285,Grove St & Broadway,4526,40.68319988172761,-73.91166642308235,40.69047,-73.923511,casual
613765,6EB0B8E40A98388D,electric_bike,2021-09-26 07:23:32,2021-09-26 07:29:13,Rockaway Ave & Bainbridge St,4285,Grove St & Broadway,4526,40.68319988172761,-73.91166642308235,40.69047,-73.923511,casual
616245,A57B649C32399C2B,electric_bike,2021-09-11 02:33:08,2021-09-11 03:02:33,Rockaway Ave & Bainbridge St,4285,Degraw St & Smith St,4298,40.68319988172761,-73.91166642308235,40.6829151,-73.99318208,casual
621857,4FA4604CB178FCA4,classic_bike,2021-09-27 08:17:01,2021-09-27 09:04:21,Rockaway Ave & Bainbridge St,4285,Thompson St & Bleecker St,5721,40.68319988172761,-73.91166642308235,40.72840059450829,-73.99968780577183,member
627342,463203D0B2C86B84,electric_bike,2021-09-11 02:31:02,2021-09-11 17:54:00,Rockaway Ave & Bainbridge St,4285,Degraw St & Smith St,4298,40.68319988172761,-73.91166642308235,40.6829151,-73.99318208,member
634665,51089B292554398E,electric_bike,2021-09-20 17:51:25,2021-09-20 18:00:51,Rockaway Ave & Bainbridge St,4285,Central Ave & Weirfield St,4591,40.68319988172761,-73.91166642308235,40.69055,-73.91181,casual
636226,98195BF57C1CAC2B,classic_bike,2021-09-18 08:38:38,2021-09-18 08:43:20,Rockaway Ave & Bainbridge St,4285,Central Ave & Weirfield St,4591,40.68319988172761,-73.91166642308235,40.69055,-73.91181,member
643393,68853A7F5E078F46,classic_bike,2021-09-19 21:00:08,2021-09-19 21:04:11,Rockaway Ave & Bainbridge St,4285,Central Ave & Weirfield St,4591,40.68319988172761,-73.91166642308235,40.69055,-73.91181,member
643426,033554264257C37A,electric_bike,2021-09-01 00:33:59,2021-09-01 00:51:47,Rockaway Ave & Bainbridge St,4285,Withers St & Kingsland Ave,5362,40.68319988172761,-73.91166642308235,40.71773,-73.94051,member
651704,44CC6114E92F8D7F,classic_bike,2021-09-03 00:14:47,2021-09-03 00:20:08,Rockaway Ave & Bainbridge St,4285,Central Ave & Weirfield St,4591,40.68319988172761,-73.91166642308235,40.69055,-73.91181,member
651718,243D7A7BA53C9457,classic_bike,2021-09-14 15:20:32,2021-09-14 15:57:05,Rockaway Ave & Bainbridge St,4285,DeKalb Ave & Franklin Ave,4528,40.68319988172761,-73.91166642308235,40.69064807082943,-73.95746178925037,casual
651761,E083F7659249A18D,electric_bike,2021-09-25 23:09:57,2021-09-25 23:14:00,Rockaway Ave & Bainbridge St,4285,Central Ave & Weirfield St,4591,40.68319988172761,-73.91166642308235,40.69055,-73.91181,casual
651781,F07C07AD29912FEA,classic_bike,2021-09-04 15:37:44,2021-09-04 16:14:22,Rockaway Ave & Bainbridge St,4285,DeKalb Ave & Franklin Ave,4528,40.68319988172761,-73.91166642308235,40.69064807082943,-73.95746178925037,casual
651790,0F1E6A09BDD3200D,classic_bike,2021-09-04 17:22:30,2021-09-04 17:28:48,Rockaway Ave & Bainbridge St,4285,Central Ave & Weirfield St,4591,40.68319988172761,-73.91166642308235,40.69055,-73.91181,member
651845,31AADBB8007DC169,classic_bike,2021-09-02 15:40:27,2021-09-02 15:48:59,Rockaway Ave & Bainbridge St,4285,Central Ave & Weirfield St,4591,40.68319988172761,-73.91166642308235,40.69055,-73.91181,casual
652696,AF9DC4A687FC0C32,electric_bike,2021-09-06 01:56:39,2021-09-06 02:04:56,Rockaway Ave & Bainbridge St,4285,Central Ave & Weirfield St,4591,40.68319988172761,-73.91166642308235,40.69055,-73.91181,member
668075,14DB46A224996C46,electric_bike,2021-09-10 10:31:23,2021-09-10 11:07:41,Rockaway Ave & Bainbridge St,4285,Fulton St & Adams St,4637,40.68319988172761,-73.91166642308235,40.69241829257847,-73.98949474096298,casual
688642,8B0DC79F1F1B2C1C,classic_bike,2021-09-26 19:03:37,2021-09-26 19:06:33,Rockaway Ave & Bainbridge St,4285,Eldert St & Bushwick Ave,4399,40.68319988172761,-73.91166642308235,40.68652,-73.91321,casual
695194,79EB157E9F242277,classic_bike,2021-09-15 18:31:13,2021-09-15 18:33:20,Rockaway Ave & Bainbridge St,4285,Eldert St & Bushwick Ave,4399,40.68319988172761,-73.91166642308235,40.68652,-73.91321,member
714801,0062CA68DA706ADD,classic_bike,2021-09-10 18:13:39,2021-09-10 18:39:11,Rockaway Ave & Bainbridge St,4285,Willoughby Ave & Onderdonk Ave,5115,40.68319988172761,-73.91166642308235,40.7098,-73.91727,member
714837,ADD4C5C072AAA410,electric_bike,2021-09-30 17:33:14,2021-09-30 17:43:08,Rockaway Ave & Bainbridge St,4285,Stockholm St & Wilson Ave,4824,40.68319988172761,-73.91166642308235,40.699304,-73.923044,member
714840,5276930BC60E213C,classic_bike,2021-09-11 22:09:50,2021-09-11 22:22:37,Rockaway Ave & Bainbridge St,4285,Stockholm St & Wilson Ave,4824,40.68319988172761,-73.91166642308235,40.699304,-73.923044,casual
715909,710BDEF1E19E501E,electric_bike,2021-09-09 17:11:40,2021-09-09 17:23:16,Rockaway Ave & Bainbridge St,4285,Stockholm St & Wilson Ave,4824,40.68319988172761,-73.91166642308235,40.699304,-73.923044,member
715924,B952D31CCB6732FA,classic_bike,2021-09-19 12:44:29,2021-09-19 13:00:13,Rockaway Ave & Bainbridge St,4285,Stockholm St & Wilson Ave,4824,40.68319988172761,-73.91166642308235,40.699304,-73.923044,casual
717618,0C686A53879729EC,classic_bike,2021-09-21 23:08:03,2021-09-21 23:19:11,Rockaway Ave & Bainbridge St,4285,Stockholm St & Wilson Ave,4824,40.68319988172761,-73.91166642308235,40.699304,-73.923044,member
723762,4A3835C62E5E6F71,electric_bike,2021-09-30 17:32:28,2021-09-30 17:43:15,Rockaway Ave & Bainbridge St,4285,Stockholm St & Wilson Ave,4824,40.68319988172761,-73.91166642308235,40.699304,-73.923044,member
723780,0D98951C012C325C,classic_bike,2021-09-29 09:30:30,2021-09-29 09:43:39,Rockaway Ave & Bainbridge St,4285,Lorimer St & Broadway,4965,40.68319988172761,-73.91166642308235,40.70411791,-73.94818595,member
723787,91AC464CB5AFA44C,electric_bike,2021-09-06 14:23:05,2021-09-06 14:46:38,Rockaway Ave & Bainbridge St,4285,Stockholm St & Wilson Ave,4824,40.68319988172761,-73.91166642308235,40.699304,-73.923044,member
723788,905682FB8EC422E8,classic_bike,2021-09-26 11:43:19,2021-09-26 12:05:17,Rockaway Ave & Bainbridge St,4285,Stockholm St & Wilson Ave,4824,40.68319988172761,-73.91166642308235,40.699304,-73.923044,casual
723790,8E613F88F06FBA27,classic_bike,2021-09-26 11:44:00,2021-09-26 12:04:47,Rockaway Ave & Bainbridge St,4285,Stockholm St & Wilson Ave,4824,40.68319988172761,-73.91166642308235,40.699304,-73.923044,casual
725118,3B0FC60954C2DACB,classic_bike,2021-09-14 23:52:38,2021-09-15 00:01:55,Rockaway Ave & Bainbridge St,4285,Stockholm St & Wilson Ave,4824,40.68319988172761,-73.91166642308235,40.699304,-73.923044,casual
727726,1EE4558F41C758E9,electric_bike,2021-09-11 22:09:45,2021-09-11 22:22:37,Rockaway Ave & Bainbridge St,4285,Stockholm St & Wilson Ave,4824,40.68319988172761,-73.91166642308235,40.699304,-73.923044,casual
739581,38C4FA6F4FE78ED1,electric_bike,2021-09-04 23:12:51,2021-09-04 23:35:09,Rockaway Ave & Bainbridge St,4285,Grand Ave & Bergen St,4190,40.68319988172761,-73.91166642308235,40.678045,-73.962408,casual
749797,701629F34B4554F9,classic_bike,2021-09-26 13:36:53,2021-09-26 14:26:56,Rockaway Ave & Bainbridge St,4285,Grand Ave & Bergen St,4190,40.68319988172761,-73.91166642308235,40.678045,-73.962408,casual
749798,CB332CEAA7581510,electric_bike,2021-09-19 18:40:33,2021-09-19 18:56:14,Rockaway Ave & Bainbridge St,4285,Pulaski St & Marcus Garvey Blvd,4656,40.68319988172761,-73.91166642308235,40.6933982,-73.939877,casual
749841,41248587AAE39A79,classic_bike,2021-09-17 16:14:22,2021-09-17 16:36:39,Rockaway Ave & Bainbridge St,4285,Grand Ave & Bergen St,4190,40.68319988172761,-73.91166642308235,40.678045,-73.962408,member
765704,3DC0C2F9E3B2670A,electric_bike,2021-09-06 18:20:12,2021-09-06 18:33:25,Rockaway Ave & Bainbridge St,4285,Pulaski St & Marcus Garvey Blvd,4656,40.68319988172761,-73.91166642308235,40.6933982,-73.939877,member
765708,FCE0D30E9620F5F9,classic_bike,2021-09-26 13:37:31,2021-09-26 14:26:47,Rockaway Ave & Bainbridge St,4285,Grand Ave & Bergen St,4190,40.68319988172761,-73.91166642308235,40.678045,-73.962408,casual
779174,3E68FBD544FD7406,electric_bike,2021-09-21 09:25:38,2021-09-21 09:54:49,Rockaway Ave & Bainbridge St,4285,Nassau St & Navy St,4812,40.68319988172761,-73.91166642308235,40.69839895,-73.98068914,member
779204,863E7AADABBE09AF,electric_bike,2021-09-30 08:44:48,2021-09-30 08:50:11,Rockaway Ave & Bainbridge St,4285,Knickerbocker Ave & Halsey St,4623,40.68319988172761,-73.91166642308235,40.693,-73.90824,member
779210,C05DF2CAD763742B,classic_bike,2021-09-08 09:27:24,2021-09-08 10:00:23,Rockaway Ave & Bainbridge St,4285,Nassau St & Navy St,4812,40.68319988172761,-73.91166642308235,40.69839895,-73.98068914,member
779211,0CA50FAB3191F4DA,electric_bike,2021-09-24 23:38:28,2021-09-24 23:43:51,Rockaway Ave & Bainbridge St,4285,Knickerbocker Ave & Halsey St,4623,40.68319988172761,-73.91166642308235,40.693,-73.90824,member
779222,3317C90AF20446E6,electric_bike,2021-09-30 23:20:12,2021-09-30 23:25:57,Rockaway Ave & Bainbridge St,4285,Knickerbocker Ave & Halsey St,4623,40.68319988172761,-73.91166642308235,40.693,-73.90824,member
779251,D3896D74D432BFBD,electric_bike,2021-09-14 02:12:33,2021-09-14 02:18:24,Rockaway Ave & Bainbridge St,4285,Knickerbocker Ave & Halsey St,4623,40.68319988172761,-73.91166642308235,40.693,-73.90824,member
779275,5E10485633789650,electric_bike,2021-09-13 19:38:26,2021-09-13 19:50:17,Rockaway Ave & Bainbridge St,4285,Willoughby Ave & Myrtle Ave,4759,40.68319988172761,-73.91166642308235,40.69757,-73.93098,member
779312,E3ABE002A3D62329,classic_bike,2021-09-26 00:03:34,2021-09-26 00:10:13,Rockaway Ave & Bainbridge St,4285,Knickerbocker Ave & Halsey St,4623,40.68319988172761,-73.91166642308235,40.693,-73.90824,member
779313,F615EF32D8AD2D62,electric_bike,2021-09-28 23:36:50,2021-09-28 23:42:52,Rockaway Ave & Bainbridge St,4285,Knickerbocker Ave & Halsey St,4623,40.68319988172761,-73.91166642308235,40.693,-73.90824,member
779316,E4A7F303E1BC25BA,electric_bike,2021-09-17 23:36:11,2021-09-17 23:42:41,Rockaway Ave & Bainbridge St,4285,Knickerbocker Ave & Halsey St,4623,40.68319988172761,-73.91166642308235,40.693,-73.90824,member
779336,7186792B86F49765,electric_bike,2021-09-21 23:19:24,2021-09-21 23:24:37,Rockaway Ave & Bainbridge St,4285,Knickerbocker Ave & Halsey St,4623,40.68319988172761,-73.91166642308235,40.693,-73.90824,member
779362,A88323488C691223,electric_bike,2021-09-15 00:12:52,2021-09-15 00:18:32,Rockaway Ave & Bainbridge St,4285,Knickerbocker Ave & Halsey St,4623,40.68319988172761,-73.91166642308235,40.693,-73.90824,member
779369,2E85FD94F49EF1E2,electric_bike,2021-09-13 08:03:58,2021-09-13 08:10:42,Rockaway Ave & Bainbridge St,4285,Knickerbocker Ave & Halsey St,4623,40.68319988172761,-73.91166642308235,40.693,-73.90824,casual
779370,C010858C8D3C445E,classic_bike,2021-09-20 23:57:37,2021-09-21 00:04:38,Rockaway Ave & Bainbridge St,4285,Knickerbocker Ave & Halsey St,4623,40.68319988172761,-73.91166642308235,40.693,-73.90824,member
779671,D349954AD8168CF8,classic_bike,2021-09-27 21:10:47,2021-09-27 21:17:23,Rockaway Ave & Bainbridge St,4285,Knickerbocker Ave & Halsey St,4623,40.68319988172761,-73.91166642308235,40.693,-73.90824,member
779709,8011AFDBC5F0F6CB,classic_bike,2021-09-04 15:44:04,2021-09-04 15:52:10,Rockaway Ave & Bainbridge St,4285,Knickerbocker Ave & Halsey St,4623,40.68319988172761,-73.91166642308235,40.693,-73.90824,member
780907,3B2D904AFB854897,classic_bike,2021-09-01 12:57:35,2021-09-01 13:43:18,Rockaway Ave & Bainbridge St,4285,Knickerbocker Ave & Halsey St,4623,40.68319988172761,-73.91166642308235,40.693,-73.90824,member
780910,46B6D4CABFAC572D,classic_bike,2021-09-19 01:07:59,2021-09-19 01:15:38,Rockaway Ave & Bainbridge St,4285,Knickerbocker Ave & Halsey St,4623,40.68319988172761,-73.91166642308235,40.693,-73.90824,member
780956,9ED73A2998AA7231,classic_bike,2021-09-05 21:26:39,2021-09-05 21:48:18,Rockaway Ave & Bainbridge St,4285,Waterbury St & Stagg St,5099,40.68319988172761,-73.91166642308235,40.71019,-73.93734,member
781037,D661EF481C58B9AF,electric_bike,2021-09-19 23:59:08,2021-09-20 00:04:30,Rockaway Ave & Bainbridge St,4285,Knickerbocker Ave & Halsey St,4623,40.68319988172761,-73.91166642308235,40.693,-73.90824,member
790341,5336BE4EB3F8EE51,electric_bike,2021-09-29 22:27:33,2021-09-29 22:35:40,Rockaway Ave & Bainbridge St,4285,Knickerbocker Ave & Halsey St,4623,40.68319988172761,-73.91166642308235,40.693,-73.90824,member
790342,08B1DE35C5DAAB71,classic_bike,2021-09-06 00:33:12,2021-09-06 00:39:17,Rockaway Ave & Bainbridge St,4285,Knickerbocker Ave & Halsey St,4623,40.68319988172761,-73.91166642308235,40.693,-73.90824,casual
790379,A971FD65DB499D71,electric_bike,2021-09-07 09:47:08,2021-09-07 10:20:56,Rockaway Ave & Bainbridge St,4285,Nassau St & Navy St,4812,40.68319988172761,-73.91166642308235,40.69839895,-73.98068914,member
790399,AA89841E9006A038,electric_bike,2021-09-13 00:24:28,2021-09-13 00:30:31,Rockaway Ave & Bainbridge St,4285,Knickerbocker Ave & Halsey St,4623,40.68319988172761,-73.91166642308235,40.693,-73.90824,casual
792601,DFFEDAE16B1026A0,classic_bike,2021-09-03 23:18:50,2021-09-03 23:32:09,Rockaway Ave & Bainbridge St,4285,Willoughby Ave & Myrtle Ave,4759,40.68319988172761,-73.91166642308235,40.69757,-73.93098,casual
794889,4FAAB43919DB023A,classic_bike,2021-09-17 22:40:22,2021-09-17 23:05:50,Rockaway Ave & Bainbridge St,4285,Waterbury St & Stagg St,5099,40.68319988172761,-73.91166642308235,40.71019,-73.93734,casual
807646,27C5DB59CEB51E1D,classic_bike,2021-09-04 13:57:04,2021-09-04 14:25:20,Rockaway Ave & Bainbridge St,4285,Marcus Garvey Blvd & Macon St,4278,40.68319988172761,-73.91166642308235,40.682601,-73.938037,casual
807694,BD6F0E1ACCAA49B2,classic_bike,2021-09-25 15:27:01,2021-09-25 15:37:02,Rockaway Ave & Bainbridge St,4285,Marcus Garvey Blvd & Macon St,4278,40.68319988172761,-73.91166642308235,40.682601,-73.938037,member
808046,B4B4DF22416CD7FD,classic_bike,2021-09-02 20:01:27,2021-09-02 20:14:52,Rockaway Ave & Bainbridge St,4285,Marcus Garvey Blvd & Macon St,4278,40.68319988172761,-73.91166642308235,40.682601,-73.938037,member
822052,566564CF6AC3FC95,classic_bike,2021-09-27 18:24:44,2021-09-27 18:36:13,Rockaway Ave & Bainbridge St,4285,Marcus Garvey Blvd & Macon St,4278,40.68319988172761,-73.91166642308235,40.682601,-73.938037,casual
824033,FC68D38322CC6479,classic_bike,2021-09-02 20:01:35,2021-09-02 20:15:13,Rockaway Ave & Bainbridge St,4285,Marcus Garvey Blvd & Macon St,4278,40.68319988172761,-73.91166642308235,40.682601,-73.938037,member
824440,000E53ECD6806DAD,electric_bike,2021-09-26 19:34:06,2021-09-26 19:42:38,Rockaway Ave & Bainbridge St,4285,Marcus Garvey Blvd & Macon St,4278,40.68319988172761,-73.91166642308235,40.682601,-73.938037,member
835465,7177E1C9B88D886B,electric_bike,2021-09-08 23:01:16,2021-09-08 23:27:06,Rockaway Ave & Bainbridge St,4285,Greene Ave & Throop Ave,4510,40.68319988172761,-73.91166642308235,40.6894932,-73.942061,casual
835524,63DBCDC34E5E2B7E,classic_bike,2021-09-30 01:28:02,2021-09-30 02:04:36,Rockaway Ave & Bainbridge St,4285,Greene Ave & Throop Ave,4510,40.68319988172761,-73.91166642308235,40.6894932,-73.942061,casual
853535,87E24268D2D44361,classic_bike,2021-09-13 18:42:23,2021-09-13 19:01:41,Rockaway Ave & Bainbridge St,4285,Greene Ave & Throop Ave,4510,40.68319988172761,-73.91166642308235,40.6894932,-73.942061,member
856249,46238BF6590E86BE,classic_bike,2021-09-23 17:49:45,2021-09-23 18:18:04,Rockaway Ave & Bainbridge St,4285,Berry St & N 8 St,5379,40.68319988172761,-73.91166642308235,40.7190095,-73.95852515,member
856250,523CFA869689A6A4,classic_bike,2021-09-05 22:04:28,2021-09-05 22:37:00,Rockaway Ave & Bainbridge St,4285,Greene Ave & Throop Ave,4510,40.68319988172761,-73.91166642308235,40.6894932,-73.942061,member
884476,D0C279990207CBF7,electric_bike,2021-09-19 10:11:14,2021-09-19 10:33:29,Rockaway Ave & Bainbridge St,4285,Duffield St & Willoughby St,4596,40.68319988172761,-73.91166642308235,40.69221589,-73.9842844,member
884531,A324498F1E33EECA,classic_bike,2021-09-05 22:27:15,2021-09-06 01:00:21,Rockaway Ave & Bainbridge St,4285,India St & Manhattan Ave,5826,40.68319988172761,-73.91166642308235,40.73232194,-73.9550858,casual
884532,296D650D742022D3,electric_bike,2021-09-13 15:58:20,2021-09-13 16:13:49,Rockaway Ave & Bainbridge St,4285,Cypress Ave & George St,4765,40.68319988172761,-73.91166642308235,40.69812,-73.90271,casual
884543,C19BD042084AC2F6,classic_bike,2021-09-27 17:10:07,2021-09-27 17:26:39,Rockaway Ave & Bainbridge St,4285,Suydam St & Knickerbocker Ave,4939,40.68319988172761,-73.91166642308235,40.702013,-73.923769,casual
884547,A773D7A6F2A21F18,electric_bike,2021-09-06 10:51:03,2021-09-06 11:40:59,Rockaway Ave & Bainbridge St,4285,Duffield St & Willoughby St,4596,40.68319988172761,-73.91166642308235,40.69221589,-73.9842844,member
884678,9AD96491C49527A4,docked_bike,2021-09-02 03:44:51,2021-09-02 04:00:37,Rockaway Ave & Bainbridge St,4285,Suydam St & Knickerbocker Ave,4939,40.6832,-73.911666,40.702013,-73.923769,casual
901747,4FC574FE8557ADB9,classic_bike,2021-09-01 12:00:25,2021-09-01 12:05:22,Rockaway Ave & Bainbridge St,4285,Broadway & Madison St,4483,40.68319988172761,-73.91166642308235,40.68822,-73.91966,member
901748,7EB09C2EABBCDF25,classic_bike,2021-09-21 12:47:07,2021-09-21 12:51:04,Rockaway Ave & Bainbridge St,4285,Broadway & Madison St,4483,40.68319988172761,-73.91166642308235,40.68822,-73.91966,member
906861,6BFD40A9007F5BEB,classic_bike,2021-09-27 10:10:06,2021-09-27 10:13:42,Rockaway Ave & Bainbridge St,4285,Broadway & Madison St,4483,40.68319988172761,-73.91166642308235,40.68822,-73.91966,member
906863,7766FA22D2977F19,classic_bike,2021-09-20 21:05:37,2021-09-20 21:12:32,Rockaway Ave & Bainbridge St,4285,Broadway & Madison St,4483,40.68319988172761,-73.91166642308235,40.68822,-73.91966,casual
906881,94E3838B2BB1E031,electric_bike,2021-09-02 08:40:10,2021-09-02 09:07:59,Rockaway Ave & Bainbridge St,4285,Broadway & Madison St,4483,40.68319988172761,-73.91166642308235,40.68822,-73.91966,member
906902,16102B74D8021407,electric_bike,2021-09-20 19:10:23,2021-09-20 19:17:31,Rockaway Ave & Bainbridge St,4285,Broadway & Madison St,4483,40.68319988172761,-73.91166642308235,40.68822,-73.91966,member
917098,9BECE7F35A590808,electric_bike,2021-09-05 00:55:22,2021-09-05 01:05:05,Rockaway Ave & Bainbridge St,4285,Broadway & Madison St,4483,40.68319988172761,-73.91166642308235,40.68822,-73.91966,member
917129,9EC13E3783F52B52,classic_bike,2021-09-28 10:06:43,2021-09-28 10:10:14,Rockaway Ave & Bainbridge St,4285,Broadway & Madison St,4483,40.68319988172761,-73.91166642308235,40.68822,-73.91966,member
917718,AAA60DEC72ABD924,electric_bike,2021-09-27 00:00:51,2021-09-27 00:15:53,Rockaway Ave & Bainbridge St,4285,Broadway & Madison St,4483,40.68319988172761,-73.91166642308235,40.68822,-73.91966,casual
917728,43D7A43737CFB056,classic_bike,2021-09-09 15:05:44,2021-09-09 15:10:41,Rockaway Ave & Bainbridge St,4285,Broadway & Madison St,4483,40.68319988172761,-73.91166642308235,40.68822,-73.91966,member
944237,85380790319C305A,electric_bike,2021-09-10 04:33:04,2021-09-10 05:51:25,Rockaway Ave & Bainbridge St,4285,Steinway St & Ditmars Blvd,7074,40.68319988172761,-73.91166642308235,40.772717,-73.906127,casual
947170,25184FDF9F735EA3,electric_bike,2021-09-16 18:49:54,2021-09-16 19:30:10,Rockaway Ave & Bainbridge St,4285,Forsyth St\t& Grand St,5382,40.68319988172761,-73.91166642308235,40.71779817737835,-73.99316132068634,member
964605,98FD5171A1CEDD7A,electric_bike,2021-09-20 09:52:28,2021-09-20 10:25:55,Rockaway Ave & Bainbridge St,4285,Parade Pl & Crooke Ave,3376,40.68319988172761,-73.91166642308235,40.651847,-73.965248,casual
983433,FBFB7F3C2F5A8F2C,classic_bike,2021-09-27 18:38:45,2021-09-27 18:44:21,Rockaway Ave & Bainbridge St,4285,Madison St & Evergreen Ave,4560,40.68319988172761,-73.91166642308235,40.69122,-73.91693,member
983435,D5054192E000094B,electric_bike,2021-09-01 00:34:12,2021-09-01 00:55:15,Rockaway Ave & Bainbridge St,4285,Linden St & Knickerbocker Ave,4743,40.68319988172761,-73.91166642308235,40.69714,-73.91566,casual
983465,D386095904220A2F,electric_bike,2021-09-11 21:44:17,2021-09-11 21:56:07,Rockaway Ave & Bainbridge St,4285,Linden St & Knickerbocker Ave,4743,40.68319988172761,-73.91166642308235,40.69714,-73.91566,casual
983470,D8EC11AAB5DA194C,classic_bike,2021-09-27 17:44:04,2021-09-27 17:56:48,Rockaway Ave & Bainbridge St,4285,Linden St & Knickerbocker Ave,4743,40.68319988172761,-73.91166642308235,40.69714,-73.91566,casual
983472,F819A4488823425E,electric_bike,2021-09-04 01:07:26,2021-09-04 01:21:48,Rockaway Ave & Bainbridge St,4285,Knickerbocker Ave & Thames St,5018,40.68319988172761,-73.91166642308235,40.70539,-73.92976,member
994420,D17E286133CD22D3,electric_bike,2021-09-21 19:56:50,2021-09-21 20:13:47,Rockaway Ave & Bainbridge St,4285,Harrison Pl & Porter Ave,5090,40.68319988172761,-73.91166642308235,40.70686,-73.92851,casual
994421,464E5F4159011F58,electric_bike,2021-09-22 18:25:21,2021-09-22 18:39:57,Rockaway Ave & Bainbridge St,4285,Knickerbocker Ave & Thames St,5018,40.68319988172761,-73.91166642308235,40.70539,-73.92976,casual
994430,8C629E1A334DAFFE,electric_bike,2021-09-29 23:27:24,2021-09-29 23:34:13,Rockaway Ave & Bainbridge St,4285,Madison St & Evergreen Ave,4560,40.68319988172761,-73.91166642308235,40.69122,-73.91693,casual
994483,073CE9E85798C5F7,electric_bike,2021-09-26 21:09:56,2021-09-26 21:22:13,Rockaway Ave & Bainbridge St,4285,Linden St & Knickerbocker Ave,4743,40.68319988172761,-73.91166642308235,40.69714,-73.91566,casual
1019382,B2E38D81FA0C3AC0,classic_bike,2021-09-19 00:48:45,2021-09-19 01:14:38,Rockaway Ave & Bainbridge St,4285,Greene Ave & Nostrand Ave,4519,40.68319988172761,-73.91166642308235,40.6883337,-73.950916,casual
1032242,9FBE27C8FF7B972C,classic_bike,2021-09-19 00:48:57,2021-09-19 01:14:24,Rockaway Ave & Bainbridge St,4285,Greene Ave & Nostrand Ave,4519,40.68319988172761,-73.91166642308235,40.6883337,-73.950916,member
1032272,6D98E9E4E2EA53DC,classic_bike,2021-09-11 20:31:32,2021-09-11 21:15:09,Rockaway Ave & Bainbridge St,4285,Kent Ave & N 7 St,5489,40.68319988172761,-73.91166642308235,40.72036775298455,-73.96165072917938,member
1054060,CD5705F1081E57F4,classic_bike,2021-09-29 20:07:00,2021-09-29 20:25:33,Rockaway Ave & Bainbridge St,4285,Kosciuszko St & Tompkins Ave,4553,40.68319988172761,-73.91166642308235,40.69128258,-73.9452416,member
1054062,2C84306DB0A534DB,classic_bike,2021-09-11 22:18:46,2021-09-11 22:41:45,Rockaway Ave & Bainbridge St,4285,Kosciuszko St & Tompkins Ave,4553,40.68319988172761,-73.91166642308235,40.69128258,-73.9452416,casual
1058138,5D3308C5928B3ABD,classic_bike,2021-09-12 20:55:04,2021-09-12 21:09:28,Rockaway Ave & Bainbridge St,4285,Menahan St & Onderdonk Ave,5034,40.68319988172761,-73.91166642308235,40.70553,-73.9096,member
1058143,8747B44939411631,classic_bike,2021-09-28 15:02:46,2021-09-28 15:19:29,Rockaway Ave & Bainbridge St,4285,Kosciuszko St & Tompkins Ave,4553,40.68319988172761,-73.91166642308235,40.69128258,-73.9452416,member
1058149,904ACE647500F339,electric_bike,2021-09-05 20:32:35,2021-09-05 21:04:51,Rockaway Ave & Bainbridge St,4285,Kosciuszko St & Tompkins Ave,4553,40.68319988172761,-73.91166642308235,40.69128258,-73.9452416,casual
1058161,347E678FA8079C71,electric_bike,2021-09-18 15:29:26,2021-09-18 16:13:40,Rockaway Ave & Bainbridge St,4285,Kosciuszko St & Tompkins Ave,4553,40.68319988172761,-73.91166642308235,40.69128258,-73.9452416,casual
1068633,268F426CE104E9C7,electric_bike,2021-09-13 04:02:23,2021-09-13 04:06:38,Rockaway Ave & Bainbridge St,4285,Knickerbocker Ave & Cooper St,4582,40.68319988172761,-73.91166642308235,40.69081,-73.90448,member
1072179,24EF20184E36E161,electric_bike,2021-09-12 00:50:31,2021-09-12 00:55:09,Rockaway Ave & Bainbridge St,4285,Knickerbocker Ave & Cooper St,4582,40.68319988172761,-73.91166642308235,40.69081,-73.90448,member
1072198,65ABE5ABFF93C354,classic_bike,2021-09-13 14:44:01,2021-09-13 14:50:24,Rockaway Ave & Bainbridge St,4285,Knickerbocker Ave & Cooper St,4582,40.68319988172761,-73.91166642308235,40.69081,-73.90448,member
1072212,BE66D55292B820B4,classic_bike,2021-09-20 14:57:04,2021-09-20 15:03:18,Rockaway Ave & Bainbridge St,4285,Knickerbocker Ave & Cooper St,4582,40.68319988172761,-73.91166642308235,40.69081,-73.90448,member
1072234,599ECD768F809E90,electric_bike,2021-09-08 23:16:28,2021-09-08 23:20:38,Rockaway Ave & Bainbridge St,4285,Knickerbocker Ave & Cooper St,4582,40.68319988172761,-73.91166642308235,40.69081,-73.90448,member
1072264,79CFABDE75CF2FB8,classic_bike,2021-09-18 00:11:59,2021-09-18 00:17:26,Rockaway Ave & Bainbridge St,4285,Knickerbocker Ave & Cooper St,4582,40.68319988172761,-73.91166642308235,40.69081,-73.90448,casual
1072265,61439B1EC06DA70A,classic_bike,2021-09-13 10:19:19,2021-09-13 10:33:37,Rockaway Ave & Bainbridge St,4285,Albany Ave & Fulton St,4237,40.68319988172761,-73.91166642308235,40.6800105,-73.938475,casual
1072271,9F8A2E9B50A656B9,classic_bike,2021-09-05 13:49:43,2021-09-05 13:55:48,Rockaway Ave & Bainbridge St,4285,Knickerbocker Ave & Cooper St,4582,40.68319988172761,-73.91166642308235,40.69081,-73.90448,casual
1072273,06839AFC5B5035DB,classic_bike,2021-09-01 04:25:18,2021-09-01 04:31:51,Rockaway Ave & Bainbridge St,4285,Knickerbocker Ave & Cooper St,4582,40.68319988172761,-73.91166642308235,40.69081,-73.90448,casual
1072293,89739AFD47FEE7E0,classic_bike,2021-09-22 13:59:47,2021-09-22 14:09:19,Rockaway Ave & Bainbridge St,4285,Albany Ave & Fulton St,4237,40.68319988172761,-73.91166642308235,40.6800105,-73.938475,casual
1072298,4AC7B9A1DFB3F42A,classic_bike,2021-09-19 13:47:43,2021-09-19 13:53:17,Rockaway Ave & Bainbridge St,4285,Knickerbocker Ave & Cooper St,4582,40.68319988172761,-73.91166642308235,40.69081,-73.90448,member
1072300,A58D2085AF2C1A9D,classic_bike,2021-09-25 18:46:22,2021-09-25 18:49:57,Rockaway Ave & Bainbridge St,4285,Knickerbocker Ave & Cooper St,4582,40.68319988172761,-73.91166642308235,40.69081,-73.90448,member
1072306,AD673B86CB6C5A39,classic_bike,2021-09-04 23:09:12,2021-09-04 23:20:33,Rockaway Ave & Bainbridge St,4285,Knickerbocker Ave & Cooper St,4582,40.68319988172761,-73.91166642308235,40.69081,-73.90448,casual
1072307,557811564B952846,classic_bike,2021-09-20 14:48:32,2021-09-20 14:55:00,Rockaway Ave & Bainbridge St,4285,Knickerbocker Ave & Cooper St,4582,40.68319988172761,-73.91166642308235,40.69081,-73.90448,casual
1072685,613C61F568375F26,classic_bike,2021-09-24 15:06:28,2021-09-24 15:12:54,Rockaway Ave & Bainbridge St,4285,Knickerbocker Ave & Cooper St,4582,40.68319988172761,-73.91166642308235,40.69081,-73.90448,member
1072687,1CD1560EA44E7D76,classic_bike,2021-09-26 12:01:23,2021-09-26 12:07:20,Rockaway Ave & Bainbridge St,4285,Knickerbocker Ave & Cooper St,4582,40.68319988172761,-73.91166642308235,40.69081,-73.90448,member
1077697,857714B7EB129421,classic_bike,2021-09-03 10:38:20,2021-09-03 10:50:25,Rockaway Ave & Bainbridge St,4285,Albany Ave & Fulton St,4237,40.68319988172761,-73.91166642308235,40.6800105,-73.938475,member
1077699,35E764DDE0338DC7,classic_bike,2021-09-24 19:09:06,2021-09-24 19:13:44,Rockaway Ave & Bainbridge St,4285,Knickerbocker Ave & Cooper St,4582,40.68319988172761,-73.91166642308235,40.69081,-73.90448,member
1077709,135543CBB0C51F91,classic_bike,2021-09-04 23:10:44,2021-09-04 23:20:47,Rockaway Ave & Bainbridge St,4285,Knickerbocker Ave & Cooper St,4582,40.68319988172761,-73.91166642308235,40.69081,-73.90448,casual
1077732,FEB50C1B8000CB3E,classic_bike,2021-09-16 01:24:54,2021-09-16 01:30:10,Rockaway Ave & Bainbridge St,4285,Knickerbocker Ave & Cooper St,4582,40.68319988172761,-73.91166642308235,40.69081,-73.90448,member
1077745,EA1ED8B015018D99,classic_bike,2021-09-02 18:06:22,2021-09-02 18:12:31,Rockaway Ave & Bainbridge St,4285,Knickerbocker Ave & Cooper St,4582,40.68319988172761,-73.91166642308235,40.69081,-73.90448,casual
1077753,1155F48E981BCFD3,classic_bike,2021-09-10 14:53:59,2021-09-10 14:58:48,Rockaway Ave & Bainbridge St,4285,Knickerbocker Ave & Cooper St,4582,40.68319988172761,-73.91166642308235,40.69081,-73.90448,member
1077759,14F6021EC20EF698,classic_bike,2021-09-30 12:33:36,2021-09-30 13:05:37,Rockaway Ave & Bainbridge St,4285,Carlton Ave & Dean St,4199,40.68319988172761,-73.91166642308235,40.6809741,-73.9710097,casual
1077760,EC6666C9C5BB3CBE,classic_bike,2021-09-25 18:54:01,2021-09-25 19:00:23,Rockaway Ave & Bainbridge St,4285,Knickerbocker Ave & Cooper St,4582,40.68319988172761,-73.91166642308235,40.69081,-73.90448,casual
1077892,578B70C30FB81A26,classic_bike,2021-09-24 18:49:06,2021-09-24 18:55:33,Rockaway Ave & Bainbridge St,4285,Knickerbocker Ave & Cooper St,4582,40.68319988172761,-73.91166642308235,40.69081,-73.90448,casual
1077893,B62D6049DDB9D7B5,classic_bike,2021-09-04 11:38:18,2021-09-04 11:49:54,Rockaway Ave & Bainbridge St,4285,Albany Ave & Fulton St,4237,40.68319988172761,-73.91166642308235,40.6800105,-73.938475,member
1077897,0644BEBC2D593942,electric_bike,2021-09-12 14:33:11,2021-09-12 14:54:04,Rockaway Ave & Bainbridge St,4285,Carlton Ave & Dean St,4199,40.68319988172761,-73.91166642308235,40.6809741,-73.9710097,casual
1078254,B1862FA548BD1C06,classic_bike,2021-09-06 14:23:37,2021-09-06 14:28:19,Rockaway Ave & Bainbridge St,4285,Knickerbocker Ave & Cooper St,4582,40.68319988172761,-73.91166642308235,40.69081,-73.90448,member
1081900,8C077C12B199FA64,electric_bike,2021-09-25 22:22:30,2021-09-25 22:25:41,Rockaway Ave & Bainbridge St,4285,Knickerbocker Ave & Cooper St,4582,40.68319988172761,-73.91166642308235,40.69081,-73.90448,member
1082708,B28C56E6D1A65132,electric_bike,2021-09-05 00:53:07,2021-09-05 00:57:41,Rockaway Ave & Bainbridge St,4285,Knickerbocker Ave & Cooper St,4582,40.68319988172761,-73.91166642308235,40.69081,-73.90448,member
1082743,A73273513FDEC650,classic_bike,2021-09-12 13:48:37,2021-09-12 13:53:28,Rockaway Ave & Bainbridge St,4285,Knickerbocker Ave & Cooper St,4582,40.68319988172761,-73.91166642308235,40.69081,-73.90448,member
1084251,BAB87BF06D789DA4,classic_bike,2021-09-12 16:34:23,2021-09-12 16:39:52,Rockaway Ave & Bainbridge St,4285,Knickerbocker Ave & Cooper St,4582,40.68319988172761,-73.91166642308235,40.69081,-73.90448,casual
1094429,181BC400CAC90881,electric_bike,2021-09-17 18:03:08,2021-09-17 18:37:34,Rockaway Ave & Bainbridge St,4285,Congress St & Clinton St,4455,40.68319988172761,-73.91166642308235,40.68825516598005,-73.99545192718506,member
1122249,DD2D320F563B0D7B,classic_bike,2021-09-02 12:39:04,2021-09-02 12:48:22,Rockaway Ave & Bainbridge St,4285,Suydam St & Broadway,4689,40.68319988172761,-73.91166642308235,40.69544,-73.93223,member
1122284,B54BF8E0C48BA554,classic_bike,2021-09-21 18:57:35,2021-09-21 19:07:12,Rockaway Ave & Bainbridge St,4285,Suydam St & Broadway,4689,40.68319988172761,-73.91166642308235,40.69544,-73.93223,member
1124299,BAF9936D83E3826D,classic_bike,2021-09-11 14:31:01,2021-09-11 14:38:21,Rockaway Ave & Bainbridge St,4285,Central Ave & Himrod St,4713,40.68319988172761,-73.91166642308235,40.69676,-73.92302,casual
1137088,798F0EF3EF8A1C58,classic_bike,2021-09-28 22:48:08,2021-09-28 23:15:36,Rockaway Ave & Bainbridge St,4285,S 3 St & Bedford Ave,5235,40.68319988172761,-73.91166642308235,40.71260486,-73.96264403,member
1137121,9A62B2FD7D60FAEA,electric_bike,2021-09-09 22:11:41,2021-09-09 22:21:21,Rockaway Ave & Bainbridge St,4285,Central Ave & Himrod St,4713,40.68319988172761,-73.91166642308235,40.69676,-73.92302,casual
1137136,7976E143D3DFCCFC,electric_bike,2021-09-20 09:21:39,2021-09-20 10:25:15,Rockaway Ave & Bainbridge St,4285,S 3 St & Bedford Ave,5235,40.68319988172761,-73.91166642308235,40.71260486,-73.96264403,member
1137137,1E572CB2AA5DB164,classic_bike,2021-09-13 16:40:27,2021-09-13 16:53:13,Rockaway Ave & Bainbridge St,4285,Suydam St & Broadway,4689,40.68319988172761,-73.91166642308235,40.69544,-73.93223,member
1137139,88FA6C474A498E57,classic_bike,2021-09-27 16:03:21,2021-09-27 16:11:39,Rockaway Ave & Bainbridge St,4285,Suydam St & Broadway,4689,40.68319988172761,-73.91166642308235,40.69544,-73.93223,member
1137167,24B724B5EA459BDE,classic_bike,2021-09-29 10:03:13,2021-09-29 11:47:57,Rockaway Ave & Bainbridge St,4285,Stanton St & Norfolk St,5445,40.68319988172761,-73.91166642308235,40.720747,-73.986274,casual
1139104,CC343C5CA2DC7A8E,classic_bike,2021-09-11 17:02:58,2021-09-11 17:20:26,Rockaway Ave & Bainbridge St,4285,Wilson Ave & Troutman St,4864,40.68319988172761,-73.91166642308235,40.70166,-73.92754,casual
1139169,D5163A9F3F245137,classic_bike,2021-09-14 17:19:52,2021-09-14 17:31:00,Rockaway Ave & Bainbridge St,4285,Suydam St & Broadway,4689,40.68319988172761,-73.91166642308235,40.69544,-73.93223,member
1139188,70FBAF1852B46F0A,classic_bike,2021-09-21 15:48:02,2021-09-21 15:58:41,Rockaway Ave & Bainbridge St,4285,Suydam St & Broadway,4689,40.68319988172761,-73.91166642308235,40.69544,-73.93223,member
1141094,B6C7BC9203E4C5DC,classic_bike,2021-09-10 02:39:53,2021-09-10 02:49:50,Rockaway Ave & Bainbridge St,4285,Suydam St & Broadway,4689,40.68319988172761,-73.91166642308235,40.69544,-73.93223,member
1146280,1629FFD983232165,classic_bike,2021-09-03 02:33:37,2021-09-03 02:43:09,Rockaway Ave & Bainbridge St,4285,Suydam St & Broadway,4689,40.68319988172761,-73.91166642308235,40.69544,-73.93223,member
1146283,284B8CDB0140F002,electric_bike,2021-09-01 14:55:38,2021-09-01 15:09:23,Rockaway Ave & Bainbridge St,4285,Wilson Ave & Troutman St,4864,40.68319988172761,-73.91166642308235,40.70166,-73.92754,member
1146294,1187BF294589E649,electric_bike,2021-09-12 01:29:31,2021-09-12 01:39:03,Rockaway Ave & Bainbridge St,4285,Suydam St & Broadway,4689,40.68319988172761,-73.91166642308235,40.69544,-73.93223,casual
1146326,68437E2A4C11DC22,classic_bike,2021-09-11 20:38:17,2021-09-11 20:54:24,Rockaway Ave & Bainbridge St,4285,Central Ave & Himrod St,4713,40.68319988172761,-73.91166642308235,40.69676,-73.92302,casual
1152035,E7493F58DBD69294,electric_bike,2021-09-22 23:07:28,2021-09-22 23:17:13,Rockaway Ave & Bainbridge St,4285,Cedar St & Myrtle Ave,4751,40.68319988172761,-73.91166642308235,40.697842,-73.926241,member
1152176,BAD9A38EA755EF0E,electric_bike,2021-09-01 13:39:57,2021-09-01 14:12:46,Rockaway Ave & Bainbridge St,4285,State St & Smith St,4565,40.68319988172761,-73.91166642308235,40.68926942,-73.98912867,member
1152621,FB0EB3552A09404C,electric_bike,2021-09-01 00:37:43,2021-09-01 00:49:26,Rockaway Ave & Bainbridge St,4285,Cedar St & Myrtle Ave,4751,40.68319988172761,-73.91166642308235,40.697842,-73.926241,casual
1152973,3ECD8D92C61B36FA,electric_bike,2021-09-28 16:49:21,2021-09-28 17:01:33,Rockaway Ave & Bainbridge St,4285,Wilson Ave & Troutman St,4864,40.68319988172761,-73.91166642308235,40.70166,-73.92754,member
1156045,8A1B384BE590ED15,classic_bike,2021-09-03 22:49:12,2021-09-03 22:56:04,Rockaway Ave & Bainbridge St,4285,Jefferson Ave & Evergreen Ave,4517,40.68319988172761,-73.91166642308235,40.68989,-73.91458,casual
1160621,3D6CB9ADCC7F9A96,classic_bike,2021-09-11 13:13:12,2021-09-11 13:22:06,Rockaway Ave & Bainbridge St,4285,Jefferson Ave & Evergreen Ave,4517,40.68319988172761,-73.91166642308235,40.68989,-73.91458,casual
1160623,CEEC9E27C163FB85,classic_bike,2021-09-02 08:25:29,2021-09-02 11:37:28,Rockaway Ave & Bainbridge St,4285,W Broadway & Spring St,5569,40.68319988172761,-73.91166642308235,40.72494672359416,-74.00165855884552,casual
1160630,012CCE864F6FFFD5,classic_bike,2021-09-06 14:23:44,2021-09-06 14:32:21,Rockaway Ave & Bainbridge St,4285,Jefferson Ave & Evergreen Ave,4517,40.68319988172761,-73.91166642308235,40.68989,-73.91458,casual
1160772,E6A9FD004CFC2D6B,classic_bike,2021-09-22 16:52:03,2021-09-22 17:05:33,Rockaway Ave & Bainbridge St,4285,Cedar St & Myrtle Ave,4751,40.68319988172761,-73.91166642308235,40.697842,-73.926241,casual
1160775,8638B2894A633556,classic_bike,2021-09-03 22:15:51,2021-09-03 22:27:26,Rockaway Ave & Bainbridge St,4285,Cedar St & Myrtle Ave,4751,40.68319988172761,-73.91166642308235,40.697842,-73.926241,member
1163029,6A5BBE00D753B35C,classic_bike,2021-09-03 20:21:50,2021-09-03 20:26:06,Rockaway Ave & Bainbridge St,4285,Jefferson Ave & Evergreen Ave,4517,40.68319988172761,-73.91166642308235,40.68989,-73.91458,member
1163035,E8AE770D66741D4A,classic_bike,2021-09-25 02:04:15,2021-09-25 02:09:10,Rockaway Ave & Bainbridge St,4285,Jefferson Ave & Evergreen Ave,4517,40.68319988172761,-73.91166642308235,40.68989,-73.91458,casual
1163037,CEE64C87845212E5,classic_bike,2021-09-16 21:04:41,2021-09-16 21:17:26,Rockaway Ave & Bainbridge St,4285,Cedar St & Myrtle Ave,4751,40.68319988172761,-73.91166642308235,40.697842,-73.926241,casual
1163041,080C6565F208C8C7,electric_bike,2021-09-28 00:00:06,2021-09-28 00:08:02,Rockaway Ave & Bainbridge St,4285,Cedar St & Myrtle Ave,4751,40.68319988172761,-73.91166642308235,40.697842,-73.926241,member
1165564,D5AB7825F7AE50DF,classic_bike,2021-09-20 13:29:30,2021-09-20 13:34:34,Rockaway Ave & Bainbridge St,4285,Jefferson Ave & Evergreen Ave,4517,40.68319988172761,-73.91166642308235,40.68989,-73.91458,member
1166760,309274B63BB40EAB,classic_bike,2021-09-27 18:03:12,2021-09-27 18:06:49,Rockaway Ave & Bainbridge St,4285,Broadway & Hancock St,4441,40.68319988172761,-73.91166642308235,40.68663,-73.9168,member
1166782,9EA610D3C7D5D1B7,electric_bike,2021-09-24 16:43:22,2021-09-24 16:47:23,Rockaway Ave & Bainbridge St,4285,Broadway & Hancock St,4441,40.68319988172761,-73.91166642308235,40.68663,-73.9168,casual
1166784,10AC7343C836F8B7,electric_bike,2021-09-12 09:49:55,2021-09-12 09:52:06,Rockaway Ave & Bainbridge St,4285,Broadway & Hancock St,4441,40.68319988172761,-73.91166642308235,40.68663,-73.9168,casual
1171339,DDEDACE5EBF3FC1F,classic_bike,2021-09-15 06:38:47,2021-09-15 06:41:39,Rockaway Ave & Bainbridge St,4285,Broadway & Hancock St,4441,40.68319988172761,-73.91166642308235,40.68663,-73.9168,member
1171340,8E334843A85C7998,classic_bike,2021-09-17 17:30:15,2021-09-17 17:57:01,Rockaway Ave & Bainbridge St,4285,Broadway & Hancock St,4441,40.68319988172761,-73.91166642308235,40.68663,-73.9168,casual
