,ride_id,rideable_type,started_at,ended_at,start_station_name,start_station_id,end_station_name,end_station_id,start_lat,start_lng,end_lat,end_lng,member_casual
54686,C87D5B9305EC9356,classic_bike,2021-12-30 17:38:41,2021-12-30 18:01:10,S 4 St & Wythe Ave,5204,Bridge St & York St,4853,40.71285887,-73.96590294,40.70133448066992,-73.98471236228943,member
54722,C9147CADF36BCB16,electric_bike,2021-12-05 13:12:47,2021-12-05 13:22:30,Washington Ave & Park Ave,4724,Bridge St & York St,4853,40.69610226,-73.96751037,40.70133448066992,-73.98471236228943,member
54878,7FA19002C0D3B7D3,electric_bike,2021-12-02 11:47:38,2021-12-02 12:03:49,Clinton Ave & Flushing Ave,4762,Bridge St & York St,4853,40.69794,-73.96986848,40.70133448066992,-73.98471236228943,member
55264,B8CE4B54C60D2B64,classic_bike,2021-12-02 13:31:32,2021-12-02 13:40:08,Clermont Ave & Park Ave,4692,Bridge St & York St,4853,40.69573398,-73.97129668,40.70133448066992,-73.98471236228943,member
55309,104A66F995D38174,classic_bike,2021-12-26 01:32:15,2021-12-26 02:15:16,Wyckoff Av & Jefferson St,5051,Bridge St & York St,4853,40.707165,-73.923711,40.70133448066992,-73.98471236228943,member
55312,41AF8D29C8C02685,electric_bike,2021-12-12 15:20:50,2021-12-12 15:40:05,Underhill Ave & Lincoln Pl,4042,Bridge St & York St,4853,40.6740123,-73.9671457,40.70133448066992,-73.98471236228943,member
55432,30941AEFC72798DA,classic_bike,2021-12-06 16:21:28,2021-12-06 16:40:14,Bergen St & Flatbush Ave,4281,Bridge St & York St,4853,40.680944723477296,-73.97567331790923,40.70133448066992,-73.98471236228943,member
55495,0F79E5EC56B43E51,classic_bike,2021-12-14 10:57:50,2021-12-14 11:29:59,St James Pl & Oliver St,5238,Bridge St & York St,4853,40.71307916,-73.99851193,40.70133448066992,-73.98471236228943,casual
55683,98031DA10E7C789E,electric_bike,2021-12-18 12:52:06,2021-12-18 13:02:23,Catherine St & Monroe St,5128,Bridge St & York St,4853,40.71117444,-73.99682619,40.70133448066992,-73.98471236228943,member
55705,F9B8DC828AB25C48,classic_bike,2021-12-11 19:51:09,2021-12-11 20:18:32,Perry St & Bleecker St,5922,Bridge St & York St,4853,40.73535398,-74.00483091,40.70133448066992,-73.98471236228943,member
55870,CD9E8B43CCAB90E1,classic_bike,2021-12-31 14:36:55,2021-12-31 14:54:37,Clinton Ave & Flushing Ave,4762,Bridge St & York St,4853,40.69794,-73.96986848,40.70133448066992,-73.98471236228943,member
55958,6376F4598B928D05,classic_bike,2021-12-17 15:28:40,2021-12-17 15:36:27,Clinton Ave & Flushing Ave,4762,Bridge St & York St,4853,40.69794,-73.96986848,40.70133448066992,-73.98471236228943,member
56134,80E8939B3A7DB648,classic_bike,2021-12-16 23:33:28,2021-12-17 00:09:00,Pierrepont St & Monroe Pl,4718,Bridge St & York St,4853,40.69535693320225,-73.99344027042389,40.70133448066992,-73.98471236228943,member
56240,33B9A4195B63647B,classic_bike,2021-12-05 11:12:17,2021-12-05 11:43:13,Suydam St & Knickerbocker Ave,4939,Bridge St & York St,4853,40.702013,-73.923769,40.70133448066992,-73.98471236228943,casual
56285,74384AA07AE5E9E8,docked_bike,2021-12-04 14:43:38,2021-12-04 15:16:17,Suydam St & Knickerbocker Ave,4939,Bridge St & York St,4853,40.702013,-73.923769,40.701334,-73.984712,casual
56322,B8375891A0E2C9BF,classic_bike,2021-12-11 08:59:59,2021-12-11 09:24:08,India St & Manhattan Ave,5826,Bridge St & York St,4853,40.73232194,-73.9550858,40.70133448066992,-73.98471236228943,casual
56360,CEC2AF7E613DE1C5,classic_bike,2021-12-11 13:43:49,2021-12-11 13:55:02,Duffield St & Willoughby St,4596,Bridge St & York St,4853,40.69221589,-73.9842844,40.70133448066992,-73.98471236228943,member
121259,4AA30DD24B797C96,docked_bike,2021-12-04 14:43:26,2021-12-04 15:16:25,Suydam St & Knickerbocker Ave,4939,Bridge St & York St,4853,40.702013,-73.923769,40.701334,-73.984712,casual
121297,7FBFD0067058A32F,docked_bike,2021-12-04 14:43:33,2021-12-04 15:16:19,Suydam St & Knickerbocker Ave,4939,Bridge St & York St,4853,40.702013,-73.923769,40.701334,-73.984712,casual
121570,7C906EA105B75A63,classic_bike,2021-12-26 12:02:21,2021-12-26 12:07:13,Clinton St & Tillary St,4748,Bridge St & York St,4853,40.69623297129316,-73.99142056703568,40.70133448066992,-73.98471236228943,member
121707,4C7EA732FC309059,electric_bike,2021-12-13 09:27:43,2021-12-13 09:32:45,Nassau St & Navy St,4812,Bridge St & York St,4853,40.69839895,-73.98068914,40.70133448066992,-73.98471236228943,member
121743,ADEBB10E8FB67656,classic_bike,2021-12-31 12:13:37,2021-12-31 12:17:49,Clark St & Henry St,4789,Bridge St & York St,4853,40.69760127,-73.99344559,40.70133448066992,-73.98471236228943,member
121747,A7E2CBE4DC8593B0,classic_bike,2021-12-08 16:31:35,2021-12-08 16:35:55,Clark St & Henry St,4789,Bridge St & York St,4853,40.69760127,-73.99344559,40.70133448066992,-73.98471236228943,member
121767,3543F89ECC490391,electric_bike,2021-12-18 13:13:27,2021-12-18 13:19:54,Clark St & Henry St,4789,Bridge St & York St,4853,40.69760127,-73.99344559,40.70133448066992,-73.98471236228943,member
121938,0063AA6E4CF3B9E4,electric_bike,2021-12-25 21:59:40,2021-12-25 22:09:26,Washington Ave & Park Ave,4724,Bridge St & York St,4853,40.69610226,-73.96751037,40.70133448066992,-73.98471236228943,member
122068,4B474B1D2E549324,classic_bike,2021-12-09 15:56:20,2021-12-09 16:05:51,Ashland Pl & Dekalb Ave,4513,Bridge St & York St,4853,40.690065,-73.978776,40.70133448066992,-73.98471236228943,member
122175,DCA95B865869B73F,classic_bike,2021-12-08 09:25:57,2021-12-08 09:44:47,E 11 St & Avenue B,5659,Bridge St & York St,4853,40.72746420692392,-73.97950418293476,40.70133448066992,-73.98471236228943,member
122542,499CAE58227AFEF6,electric_bike,2021-12-16 08:26:54,2021-12-16 08:50:55,E 32 St & Park Ave,6280,Bridge St & York St,4853,40.7457121,-73.98194829,40.70133448066992,-73.98471236228943,member
122604,29419D145FEAA1CC,classic_bike,2021-12-26 01:34:13,2021-12-26 02:15:06,Wyckoff Av & Jefferson St,5051,Bridge St & York St,4853,40.707165,-73.923711,40.70133448066992,-73.98471236228943,casual
122605,50AE3E35528DEDD9,classic_bike,2021-12-30 17:39:16,2021-12-30 18:01:32,S 4 St & Wythe Ave,5204,Bridge St & York St,4853,40.71285887,-73.96590294,40.70133448066992,-73.98471236228943,casual
122619,468AC859760FB76C,classic_bike,2021-12-26 01:32:59,2021-12-26 02:12:45,Wyckoff Av & Jefferson St,5051,Bridge St & York St,4853,40.707165,-73.923711,40.70133448066992,-73.98471236228943,casual
122652,5A2D151C104812D3,classic_bike,2021-12-22 16:18:02,2021-12-22 16:49:01,Kent Ave & S 11 St,5062,Bridge St & York St,4853,40.707644944175705,-73.96841526031494,40.70133448066992,-73.98471236228943,member
122957,9708C4757F866505,classic_bike,2021-12-20 14:32:38,2021-12-20 14:37:04,Nassau St & Navy St,4812,Bridge St & York St,4853,40.69839895,-73.98068914,40.70133448066992,-73.98471236228943,member
123115,6C4E7FD0E5156012,classic_bike,2021-12-12 14:48:03,2021-12-12 15:17:34,Eastern Pkwy & Franklin Ave,3919,Bridge St & York St,4853,40.6707767,-73.9576801,40.70133448066992,-73.98471236228943,casual
123244,361B2E01D325DE97,classic_bike,2021-12-24 10:52:31,2021-12-24 11:10:07,Kent Ave & S 11 St,5062,Bridge St & York St,4853,40.707644944175705,-73.96841526031494,40.70133448066992,-73.98471236228943,casual
123247,B0906DD5E1FA2D38,classic_bike,2021-12-14 09:49:32,2021-12-14 10:21:49,Huron St & Franklin St,5869,Bridge St & York St,4853,40.73266,-73.95826,40.70133448066992,-73.98471236228943,casual
123249,F8B08061EFF15E0F,classic_bike,2021-12-13 14:47:34,2021-12-13 15:21:07,Kent Ave & S 11 St,5062,Bridge St & York St,4853,40.707644944175705,-73.96841526031494,40.70133448066992,-73.98471236228943,casual
123334,11D811C2DE08B379,electric_bike,2021-12-15 11:40:17,2021-12-15 11:53:55,Monroe St & Bedford Ave,4368,Bridge St & York St,4853,40.6851443,-73.95380904,40.70133448066992,-73.98471236228943,member
123371,45C3A99855299B8B,electric_bike,2021-12-28 20:16:50,2021-12-28 20:34:03,S 4 St & Rodney St,5156,Bridge St & York St,4853,40.70934,-73.95608,40.70133448066992,-73.98471236228943,member
123631,AB2966AF4B1BD4AA,classic_bike,2021-12-09 09:18:37,2021-12-09 09:31:11,Lafayette Ave & St James Pl,4494,Bridge St & York St,4853,40.68851534,-73.9647628,40.70133448066992,-73.98471236228943,member
123632,2FAE15D4B78F214B,classic_bike,2021-12-14 09:32:45,2021-12-14 09:44:18,Lafayette Ave & St James Pl,4494,Bridge St & York St,4853,40.68851534,-73.9647628,40.70133448066992,-73.98471236228943,member
123633,606E8B95F44284D7,classic_bike,2021-12-08 09:04:01,2021-12-08 09:16:06,Lafayette Ave & St James Pl,4494,Bridge St & York St,4853,40.68851534,-73.9647628,40.70133448066992,-73.98471236228943,member
123748,D70A72646F98CB48,classic_bike,2021-12-05 11:38:49,2021-12-05 11:43:10,Nassau St\t& Duffield St,4781,Bridge St & York St,4853,40.698477,-73.98384,40.70133448066992,-73.98471236228943,casual
123789,9CA68D132BD7E59D,classic_bike,2021-12-28 13:13:38,2021-12-28 13:36:04,Prospect Pl & Underhill Ave,4116,Bridge St & York St,4853,40.6769694,-73.96579,40.70133448066992,-73.98471236228943,member
124072,B6A4971FE24042C2,classic_bike,2021-12-03 02:19:55,2021-12-03 02:33:14,Rivington St & Chrystie St,5453,Bridge St & York St,4853,40.72110063,-73.9919254,40.70133448066992,-73.98471236228943,member
124261,D22F4A5B6DC5B8AB,classic_bike,2021-12-05 14:07:59,2021-12-05 14:59:22,Dock St & Front St,4903,Bridge St & York St,4853,40.702709,-73.99253,40.70133448066992,-73.98471236228943,casual
124266,17C86F69AB748B59,classic_bike,2021-12-05 14:09:13,2021-12-05 14:59:35,Dock St & Front St,4903,Bridge St & York St,4853,40.702709,-73.99253,40.70133448066992,-73.98471236228943,casual
124268,2DD364A9E9170896,classic_bike,2021-12-05 14:07:23,2021-12-05 14:59:04,Dock St & Front St,4903,Bridge St & York St,4853,40.702709,-73.99253,40.70133448066992,-73.98471236228943,casual
124300,2EA1A69C7010A687,classic_bike,2021-12-13 14:42:27,2021-12-13 15:21:14,Kent Ave & S 11 St,5062,Bridge St & York St,4853,40.707644944175705,-73.96841526031494,40.70133448066992,-73.98471236228943,casual
124333,19CB1516A6916023,classic_bike,2021-12-11 19:55:11,2021-12-11 20:21:02,E 11 St & 1 Ave,5746,Bridge St & York St,4853,40.72953837,-73.98426726,40.70133448066992,-73.98471236228943,casual
124374,0318A91182D1D124,classic_bike,2021-12-13 09:32:07,2021-12-13 09:41:24,Lawrence St & Willoughby St,4596,Bridge St & York St,4853,40.69236178,-73.98631746,40.70133448066992,-73.98471236228943,member
124429,AA71E65F701245BE,electric_bike,2021-12-13 14:12:27,2021-12-13 14:20:49,Willoughby St & Fleet St,4628,Bridge St & York St,4853,40.69196566,-73.9813018,40.70133448066992,-73.98471236228943,member
124458,6E254CD91A94BE9D,classic_bike,2021-12-13 10:50:59,2021-12-13 11:02:27,Willoughby St & Fleet St,4628,Bridge St & York St,4853,40.69196566,-73.9813018,40.70133448066992,-73.98471236228943,member
124496,589C3073744221B5,classic_bike,2021-12-05 19:00:09,2021-12-05 19:06:37,Lawrence St & Willoughby St,4596,Bridge St & York St,4853,40.69236178,-73.98631746,40.70133448066992,-73.98471236228943,member
124497,2C582F69EC8C0F45,electric_bike,2021-12-30 13:39:13,2021-12-30 13:43:06,Nassau St & Navy St,4812,Bridge St & York St,4853,40.69839895,-73.98068914,40.70133448066992,-73.98471236228943,member
124506,6B41D194BEE159A0,classic_bike,2021-12-27 09:41:40,2021-12-27 09:48:19,Washington Park,4546,Bridge St & York St,4853,40.6917823,-73.9737299,40.70133448066992,-73.98471236228943,member
124527,47EF42726980BCF3,classic_bike,2021-12-03 16:23:48,2021-12-03 16:36:41,Grand St & Elizabeth St,5382,Bridge St & York St,4853,40.718822,-73.99596,40.70133448066992,-73.98471236228943,member
124540,FB424DB0D3BFFACB,electric_bike,2021-12-09 13:59:53,2021-12-09 14:38:58,Hancock St & Wyckoff Ave,4735,Bridge St & York St,4853,40.6972,-73.90674,40.70133448066992,-73.98471236228943,casual
124557,F55CB2CED633C2E3,electric_bike,2021-12-03 16:14:14,2021-12-03 16:23:17,Dock 72 Way & Market St,4804,Bridge St & York St,4853,40.69985,-73.97141,40.70133448066992,-73.98471236228943,casual
124571,CA5D4BF8B10A41A9,electric_bike,2021-12-08 16:46:25,2021-12-08 16:53:36,Myrtle Ave & St Edwards St,4659,Bridge St & York St,4853,40.69327018,-73.97703874,40.70133448066992,-73.98471236228943,member
124572,B4E30BAA980F98EE,electric_bike,2021-12-21 17:37:20,2021-12-21 17:44:41,Myrtle Ave & St Edwards St,4659,Bridge St & York St,4853,40.69327018,-73.97703874,40.70133448066992,-73.98471236228943,member
254849,F57A9DE2C342F753,classic_bike,2021-12-30 11:25:24,2021-12-30 11:27:58,Front St & Jay St,4895,Bridge St & York St,4853,40.702461,-73.986842,40.70133448066992,-73.98471236228943,member
254855,6C669E00F1BA8A8C,classic_bike,2021-12-24 22:24:53,2021-12-24 22:27:21,Front St & Jay St,4895,Bridge St & York St,4853,40.702461,-73.986842,40.70133448066992,-73.98471236228943,member
254907,6B204DBD4BFFE554,classic_bike,2021-12-06 12:42:55,2021-12-06 12:50:19,Dock St & Front St,4903,Bridge St & York St,4853,40.702709,-73.99253,40.70133448066992,-73.98471236228943,member
255039,B54D797618F28CF0,electric_bike,2021-12-17 08:26:27,2021-12-17 08:36:31,Rivington St & Chrystie St,5453,Bridge St & York St,4853,40.72110063,-73.9919254,40.70133448066992,-73.98471236228943,member
255049,F48C8B5F3CD18485,electric_bike,2021-12-01 12:55:00,2021-12-01 13:00:51,Carlton Ave & Park Ave,4732,Bridge St & York St,4853,40.69580705,-73.97355569,40.70133448066992,-73.98471236228943,member
255060,77EE6E8578F4BB57,electric_bike,2021-12-26 19:41:42,2021-12-26 19:47:03,Washington Ave & Park Ave,4724,Bridge St & York St,4853,40.69610226,-73.96751037,40.70133448066992,-73.98471236228943,member
255061,AA77600151676B72,classic_bike,2021-12-27 12:54:33,2021-12-27 13:01:09,Washington Ave & Park Ave,4724,Bridge St & York St,4853,40.69610226,-73.96751037,40.70133448066992,-73.98471236228943,member
255063,A15470DDFBAA48F2,classic_bike,2021-12-24 14:45:57,2021-12-24 15:04:09,Washington Ave & Park Ave,4724,Bridge St & York St,4853,40.69610226,-73.96751037,40.70133448066992,-73.98471236228943,casual
255064,D378FB4342CE9662,classic_bike,2021-12-24 14:47:41,2021-12-24 15:04:33,Washington Ave & Park Ave,4724,Bridge St & York St,4853,40.69610226,-73.96751037,40.70133448066992,-73.98471236228943,casual
255151,400C7484BF9E2C63,classic_bike,2021-12-28 15:50:55,2021-12-28 16:00:08,DeKalb Ave & S Portland Ave,4546,Bridge St & York St,4853,40.68981035,-73.97493121,40.70133448066992,-73.98471236228943,casual
255217,2EE66E54F0D747B8,classic_bike,2021-12-17 10:14:32,2021-12-17 10:21:03,Carlton Ave & Flushing Ave,4732,Bridge St & York St,4853,40.697787,-73.973736,40.70133448066992,-73.98471236228943,member
255253,C26F19D2211C8B28,classic_bike,2021-12-16 11:04:53,2021-12-16 11:09:34,Clinton St & Tillary St,4748,Bridge St & York St,4853,40.69623297129316,-73.99142056703568,40.70133448066992,-73.98471236228943,member
255402,82DA482D9CF7AD31,electric_bike,2021-12-16 21:23:12,2021-12-16 21:31:59,Grand St & Elizabeth St,5382,Bridge St & York St,4853,40.718822,-73.99596,40.70133448066992,-73.98471236228943,member
255615,E08C4E04DA500835,classic_bike,2021-12-10 09:33:45,2021-12-10 09:49:59,MacDougal St & Prince St,5687,Bridge St & York St,4853,40.72710258,-74.00297088,40.70133448066992,-73.98471236228943,member
255937,4370154BC5323FA7,classic_bike,2021-12-10 11:18:15,2021-12-10 11:44:18,E 10 St & Avenue A,5659,Bridge St & York St,4853,40.72740794,-73.98142006,40.70133448066992,-73.98471236228943,member
256108,A36EEACA400EC962,classic_bike,2021-12-12 15:06:55,2021-12-12 15:23:12,Broadway & Roebling St,5125,Bridge St & York St,4853,40.70924826276157,-73.96063148975372,40.70133448066992,-73.98471236228943,member
256173,77956C46FFAE22FD,classic_bike,2021-12-12 15:06:34,2021-12-12 15:23:02,Broadway & Roebling St,5125,Bridge St & York St,4853,40.70924826276157,-73.96063148975372,40.70133448066992,-73.98471236228943,casual
256197,2CAD75789073C76A,electric_bike,2021-12-10 09:24:00,2021-12-10 09:38:10,Union Ave & Wallabout St,4818,Bridge St & York St,4853,40.70029511,-73.95032283,40.70133448066992,-73.98471236228943,casual
256206,89D9B47D78FA8B2A,classic_bike,2021-12-17 09:15:08,2021-12-17 10:06:54,Union Ave & Wallabout St,4818,Bridge St & York St,4853,40.70029511,-73.95032283,40.70133448066992,-73.98471236228943,member
256207,08AAA4FF03577162,classic_bike,2021-12-18 09:13:50,2021-12-18 09:32:40,Union Ave & Wallabout St,4818,Bridge St & York St,4853,40.70029511,-73.95032283,40.70133448066992,-73.98471236228943,member
256308,BC9E299014BE0EE5,electric_bike,2021-12-09 17:13:24,2021-12-09 17:17:48,Nassau St & Navy St,4812,Bridge St & York St,4853,40.69839895,-73.98068914,40.70133448066992,-73.98471236228943,member
257066,74198D3587D9AF27,docked_bike,2021-12-03 22:12:19,2021-12-03 22:21:38,Atlantic Ave & Fort Greene Pl,4354,Bridge St & York St,4853,40.683826,-73.976323,40.701334,-73.984712,casual
257188,CA2477937D970BEE,electric_bike,2021-12-05 12:13:53,2021-12-05 12:28:18,Forsyth St & Broome St,5453,Bridge St & York St,4853,40.71893904,-73.99266288,40.70133448066992,-73.98471236228943,member
257298,27778CE9149E368E,classic_bike,2021-12-09 17:27:31,2021-12-09 17:39:35,Washington Ave & Park Ave,4724,Bridge St & York St,4853,40.69610226,-73.96751037,40.70133448066992,-73.98471236228943,member
257431,841BA0B1DD5999DE,electric_bike,2021-12-15 12:43:52,2021-12-15 12:57:23,Rivington St & Chrystie St,5453,Bridge St & York St,4853,40.72110063,-73.9919254,40.70133448066992,-73.98471236228943,member
257823,0CFEDDBCB875FCA9,classic_bike,2021-12-08 13:51:51,2021-12-08 13:53:44,Front St & Gold St,4927,Bridge St & York St,4853,40.70224,-73.982578,40.70133448066992,-73.98471236228943,member
257837,3F5073572E5EB756,classic_bike,2021-12-09 14:27:46,2021-12-09 14:29:02,Front St & Gold St,4927,Bridge St & York St,4853,40.70224,-73.982578,40.70133448066992,-73.98471236228943,member
257844,CF020A113A8906D7,electric_bike,2021-12-14 21:19:00,2021-12-14 21:21:20,Henry St & Middagh St,4861,Bridge St & York St,4853,40.7003,-73.991581,40.70133448066992,-73.98471236228943,member
257884,64310796B2C71761,electric_bike,2021-12-09 12:18:53,2021-12-09 12:28:30,Atlantic Ave & Fort Greene Pl,4354,Bridge St & York St,4853,40.68382604,-73.97632328,40.70133448066992,-73.98471236228943,member
258067,F4C5B70A2F1C3E79,electric_bike,2021-12-08 12:01:26,2021-12-08 12:09:45,Clinton Ave & Myrtle Ave,4651,Bridge St & York St,4853,40.693261,-73.968896,40.70133448066992,-73.98471236228943,member
258160,F3BC3AE32A289D1D,classic_bike,2021-12-10 14:06:29,2021-12-10 14:21:59,Lexington Ave & Classon Ave,4452,Bridge St & York St,4853,40.68676793,-73.95928168,40.70133448066992,-73.98471236228943,casual
258306,88B23A49F2180A1F,classic_bike,2021-12-18 17:04:45,2021-12-18 17:20:07,Grand St & Elizabeth St,5382,Bridge St & York St,4853,40.718822,-73.99596,40.70133448066992,-73.98471236228943,member
258366,311BA0E2BFA29FA8,classic_bike,2021-12-17 18:18:58,2021-12-17 18:20:32,Jay St & York St,4895,Bridge St & York St,4853,40.70140317257725,-73.98672670125961,40.70133448066992,-73.98471236228943,member
258368,D2D7526B85A8F82E,docked_bike,2021-12-13 10:16:51,2021-12-13 10:35:21,Jay St & York St,4895,Bridge St & York St,4853,40.701403,-73.986727,40.701334,-73.984712,casual
258373,1CDB79F317DC15E6,classic_bike,2021-12-25 13:51:35,2021-12-25 14:07:50,Jay St & York St,4895,Bridge St & York St,4853,40.70140317257725,-73.98672670125961,40.70133448066992,-73.98471236228943,member
258405,879A8C201534998E,classic_bike,2021-12-12 20:35:20,2021-12-12 20:39:53,Henry St & Middagh St,4861,Bridge St & York St,4853,40.7003,-73.991581,40.70133448066992,-73.98471236228943,member
258471,01C29CECCD1B695B,electric_bike,2021-12-10 11:20:51,2021-12-10 11:29:14,DeKalb Ave & S Portland Ave,4546,Bridge St & York St,4853,40.68981035,-73.97493121,40.70133448066992,-73.98471236228943,member
258516,10DA714E210FDAF7,classic_bike,2021-12-18 16:50:54,2021-12-18 17:05:50,Columbia St & Kane St,4422,Bridge St & York St,4853,40.68763155,-74.0016256,40.70133448066992,-73.98471236228943,member
258663,A455A92C74615054,electric_bike,2021-12-09 14:31:59,2021-12-09 14:39:43,Adelphi St & Myrtle Ave,4620,Bridge St & York St,4853,40.69308257,-73.97178913,40.70133448066992,-73.98471236228943,member
258666,959948E14BAB96A2,electric_bike,2021-12-16 19:58:48,2021-12-16 20:10:10,Forsyth St & Broome St,5453,Bridge St & York St,4853,40.71893904,-73.99266288,40.70133448066992,-73.98471236228943,casual
258676,CDD27A849DD7166E,classic_bike,2021-12-04 10:14:55,2021-12-04 10:30:48,Allen St & Stanton St,5484,Bridge St & York St,4853,40.722055,-73.989111,40.70133448066992,-73.98471236228943,casual
258853,F873D38CFE4180E2,classic_bike,2021-12-03 18:35:47,2021-12-03 18:47:29,Washington Ave & Park Ave,4724,Bridge St & York St,4853,40.69610226,-73.96751037,40.70133448066992,-73.98471236228943,member
258889,E1140205545A298E,electric_bike,2021-12-13 08:44:29,2021-12-13 09:07:31,Lewis Ave & Kosciuszko St,4617,Bridge St & York St,4853,40.69237074,-73.93705428,40.70133448066992,-73.98471236228943,member
258894,577A4113B2B8A43B,classic_bike,2021-12-24 10:52:26,2021-12-24 11:09:58,Kent Ave & S 11 St,5062,Bridge St & York St,4853,40.707644944175705,-73.96841526031494,40.70133448066992,-73.98471236228943,casual
259070,394E916EE5A64E52,electric_bike,2021-12-05 10:48:03,2021-12-05 11:04:13,Dean St & Franklin Ave,4107,Bridge St & York St,4853,40.67759206937376,-73.955637216568,40.70133448066992,-73.98471236228943,member
259123,C284DE4427FC53BF,electric_bike,2021-12-12 13:52:15,2021-12-12 14:02:53,Lafayette Ave & St James Pl,4494,Bridge St & York St,4853,40.68851534,-73.9647628,40.70133448066992,-73.98471236228943,member
259299,9D84EFF83DA8B4BC,electric_bike,2021-12-24 21:35:36,2021-12-24 21:46:58,Forsyth St & Broome St,5453,Bridge St & York St,4853,40.71893904,-73.99266288,40.70133448066992,-73.98471236228943,member
259517,5240DE00DCB4306F,electric_bike,2021-12-20 09:56:02,2021-12-20 10:39:46,Suydam St & Knickerbocker Ave,4939,Bridge St & York St,4853,40.702013,-73.923769,40.70133448066992,-73.98471236228943,casual
259530,65C3B73C4E3488FA,classic_bike,2021-12-09 17:19:30,2021-12-09 17:30:38,Grand St & Elizabeth St,5382,Bridge St & York St,4853,40.718822,-73.99596,40.70133448066992,-73.98471236228943,member
259666,E59487B502E89758,electric_bike,2021-12-22 13:32:45,2021-12-22 13:35:05,Jay St & York St,4895,Bridge St & York St,4853,40.70140317257725,-73.98672670125961,40.70133448066992,-73.98471236228943,member
259668,76FA8DB1C42B2FD5,electric_bike,2021-12-22 13:18:03,2021-12-22 13:33:18,Jay St & York St,4895,Bridge St & York St,4853,40.70140317257725,-73.98672670125961,40.70133448066992,-73.98471236228943,member
259712,8D5754A8F317539B,classic_bike,2021-12-23 07:08:30,2021-12-23 07:15:29,Park Ave & St Edwards St,4700,Bridge St & York St,4853,40.69608941,-73.97803415,40.70133448066992,-73.98471236228943,member
260095,A856D370E149E495,electric_bike,2021-12-10 17:25:51,2021-12-10 17:33:26,Myrtle Ave & St Edwards St,4659,Bridge St & York St,4853,40.69327018,-73.97703874,40.70133448066992,-73.98471236228943,member
260153,651898EFE17706BF,electric_bike,2021-12-26 14:52:37,2021-12-26 15:41:56,62 St & Northern Blvd,6536,Bridge St & York St,4853,40.754176,-73.900318,40.70133448066992,-73.98471236228943,casual
260154,8D9D71698470FE04,electric_bike,2021-12-30 13:04:50,2021-12-30 13:23:51,Broadway & Berry St,5164,Bridge St & York St,4853,40.71044554,-73.96525063,40.70133448066992,-73.98471236228943,casual
260167,D8E689C75A1B5D2F,electric_bike,2021-12-08 11:09:51,2021-12-08 11:19:23,Lafayette Ave & St James Pl,4494,Bridge St & York St,4853,40.68851534,-73.9647628,40.70133448066992,-73.98471236228943,member
260252,5BFA899802379185,electric_bike,2021-12-01 10:26:52,2021-12-01 11:15:51,Fulton St & Waverly Ave,4345,Bridge St & York St,4853,40.68323865460341,-73.96599590778351,40.70133448066992,-73.98471236228943,member
260266,4987A9EB08AE72EA,electric_bike,2021-12-09 09:43:20,2021-12-09 09:54:39,Fulton St & Waverly Ave,4345,Bridge St & York St,4853,40.68323865460341,-73.96599590778351,40.70133448066992,-73.98471236228943,member
260352,013792C80795AD02,classic_bike,2021-12-08 11:42:27,2021-12-08 11:55:46,Warren St & Smith St,4371,Bridge St & York St,4853,40.68542400997018,-73.99127773940563,40.70133448066992,-73.98471236228943,member
260372,46A2FBFA53544FE5,classic_bike,2021-12-06 15:14:50,2021-12-06 15:25:27,Myrtle Ave & Fleet Pl,4628,Bridge St & York St,4853,40.693534,-73.981909,40.70133448066992,-73.98471236228943,member
260429,02D93A1B9C09DD56,electric_bike,2021-12-13 09:15:58,2021-12-13 09:35:18,St Johns Pl & Washington Ave,4001,Bridge St & York St,4853,40.6737236,-73.9631611,40.70133448066992,-73.98471236228943,member
260436,586455FDE76D361C,electric_bike,2021-12-15 13:28:15,2021-12-15 13:47:27,St Johns Pl & Washington Ave,4001,Bridge St & York St,4853,40.6737236,-73.9631611,40.70133448066992,-73.98471236228943,member
260491,9D67971AAD00A6B4,classic_bike,2021-12-11 15:22:21,2021-12-11 15:23:53,Jay St & York St,4895,Bridge St & York St,4853,40.70140317257725,-73.98672670125961,40.70133448066992,-73.98471236228943,casual
261108,BF34F15F6E2AC061,electric_bike,2021-12-16 16:57:48,2021-12-16 17:05:27,Myrtle Ave & St Edwards St,4659,Bridge St & York St,4853,40.69327018,-73.97703874,40.70133448066992,-73.98471236228943,member
261121,4EFA70F3B5A0E416,electric_bike,2021-12-12 12:37:58,2021-12-12 13:04:27,Metropolitan Ave & Bedford Ave,5308,Bridge St & York St,4853,40.71534825,-73.96024116,40.70133448066992,-73.98471236228943,casual
261371,04C31BC709609F47,electric_bike,2021-12-10 15:53:08,2021-12-10 16:11:07,Kent Ave & N 7 St,5489,Bridge St & York St,4853,40.72036775298455,-73.96165072917938,40.70133448066992,-73.98471236228943,casual
261382,A3708944036A6880,electric_bike,2021-12-10 15:52:25,2021-12-10 16:11:10,Kent Ave & N 7 St,5489,Bridge St & York St,4853,40.72036775298455,-73.96165072917938,40.70133448066992,-73.98471236228943,member
261385,2CCA878F572B9AE2,classic_bike,2021-12-18 12:22:33,2021-12-18 13:43:30,Kent Ave & N 7 St,5489,Bridge St & York St,4853,40.72036775298455,-73.96165072917938,40.70133448066992,-73.98471236228943,casual
261577,2C916BDE965E56D3,classic_bike,2021-12-12 19:02:00,2021-12-12 19:11:25,Clermont Ave & Park Ave,4692,Bridge St & York St,4853,40.69573398,-73.97129668,40.70133448066992,-73.98471236228943,member
261881,4A54470DDB2F2BAC,electric_bike,2021-12-08 15:00:14,2021-12-08 15:11:27,Congress St & Clinton St,4455,Bridge St & York St,4853,40.68825516598005,-73.99545192718506,40.70133448066992,-73.98471236228943,casual
262178,6677030C001ABB8E,electric_bike,2021-12-13 10:25:52,2021-12-13 10:35:39,Washington Ave & Park Ave,4724,Bridge St & York St,4853,40.69610226,-73.96751037,40.70133448066992,-73.98471236228943,casual
262224,F0E2B88AAAD8F552,classic_bike,2021-12-04 12:42:49,2021-12-04 12:49:18,Clinton Ave & Myrtle Ave,4651,Bridge St & York St,4853,40.693261,-73.968896,40.70133448066992,-73.98471236228943,member
262483,510BCDCB8939A2D1,classic_bike,2021-12-08 08:49:42,2021-12-08 09:11:11,White St & Moore St,4987,Bridge St & York St,4853,40.704508,-73.9351,40.70133448066992,-73.98471236228943,member
262742,28781CE4988811F0,electric_bike,2021-12-03 22:09:09,2021-12-03 22:21:30,Atlantic Ave & Fort Greene Pl,4354,Bridge St & York St,4853,40.68382604,-73.97632328,40.70133448066992,-73.98471236228943,member
262776,B6D249513A014139,electric_bike,2021-12-02 17:19:25,2021-12-02 17:36:57,Myrtle Ave & St Edwards St,4659,Bridge St & York St,4853,40.69327018,-73.97703874,40.70133448066992,-73.98471236228943,member
262881,AC6EF0D373BD2E3E,electric_bike,2021-12-01 08:37:47,2021-12-01 08:58:21,Meserole Ave & Manhattan Ave,5666,Bridge St & York St,4853,40.72708584,-73.95299117,40.70133448066992,-73.98471236228943,casual
263089,70E5D6B79694A1D6,electric_bike,2021-12-01 07:49:14,2021-12-01 08:09:09,Leonard St & Boerum St,5036,Bridge St & York St,4853,40.70583339,-73.94644578,40.70133448066992,-73.98471236228943,member
263090,935649A7578DDEE4,electric_bike,2021-12-08 07:47:25,2021-12-08 08:08:10,Leonard St & Boerum St,5036,Bridge St & York St,4853,40.70583339,-73.94644578,40.70133448066992,-73.98471236228943,member
263192,423FE30CAC251E08,classic_bike,2021-12-01 14:01:56,2021-12-01 14:28:50,Clinton St & Grand St,5303,Bridge St & York St,4853,40.71559509,-73.9870295,40.70133448066992,-73.98471236228943,casual
263292,6CDA7DE675EA7D74,classic_bike,2021-12-09 18:36:35,2021-12-09 18:47:47,Forsyth St & Canal St,5270,Bridge St & York St,4853,40.7158155,-73.99422366,40.70133448066992,-73.98471236228943,member
263403,C20ECF320A689CD2,electric_bike,2021-12-03 16:35:28,2021-12-03 16:44:05,Myrtle Ave & St Edwards St,4659,Bridge St & York St,4853,40.69327018,-73.97703874,40.70133448066992,-73.98471236228943,member
263456,672F5A891B87FFE7,electric_bike,2021-12-06 15:10:27,2021-12-06 15:27:31,Grand St & Greene St,5500,Bridge St & York St,4853,40.72170005235607,-74.00238141417502,40.70133448066992,-73.98471236228943,member
263469,7EA1355D8C60541F,classic_bike,2021-12-22 15:41:26,2021-12-22 16:49:13,45 Ave & 21 St,6319,Bridge St & York St,4853,40.74737075646803,-73.94777297973631,40.70133448066992,-73.98471236228943,casual
263501,28747EEBFE96B93E,electric_bike,2021-12-17 20:28:47,2021-12-17 20:50:43,Warren St & Smith St,4371,Bridge St & York St,4853,40.68542400997018,-73.99127773940563,40.70133448066992,-73.98471236228943,member
263509,82AB063A4B5B394F,electric_bike,2021-12-11 12:42:45,2021-12-11 12:54:31,Hudson St & Reade St,5359,Bridge St & York St,4853,40.71625008,-74.0091059,40.70133448066992,-73.98471236228943,member
263566,75228018F24078D3,electric_bike,2021-12-11 06:54:04,2021-12-11 07:07:44,Johnson St & Gold St,4668,Bridge St & York St,4853,40.69474881,-73.98362464,40.70133448066992,-73.98471236228943,casual
263681,CF779313E7F5B196,classic_bike,2021-12-21 16:42:10,2021-12-21 16:50:55,Ashland Pl & Dekalb Ave,4513,Bridge St & York St,4853,40.690065,-73.978776,40.70133448066992,-73.98471236228943,casual
263720,DDEADD004995F1D7,electric_bike,2021-12-07 17:28:15,2021-12-07 17:35:24,Myrtle Ave & St Edwards St,4659,Bridge St & York St,4853,40.69327018,-73.97703874,40.70133448066992,-73.98471236228943,member
263851,EBA57AFD0A62D2B5,classic_bike,2021-12-10 14:26:01,2021-12-10 14:45:57,Evergreen Ave & Noll St,4873,Bridge St & York St,4853,40.70106,-73.93318,40.70133448066992,-73.98471236228943,member
263950,B8679600C658DC27,classic_bike,2021-12-17 18:42:39,2021-12-17 18:50:46,Clinton Ave & Flushing Ave,4762,Bridge St & York St,4853,40.69794,-73.96986848,40.70133448066992,-73.98471236228943,member
264100,659405DA1143DCDC,electric_bike,2021-12-22 22:41:02,2021-12-22 22:49:10,Clinton Ave & Flushing Ave,4762,Bridge St & York St,4853,40.69794,-73.96986848,40.70133448066992,-73.98471236228943,member
264109,EB82E9114F02C0C8,classic_bike,2021-12-08 11:48:20,2021-12-08 11:54:35,Clinton Ave & Flushing Ave,4762,Bridge St & York St,4853,40.69794,-73.96986848,40.70133448066992,-73.98471236228943,casual
264121,6318BA3E456FFEFF,classic_bike,2021-12-11 14:06:34,2021-12-11 14:16:33,Clinton Ave & Flushing Ave,4762,Bridge St & York St,4853,40.69794,-73.96986848,40.70133448066992,-73.98471236228943,member
264391,2AC1A953B65E20D6,electric_bike,2021-12-12 12:37:04,2021-12-12 13:03:17,Metropolitan Ave & Bedford Ave,5308,Bridge St & York St,4853,40.71534825,-73.96024116,40.70133448066992,-73.98471236228943,casual
264477,C368F6DE99D41F8D,electric_bike,2021-12-04 21:49:24,2021-12-04 22:07:56,Washington Park,4546,Bridge St & York St,4853,40.6917823,-73.9737299,40.70133448066992,-73.98471236228943,member
264728,C490B4A073117163,classic_bike,2021-12-10 14:44:32,2021-12-10 15:27:45,Broadway & Battery Pl,4962,Bridge St & York St,4853,40.70463334,-74.01361706,40.70133448066992,-73.98471236228943,casual
264768,946D4BB7B4604D79,docked_bike,2021-12-29 17:18:57,2021-12-29 17:33:01,Johnson St & Gold St,4668,Bridge St & York St,4853,40.694749,-73.983625,40.701334,-73.984712,casual
264786,E17ED0BB3E1D7798,docked_bike,2021-12-29 17:21:58,2021-12-29 17:33:02,Johnson St & Gold St,4668,Bridge St & York St,4853,40.694749,-73.983625,40.701334,-73.984712,casual
264917,89BF3ACF7BAA9739,electric_bike,2021-12-11 00:31:44,2021-12-11 00:34:28,Front St & Jay St,4895,Bridge St & York St,4853,40.702461,-73.986842,40.70133448066992,-73.98471236228943,casual
264948,9820644262132AD2,classic_bike,2021-12-26 13:23:14,2021-12-26 13:24:38,Sands St & Jay St,4821,Bridge St & York St,4853,40.700119,-73.9862,40.70133448066992,-73.98471236228943,member
264970,383AA3981951DC9B,electric_bike,2021-12-10 15:52:35,2021-12-10 16:10:37,Kent Ave & N 7 St,5489,Bridge St & York St,4853,40.72036775298455,-73.96165072917938,40.70133448066992,-73.98471236228943,member
265334,D577A8FC67B05BCF,classic_bike,2021-12-30 11:58:18,2021-12-30 12:18:53,Stagg St & Union Ave,5117,Bridge St & York St,4853,40.70877084,-73.95095259,40.70133448066992,-73.98471236228943,casual
265397,BFDCEA6138539057,classic_bike,2021-12-17 14:32:06,2021-12-17 14:38:45,Dock 72 Way & Market St,4804,Bridge St & York St,4853,40.69985,-73.97141,40.70133448066992,-73.98471236228943,member
271451,AC84F0496DE98DD1,electric_bike,2021-12-16 14:20:30,2021-12-16 14:22:27,Bridge St & Water St,4968,Bridge St & York St,4853,40.70296934155272,-73.98469090461731,40.70133448066992,-73.98471236228943,member
271886,F0AB2DE207169695,electric_bike,2021-12-08 15:45:38,2021-12-08 16:13:45,Johnson St & Gold St,4668,Bridge St & York St,4853,40.69474881,-73.98362464,40.70133448066992,-73.98471236228943,casual
281318,CF90C192D78236FD,electric_bike,2021-12-09 22:18:11,2021-12-09 22:36:19,Bridge St & York St,4853,Putnam Ave & Throop Ave,4392,40.70133448066992,-73.98471236228943,40.6851532,-73.94111,member
282472,D83E151DCD36EA38,classic_bike,2021-12-04 15:14:12,2021-12-04 15:21:21,Bridge St & York St,4853,Flushing Ave & Vanderbilt Ave,4762,40.70133448066992,-73.98471236228943,40.69795031569544,-73.97077560424805,casual
286378,4EDC86A27C49A5A2,electric_bike,2021-12-14 07:30:47,2021-12-14 07:56:32,Bridge St & York St,4853,Kingston Ave & Herkimer St,4205,40.70133448066992,-73.98471236228943,40.67890679,-73.94142771,member
298460,76E4189A6ECADD5D,classic_bike,2021-12-01 11:03:39,2021-12-01 11:14:34,Bridge St & York St,4853,Clermont Ave & Park Ave,4692,40.70133448066992,-73.98471236228943,40.69573398,-73.97129668,member
304555,FBF66B4571AADD30,electric_bike,2021-12-16 17:25:15,2021-12-16 17:35:18,Bridge St & York St,4853,Allen St & Hester St,5342,40.70133448066992,-73.98471236228943,40.71605866,-73.99190759,member
322727,2C6EA8121CC71FB5,electric_bike,2021-12-18 13:20:24,2021-12-18 13:45:01,Bridge St & York St,4853,Jackson Ave & 46 Rd,6203,40.70133448066992,-73.98471236228943,40.74524768,-73.94733276,member
332002,E3AC187AEA52FE7D,classic_bike,2021-12-03 20:23:40,2021-12-03 20:33:55,Bridge St & York St,4853,Henry St & Atlantic Ave,4531,40.70133448066992,-73.98471236228943,40.69089272,-73.99612349,member
333310,257BEF87A98AC167,classic_bike,2021-12-03 20:00:06,2021-12-03 20:10:54,Bridge St & York St,4853,Henry St & Atlantic Ave,4531,40.70133448066992,-73.98471236228943,40.69089272,-73.99612349,member
340561,A6EECC4B5B3E30EA,electric_bike,2021-12-30 14:12:55,2021-12-30 14:14:24,Bridge St & York St,4853,Sands St & Jay St,4821,40.70133448066992,-73.98471236228943,40.700119,-73.9862,member
341166,FD2BBE0516330AF4,classic_bike,2021-12-30 14:41:22,2021-12-30 14:43:32,Bridge St & York St,4853,Sands St & Jay St,4821,40.70133448066992,-73.98471236228943,40.700119,-73.9862,member
341193,CEC857FE62DC725B,electric_bike,2021-12-14 09:36:01,2021-12-14 09:52:15,Bridge St & York St,4853,Sands St & Jay St,4821,40.70133448066992,-73.98471236228943,40.700119,-73.9862,member
341197,6405FB7701BFFB40,electric_bike,2021-12-27 11:42:49,2021-12-27 11:44:40,Bridge St & York St,4853,Sands St & Jay St,4821,40.70133448066992,-73.98471236228943,40.700119,-73.9862,member
341515,04776F61FC1D2453,electric_bike,2021-12-24 14:21:41,2021-12-24 14:24:16,Bridge St & York St,4853,Sands St & Jay St,4821,40.70133448066992,-73.98471236228943,40.700119,-73.9862,casual
354829,FF26CA4EC814ECDB,electric_bike,2021-12-12 14:45:10,2021-12-12 15:01:38,Bridge St & York St,4853,Leonard St & Church St,5359,40.70133448066992,-73.98471236228943,40.717571,-74.005549,member
354973,B42D792AD42A9C5B,electric_bike,2021-12-16 18:31:29,2021-12-16 18:44:19,Bridge St & York St,4853,Rivington St & Chrystie St,5453,40.70133448066992,-73.98471236228943,40.72110063,-73.9919254,member
356234,D7933A8F12DE1A7D,electric_bike,2021-12-23 19:32:45,2021-12-23 19:46:26,Bridge St & York St,4853,Rivington St & Chrystie St,5453,40.70133448066992,-73.98471236228943,40.72110063,-73.9919254,casual
356259,814E33B1DF243FFA,electric_bike,2021-12-13 10:40:04,2021-12-13 10:50:01,Bridge St & York St,4853,Rivington St & Chrystie St,5453,40.70133448066992,-73.98471236228943,40.72110063,-73.9919254,member
356296,28AEE6963E152A5C,electric_bike,2021-12-27 10:15:48,2021-12-27 10:26:01,Bridge St & York St,4853,Rivington St & Chrystie St,5453,40.70133448066992,-73.98471236228943,40.72110063,-73.9919254,member
365463,A75432FAAAFE6198,classic_bike,2021-12-16 09:54:52,2021-12-16 10:19:45,Bridge St & York St,4853,4 Ave & 3 St,4028,40.70133448066992,-73.98471236228943,40.673746,-73.985649,member
379277,E60EBD4C8ABC449E,electric_bike,2021-12-17 11:24:22,2021-12-17 11:32:52,Bridge St & York St,4853,Division St & Bowery,5270,40.70133448066992,-73.98471236228943,40.714193,-73.996732,member
380036,190B058FD3C6138A,electric_bike,2021-12-03 10:30:19,2021-12-03 10:38:58,Bridge St & York St,4853,Division St & Bowery,5270,40.70133448066992,-73.98471236228943,40.714193,-73.996732,member
391827,B61C9DE9A4209E46,classic_bike,2021-12-17 12:49:49,2021-12-17 13:03:20,Bridge St & York St,4853,E 12 St & 3 Ave,5788,40.70133448066992,-73.98471236228943,40.73223272,-73.98889957,member
391887,B75C3AA3D90A1EEC,classic_bike,2021-12-24 12:41:28,2021-12-24 12:56:25,Bridge St & York St,4853,E 12 St & 3 Ave,5788,40.70133448066992,-73.98471236228943,40.73223272,-73.98889957,member
391901,27724119E060C5CC,classic_bike,2021-12-04 11:49:17,2021-12-04 12:03:08,Bridge St & York St,4853,Cleveland Pl & Spring St,5492,40.70133448066992,-73.98471236228943,40.722103786686034,-73.99724900722504,member
392294,7CD8C869F0242E8D,electric_bike,2021-12-11 12:06:09,2021-12-11 12:15:17,Bridge St & York St,4853,Forsyth St\t& Grand St,5382,40.70133448066992,-73.98471236228943,40.71779817737835,-73.99316132068634,member
393661,B187A0F028C9431D,classic_bike,2021-12-23 13:06:08,2021-12-23 13:22:14,Bridge St & York St,4853,Cleveland Pl & Spring St,5492,40.70133448066992,-73.98471236228943,40.722103786686034,-73.99724900722504,member
395527,BD6F02E3020DEDF0,electric_bike,2021-12-08 18:47:33,2021-12-08 18:56:34,Bridge St & York St,4853,Forsyth St\t& Grand St,5382,40.70133448066992,-73.98471236228943,40.71779817737835,-73.99316132068634,member
404613,2EA440CE008097EB,electric_bike,2021-12-28 15:26:34,2021-12-28 15:36:29,Bridge St & York St,4853,S Portland Ave & Hanson Pl,4354,40.70133448066992,-73.98471236228943,40.68539567,-73.97431458,casual
426732,150498B44FA614BE,electric_bike,2021-12-11 11:43:48,2021-12-11 11:55:24,Bridge St & York St,4853,Kent Ave & S 11 St,5062,40.70133448066992,-73.98471236228943,40.707644944175705,-73.96841526031494,casual
427118,FEB6D97C6AB061D3,electric_bike,2021-12-31 13:38:53,2021-12-31 13:51:02,Bridge St & York St,4853,Kent Ave & S 11 St,5062,40.70133448066992,-73.98471236228943,40.707644944175705,-73.96841526031494,casual
428325,B23941461FAC9B39,electric_bike,2021-12-03 22:39:26,2021-12-03 22:52:52,Bridge St & York St,4853,Kent Ave & S 11 St,5062,40.70133448066992,-73.98471236228943,40.707644944175705,-73.96841526031494,member
428726,3EFD7DF109F8B1D6,electric_bike,2021-12-14 07:27:23,2021-12-14 07:32:33,Bridge St & York St,4853,Clark St & Henry St,4789,40.70133448066992,-73.98471236228943,40.69760127,-73.99344559,casual
450931,7C3E31874F1277F7,electric_bike,2021-12-20 13:25:48,2021-12-20 13:38:53,Bridge St & York St,4853,Carlton Ave & Dean St,4199,40.70133448066992,-73.98471236228943,40.6809741,-73.9710097,casual
451131,540E8DF793A35051,classic_bike,2021-12-30 19:48:21,2021-12-30 19:58:52,Bridge St & York St,4853,Bergen St & 4 Ave,4322,40.70133448066992,-73.98471236228943,40.68256425759694,-73.9798977971077,member
463274,85E6B119C4B2662D,classic_bike,2021-12-16 17:08:49,2021-12-16 17:16:03,Bridge St & York St,4853,Cadman Plaza E & Tillary St,4677,40.70133448066992,-73.98471236228943,40.69597683,-73.99014892,member
464869,47CC5DAA22FF3FDE,classic_bike,2021-12-06 12:03:02,2021-12-06 12:16:29,Bridge St & York St,4853,Centre St & Chambers St,5207,40.70133448066992,-73.98471236228943,40.71273266,-74.0046073,member
464896,B2B3C93BE1B111CE,classic_bike,2021-12-29 14:05:41,2021-12-29 14:11:56,Bridge St & York St,4853,Cadman Plaza E & Tillary St,4677,40.70133448066992,-73.98471236228943,40.69597683,-73.99014892,casual
464908,8719B01FCE7D0C3D,classic_bike,2021-12-04 15:15:46,2021-12-04 15:24:22,Bridge St & York St,4853,Cadman Plaza E & Tillary St,4677,40.70133448066992,-73.98471236228943,40.69597683,-73.99014892,member
466368,861003E81506EE2B,classic_bike,2021-12-06 15:01:04,2021-12-06 15:52:22,Bridge St & York St,4853,Centre St & Chambers St,5207,40.70133448066992,-73.98471236228943,40.71273266,-74.0046073,casual
466521,7A98A4294DF164D7,electric_bike,2021-12-29 12:52:01,2021-12-29 13:12:35,Bridge St & York St,4853,Cadman Plaza E & Tillary St,4677,40.70133448066992,-73.98471236228943,40.69597683,-73.99014892,member
466555,7A646FA0C7F513D4,electric_bike,2021-12-11 13:57:04,2021-12-11 14:09:37,Bridge St & York St,4853,Carroll St & Bond St,4184,40.70133448066992,-73.98471236228943,40.6786115,-73.99037292,member
466556,9C831F5442C0219F,electric_bike,2021-12-05 13:17:17,2021-12-05 13:29:26,Bridge St & York St,4853,Carroll St & Bond St,4184,40.70133448066992,-73.98471236228943,40.6786115,-73.99037292,member
466619,BDAB64E75F754B9B,electric_bike,2021-12-29 14:05:49,2021-12-29 14:12:04,Bridge St & York St,4853,Cadman Plaza E & Tillary St,4677,40.70133448066992,-73.98471236228943,40.69597683,-73.99014892,member
466727,C2594A352F667360,classic_bike,2021-12-04 15:16:14,2021-12-04 15:24:02,Bridge St & York St,4853,Cadman Plaza E & Tillary St,4677,40.70133448066992,-73.98471236228943,40.69597683,-73.99014892,casual
468060,57A38B4C5128A091,classic_bike,2021-12-06 15:12:36,2021-12-06 15:52:48,Bridge St & York St,4853,Centre St & Chambers St,5207,40.70133448066992,-73.98471236228943,40.71273266,-74.0046073,casual
468061,5E55A51911AE7EB2,classic_bike,2021-12-06 15:20:49,2021-12-06 15:52:51,Bridge St & York St,4853,Centre St & Chambers St,5207,40.70133448066992,-73.98471236228943,40.71273266,-74.0046073,casual
473967,F57BC373DC55A78A,electric_bike,2021-12-27 15:16:17,2021-12-27 15:22:53,Bridge St & York St,4853,Boerum Pl\t& Pacific St,4488,40.70133448066992,-73.98471236228943,40.68848905639242,-73.99116039276123,member
474183,3D2F1F2EEE002E9D,electric_bike,2021-12-12 13:52:14,2021-12-12 14:08:42,Bridge St & York St,4853,Mott St & Prince St,5561,40.70133448066992,-73.98471236228943,40.72317958,-73.99480012,casual
491493,04E2474445E042B6,electric_bike,2021-12-30 13:30:39,2021-12-30 13:35:08,Bridge St & York St,4853,Nassau St & Navy St,4812,40.70133448066992,-73.98471236228943,40.69839895,-73.98068914,member
491495,E2333228DEC5B9DA,electric_bike,2021-12-05 13:53:18,2021-12-05 14:33:54,Bridge St & York St,4853,Vernon Blvd & 31 Ave,7003,40.70133448066992,-73.98471236228943,40.7692475,-73.9354504,member
492731,432B62D3598AF937,classic_bike,2021-12-10 22:08:03,2021-12-10 22:11:24,Bridge St & York St,4853,Nassau St & Navy St,4812,40.70133448066992,-73.98471236228943,40.69839895,-73.98068914,member
493764,2C2F14A5EA2AAF6E,classic_bike,2021-12-17 00:09:28,2021-12-17 00:24:16,Bridge St & York St,4853,Nassau St & Navy St,4812,40.70133448066992,-73.98471236228943,40.69839895,-73.98068914,member
502204,6DE710262F7F0EDE,electric_bike,2021-12-13 15:19:20,2021-12-13 15:31:55,Bridge St & York St,4853,Henry St & Grand St,5294,40.70133448066992,-73.98471236228943,40.714211,-73.981095,member
502299,D837A82CF051F117,classic_bike,2021-12-03 12:57:25,2021-12-03 13:30:03,Bridge St & York St,4853,India St Pier,5794,40.70133448066992,-73.98471236228943,40.731734785883454,-73.9612390102593,member
511397,C4EF650C1E5CE0B8,electric_bike,2021-12-08 18:26:15,2021-12-08 18:46:56,Bridge St & York St,4853,DeKalb Ave & Hudson Ave,4513,40.70133448066992,-73.98471236228943,40.689888,-73.981013,member
512211,7A37F9F02EB60952,classic_bike,2021-12-03 18:41:44,2021-12-03 18:52:06,Bridge St & York St,4853,DeKalb Ave & Hudson Ave,4513,40.70133448066992,-73.98471236228943,40.689888,-73.981013,member
513044,4CE0DFFFBA864799,electric_bike,2021-12-02 20:33:44,2021-12-02 20:39:33,Bridge St & York St,4853,DeKalb Ave & Hudson Ave,4513,40.70133448066992,-73.98471236228943,40.689888,-73.981013,casual
520315,B7F4EFCE74D2A4AD,electric_bike,2021-12-22 16:24:06,2021-12-22 16:47:25,Bridge St & York St,4853,E 27 St & Park Ave S,6131,40.70133448066992,-73.98471236228943,40.74275179648995,-73.9847157150507,member
520328,FBB238E5D0E0636E,electric_bike,2021-12-03 16:36:40,2021-12-03 17:12:23,Bridge St & York St,4853,Stanhope St & Fairview Ave,5146,40.70133448066992,-73.98471236228943,40.70998,-73.91116,casual
520397,5C28BD38CC935153,classic_bike,2021-12-14 09:14:23,2021-12-14 09:31:04,Bridge St & York St,4853,Forsyth St & Canal St,5270,40.70133448066992,-73.98471236228943,40.7158155,-73.99422366,member
520403,C69714474A747FE5,classic_bike,2021-12-27 09:49:58,2021-12-27 10:04:51,Bridge St & York St,4853,Forsyth St & Canal St,5270,40.70133448066992,-73.98471236228943,40.7158155,-73.99422366,member
520404,C33517E64311BF33,classic_bike,2021-12-11 09:49:46,2021-12-11 10:03:31,Bridge St & York St,4853,Forsyth St & Canal St,5270,40.70133448066992,-73.98471236228943,40.7158155,-73.99422366,member
520405,DAF87EB6E21AE478,classic_bike,2021-12-28 09:50:07,2021-12-28 10:02:55,Bridge St & York St,4853,Forsyth St & Canal St,5270,40.70133448066992,-73.98471236228943,40.7158155,-73.99422366,member
520406,D6A9B55636C3AD58,classic_bike,2021-12-16 09:46:35,2021-12-16 10:00:46,Bridge St & York St,4853,Forsyth St & Canal St,5270,40.70133448066992,-73.98471236228943,40.7158155,-73.99422366,member
520407,5136E2D064238402,classic_bike,2021-12-31 10:42:14,2021-12-31 10:58:25,Bridge St & York St,4853,Forsyth St & Canal St,5270,40.70133448066992,-73.98471236228943,40.7158155,-73.99422366,member
520408,DAF90D85DB22ED58,classic_bike,2021-12-24 10:37:09,2021-12-24 10:53:17,Bridge St & York St,4853,Forsyth St & Canal St,5270,40.70133448066992,-73.98471236228943,40.7158155,-73.99422366,member
520409,8EE3527999F92CE1,classic_bike,2021-12-23 09:48:17,2021-12-23 10:04:44,Bridge St & York St,4853,Forsyth St & Canal St,5270,40.70133448066992,-73.98471236228943,40.7158155,-73.99422366,member
520410,AE873EF3FF1E370A,classic_bike,2021-12-29 09:50:18,2021-12-29 10:06:14,Bridge St & York St,4853,Forsyth St & Canal St,5270,40.70133448066992,-73.98471236228943,40.7158155,-73.99422366,member
520411,5E08EBE648BEEC85,classic_bike,2021-12-17 10:37:04,2021-12-17 10:52:38,Bridge St & York St,4853,Forsyth St & Canal St,5270,40.70133448066992,-73.98471236228943,40.7158155,-73.99422366,member
521364,2C7C50692D3E1A24,classic_bike,2021-12-22 09:43:13,2021-12-22 09:59:17,Bridge St & York St,4853,Forsyth St & Canal St,5270,40.70133448066992,-73.98471236228943,40.7158155,-73.99422366,member
521365,C04A34584DC47B54,classic_bike,2021-12-20 09:49:57,2021-12-20 10:04:54,Bridge St & York St,4853,Forsyth St & Canal St,5270,40.70133448066992,-73.98471236228943,40.7158155,-73.99422366,member
521366,7A3AEDB479D96D09,classic_bike,2021-12-15 09:45:23,2021-12-15 10:01:52,Bridge St & York St,4853,Forsyth St & Canal St,5270,40.70133448066992,-73.98471236228943,40.7158155,-73.99422366,member
521370,B847DE2634439937,electric_bike,2021-12-28 07:41:02,2021-12-28 07:50:17,Bridge St & York St,4853,Forsyth St & Canal St,5270,40.70133448066992,-73.98471236228943,40.7158155,-73.99422366,member
521372,DB135F8B175D9CA7,classic_bike,2021-12-02 09:45:25,2021-12-02 10:02:06,Bridge St & York St,4853,Forsyth St & Canal St,5270,40.70133448066992,-73.98471236228943,40.7158155,-73.99422366,member
521434,DF95AFFCC5CA3484,electric_bike,2021-12-10 13:56:13,2021-12-10 14:04:50,Bridge St & York St,4853,Forsyth St & Canal St,5270,40.70133448066992,-73.98471236228943,40.7158155,-73.99422366,member
522107,9C323A191E732753,classic_bike,2021-12-12 14:44:10,2021-12-12 14:56:04,Bridge St & York St,4853,Forsyth St & Canal St,5270,40.70133448066992,-73.98471236228943,40.7158155,-73.99422366,casual
522141,A61EFEEF3E59BEC7,classic_bike,2021-12-21 09:49:42,2021-12-21 10:07:43,Bridge St & York St,4853,Forsyth St & Canal St,5270,40.70133448066992,-73.98471236228943,40.7158155,-73.99422366,member
522142,0D1C763C581756E1,classic_bike,2021-12-30 09:52:58,2021-12-30 10:08:10,Bridge St & York St,4853,Forsyth St & Canal St,5270,40.70133448066992,-73.98471236228943,40.7158155,-73.99422366,member
522487,3A422189181DBA64,electric_bike,2021-12-12 08:23:45,2021-12-12 08:32:11,Bridge St & York St,4853,Forsyth St & Canal St,5270,40.70133448066992,-73.98471236228943,40.7158155,-73.99422366,member
522488,F23478D3123DEE52,electric_bike,2021-12-11 08:23:42,2021-12-11 08:31:30,Bridge St & York St,4853,Forsyth St & Canal St,5270,40.70133448066992,-73.98471236228943,40.7158155,-73.99422366,member
522511,98EDA9BEC712913E,electric_bike,2021-12-10 17:14:38,2021-12-10 17:23:16,Bridge St & York St,4853,Forsyth St & Canal St,5270,40.70133448066992,-73.98471236228943,40.7158155,-73.99422366,member
523661,AC166144CBC77960,classic_bike,2021-12-04 10:44:33,2021-12-04 11:00:08,Bridge St & York St,4853,Forsyth St & Canal St,5270,40.70133448066992,-73.98471236228943,40.7158155,-73.99422366,member
524283,EA19E2B3649E06E2,classic_bike,2021-12-24 13:27:51,2021-12-24 13:44:04,Bridge St & York St,4853,Forsyth St & Canal St,5270,40.70133448066992,-73.98471236228943,40.7158155,-73.99422366,casual
532941,F5110A52D5707F1B,classic_bike,2021-12-04 12:10:35,2021-12-04 12:31:53,Bridge St & York St,4853,Van Brunt St & Wolcott St,4095,40.70133448066992,-73.98471236228943,40.6773429,-74.01275056,member
533697,A4B6FBE3A836F030,classic_bike,2021-12-17 11:41:47,2021-12-17 12:06:51,Bridge St & York St,4853,Broadway & Whipple St,4883,40.70133448066992,-73.98471236228943,40.7016657,-73.9437303,member
534026,CCB184C17CF75DD7,electric_bike,2021-12-13 10:23:41,2021-12-13 10:35:37,Bridge St & York St,4853,Monroe St & Classon Ave,4336,40.70133448066992,-73.98471236228943,40.6845683,-73.95881081,member
552355,5BC4BD332AB83AEB,electric_bike,2021-12-16 22:28:26,2021-12-16 22:55:12,Bridge St & York St,4853,Metropolitan Ave & Bedford Ave,5308,40.70133448066992,-73.98471236228943,40.71534825,-73.96024116,casual
552358,08A0950BFF474699,electric_bike,2021-12-16 22:30:22,2021-12-16 22:55:18,Bridge St & York St,4853,Metropolitan Ave & Bedford Ave,5308,40.70133448066992,-73.98471236228943,40.71534825,-73.96024116,casual
555769,5E69EFBA1FFF328A,electric_bike,2021-12-01 12:49:37,2021-12-01 13:04:24,Bridge St & York St,4853,Dean St & Franklin Ave,4107,40.70133448066992,-73.98471236228943,40.67759206937376,-73.955637216568,casual
574143,40FE35EAC12014CF,electric_bike,2021-12-05 18:32:30,2021-12-05 18:45:44,Bridge St & York St,4853,S 3 St & Bedford Ave,5235,40.70133448066992,-73.98471236228943,40.71260486,-73.96264403,member
574200,523C54A84E27493B,classic_bike,2021-12-21 19:38:43,2021-12-21 19:49:09,Bridge St & York St,4853,Adams St & Prospect St,4821,40.70133448066992,-73.98471236228943,40.70076308326151,-73.98869812488556,member
574201,8980735CAC8B779B,electric_bike,2021-12-08 10:21:32,2021-12-08 10:34:34,Bridge St & York St,4853,Adams St & Prospect St,4821,40.70133448066992,-73.98471236228943,40.70076308326151,-73.98869812488556,member
574770,93940C33484C6CAC,classic_bike,2021-12-08 16:31:55,2021-12-08 16:48:41,Bridge St & York St,4853,S 3 St & Bedford Ave,5235,40.70133448066992,-73.98471236228943,40.71260486,-73.96264403,member
574778,879E4D36FA4B4703,classic_bike,2021-12-03 19:41:33,2021-12-03 19:43:53,Bridge St & York St,4853,Adams St & Prospect St,4821,40.70133448066992,-73.98471236228943,40.70076308326151,-73.98869812488556,member
575038,03663991C13BCD6F,classic_bike,2021-12-15 12:27:48,2021-12-15 12:30:47,Bridge St & York St,4853,Adams St & Prospect St,4821,40.70133448066992,-73.98471236228943,40.70076308326151,-73.98869812488556,member
577132,5F7D785D73F083BD,electric_bike,2021-12-13 17:48:34,2021-12-13 18:01:01,Bridge St & York St,4853,Stanton St & Norfolk St,5445,40.70133448066992,-73.98471236228943,40.720747,-73.986274,member
577156,DAEF6C5D9135ED44,classic_bike,2021-12-26 12:19:12,2021-12-26 12:27:28,Bridge St & York St,4853,Adams St & Prospect St,4821,40.70133448066992,-73.98471236228943,40.70076308326151,-73.98869812488556,member
589199,C31C0AE8F71742B5,electric_bike,2021-12-01 11:27:20,2021-12-01 12:00:18,Bridge St & York St,4853,Washington Ave & Park Ave,4724,40.70133448066992,-73.98471236228943,40.69610226,-73.96751037,member
589421,A2DD821591BA128A,classic_bike,2021-12-12 16:14:49,2021-12-12 16:23:24,Bridge St & York St,4853,Washington Ave & Park Ave,4724,40.70133448066992,-73.98471236228943,40.69610226,-73.96751037,member
590175,09E8AA36BEB13DBD,classic_bike,2021-12-08 21:10:19,2021-12-08 21:16:33,Bridge St & York St,4853,Washington Ave & Park Ave,4724,40.70133448066992,-73.98471236228943,40.69610226,-73.96751037,casual
590176,7DE758754DB84278,classic_bike,2021-12-07 10:11:18,2021-12-07 10:19:37,Bridge St & York St,4853,Carlton Ave & Park Ave,4732,40.70133448066992,-73.98471236228943,40.69580705,-73.97355569,member
591209,D6198EB96EC3151B,electric_bike,2021-12-15 18:05:19,2021-12-15 18:12:25,Bridge St & York St,4853,Washington Ave & Park Ave,4724,40.70133448066992,-73.98471236228943,40.69610226,-73.96751037,member
591210,534770F203287118,electric_bike,2021-12-14 21:25:06,2021-12-14 21:31:03,Bridge St & York St,4853,Washington Ave & Park Ave,4724,40.70133448066992,-73.98471236228943,40.69610226,-73.96751037,member
591513,A944FB79E5B3A7BE,classic_bike,2021-12-17 18:51:59,2021-12-18 09:41:27,Bridge St & York St,4853,Washington Ave & Park Ave,4724,40.70133448066992,-73.98471236228943,40.69610226,-73.96751037,casual
595552,A0DF9D758DC01A4A,electric_bike,2021-12-15 18:08:58,2021-12-15 18:40:43,Bridge St & York St,4853,Nassau Ave & Newell St,5623,40.70133448066992,-73.98471236228943,40.724812564400175,-73.94752621650696,casual
628309,2FE9882EE737DC27,electric_bike,2021-12-10 17:53:42,2021-12-10 18:11:25,Bridge St & York St,4853,Broadway & E 14 St,5905,40.70133448066992,-73.98471236228943,40.73454567,-73.99074142,member
630316,38CBB3781B6D2554,electric_bike,2021-12-21 18:14:26,2021-12-21 18:21:14,Bridge St & York St,4853,Myrtle Ave & St Edwards St,4659,40.70133448066992,-73.98471236228943,40.69327018,-73.97703874,casual
630320,139B80A32839551B,electric_bike,2021-12-13 10:21:57,2021-12-13 10:41:30,Bridge St & York St,4853,Lispenard St & Broadway,5391,40.70133448066992,-73.98471236228943,40.71939226,-74.00247214,casual
650223,D684B5CB48AF719D,electric_bike,2021-12-17 15:36:54,2021-12-17 15:54:47,Bridge St & York St,4853,Dwight St & Van Dyke St,3981,40.70133448066992,-73.98471236228943,40.67363551341504,-74.01195555925369,member
652258,5C3E7B13AEADD285,classic_bike,2021-12-23 23:29:23,2021-12-24 00:03:43,Bridge St & York St,4853,Broadway & Kosciuszko St,4608,40.70133448066992,-73.98471236228943,40.69329,-73.92852,casual
652698,07BB5E0F17DB0847,electric_bike,2021-12-12 16:37:24,2021-12-12 17:04:49,Bridge St & York St,4853,Lewis Ave & Decatur St,4237,40.70133448066992,-73.98471236228943,40.6814598,-73.934903,casual
653562,95417B62091D2A1A,electric_bike,2021-12-25 22:21:59,2021-12-25 22:31:58,Bridge St & York St,4853,St James Pl & Oliver St,5238,40.70133448066992,-73.98471236228943,40.71307916,-73.99851193,casual
654620,15D6384E5E144509,electric_bike,2021-12-08 08:39:53,2021-12-08 08:48:39,Bridge St & York St,4853,Carlton Ave & Flushing Ave,4732,40.70133448066992,-73.98471236228943,40.697787,-73.973736,casual
666374,9302C588FB28C045,electric_bike,2021-12-10 00:20:59,2021-12-10 00:33:37,Bridge St & York St,4853,Franklin Ave & Myrtle Ave,4715,40.70133448066992,-73.98471236228943,40.694546087246025,-73.95801365375519,member
686508,E5FA8940A98179BA,electric_bike,2021-12-05 17:40:03,2021-12-05 17:59:00,Bridge St & York St,4853,E 5 St & Cooper Sq,5712,40.70133448066992,-73.98471236228943,40.72769,-73.990993,member
688447,885B57F0F468D643,electric_bike,2021-12-02 16:33:37,2021-12-02 16:50:26,Bridge St & York St,4853,Lefferts Pl & Franklin Ave,4222,40.70133448066992,-73.98471236228943,40.680342423,-73.9557689392,member
721356,88CFEA0CCC19E40F,electric_bike,2021-12-02 16:39:55,2021-12-02 16:54:29,Bridge St & York St,4853,E 4 St & 2 Ave,5593,40.70133448066992,-73.98471236228943,40.7262807,-73.98978041,casual
722398,1C0C7096E256ACBC,electric_bike,2021-12-14 14:00:09,2021-12-14 14:16:33,Bridge St & York St,4853,Little West St & 1 Pl,5001,40.70133448066992,-73.98471236228943,40.70569254,-74.01677685,member
731462,D85DC6EB1FAE5D70,classic_bike,2021-12-13 12:49:03,2021-12-13 12:59:16,Bridge St & York St,4853,Ashland Pl & Dekalb Ave,4513,40.70133448066992,-73.98471236228943,40.690065,-73.978776,member
731837,31AC134CE21F55D8,classic_bike,2021-12-14 11:05:16,2021-12-14 11:14:40,Bridge St & York St,4853,Ashland Pl & Dekalb Ave,4513,40.70133448066992,-73.98471236228943,40.690065,-73.978776,member
731989,7BC0C58D9F9B573D,classic_bike,2021-12-10 10:49:54,2021-12-10 10:59:02,Bridge St & York St,4853,Ashland Pl & Dekalb Ave,4513,40.70133448066992,-73.98471236228943,40.690065,-73.978776,member
745734,F08F0B06031C5D3C,classic_bike,2021-12-22 19:09:54,2021-12-22 19:21:48,Bridge St & York St,4853,3 Ave & Schermerhorn St,4437,40.70133448066992,-73.98471236228943,40.68683208,-73.9796772,member
745864,CD8CC6EBF068DE50,classic_bike,2021-12-28 19:51:37,2021-12-28 20:01:48,Bridge St & York St,4853,3 Ave & Schermerhorn St,4437,40.70133448066992,-73.98471236228943,40.68683208,-73.9796772,member
745865,2B9207DA247753C4,classic_bike,2021-12-29 18:51:38,2021-12-29 19:01:54,Bridge St & York St,4853,3 Ave & Schermerhorn St,4437,40.70133448066992,-73.98471236228943,40.68683208,-73.9796772,member
745927,19B4C1F19227778C,classic_bike,2021-12-07 21:58:03,2021-12-07 22:08:16,Bridge St & York St,4853,3 Ave & Schermerhorn St,4437,40.70133448066992,-73.98471236228943,40.68683208,-73.9796772,member
745933,F2B0A2E67A12F2DB,classic_bike,2021-12-13 20:38:31,2021-12-13 20:46:21,Bridge St & York St,4853,3 Ave & Schermerhorn St,4437,40.70133448066992,-73.98471236228943,40.68683208,-73.9796772,member
745942,2FAA51EE662C8F63,classic_bike,2021-12-02 19:06:41,2021-12-02 19:15:52,Bridge St & York St,4853,3 Ave & Schermerhorn St,4437,40.70133448066992,-73.98471236228943,40.68683208,-73.9796772,member
745943,DF1B8DA5AF681968,classic_bike,2021-12-09 19:28:48,2021-12-09 19:39:50,Bridge St & York St,4853,3 Ave & Schermerhorn St,4437,40.70133448066992,-73.98471236228943,40.68683208,-73.9796772,member
746019,3971B45EE007A375,classic_bike,2021-12-08 20:01:00,2021-12-08 20:11:53,Bridge St & York St,4853,3 Ave & Schermerhorn St,4437,40.70133448066992,-73.98471236228943,40.68683208,-73.9796772,member
746495,936D41E4AE76CF27,classic_bike,2021-12-01 18:47:35,2021-12-01 18:55:50,Bridge St & York St,4853,3 Ave & Schermerhorn St,4437,40.70133448066992,-73.98471236228943,40.68683208,-73.9796772,member
746496,3507527820AF938E,classic_bike,2021-12-21 17:49:57,2021-12-21 18:01:47,Bridge St & York St,4853,3 Ave & Schermerhorn St,4437,40.70133448066992,-73.98471236228943,40.68683208,-73.9796772,member
773025,077EA7D8AFDC7EDB,electric_bike,2021-12-09 14:16:47,2021-12-09 14:29:49,Bridge St & York St,4853,Douglass St & 3 Ave,4217,40.70133448066992,-73.98471236228943,40.6802133,-73.98432695,member
774504,A9446EE4E2618D9F,electric_bike,2021-12-09 17:43:53,2021-12-09 17:53:23,Bridge St & York St,4853,Hanson Pl & Ashland Pl,4395,40.70133448066992,-73.98471236228943,40.68506807308177,-73.97790759801863,casual
775066,466E1E31ED23A879,electric_bike,2021-12-10 11:59:07,2021-12-10 12:10:04,Bridge St & York St,4853,Hanson Pl & Ashland Pl,4395,40.70133448066992,-73.98471236228943,40.68506807308177,-73.97790759801863,casual
775069,609A76D04E2DCCC5,electric_bike,2021-12-17 15:24:42,2021-12-17 15:39:32,Bridge St & York St,4853,Bergen St & Vanderbilt Ave,4157,40.70133448066992,-73.98471236228943,40.6794388,-73.9680438,casual
775634,3BB7A9CFA79001CA,classic_bike,2021-12-05 06:12:06,2021-12-05 06:20:10,Bridge St & York St,4853,Hanson Pl & Ashland Pl,4395,40.70133448066992,-73.98471236228943,40.68506807308177,-73.97790759801863,casual
777141,DCAC4B3D419FBEFD,electric_bike,2021-12-08 17:19:09,2021-12-08 17:27:48,Bridge St & York St,4853,Hanson Pl & Ashland Pl,4395,40.70133448066992,-73.98471236228943,40.68506807308177,-73.97790759801863,casual
779082,47CB1C87F5660E31,electric_bike,2021-12-19 09:25:57,2021-12-19 09:27:58,Bridge St & Water St,4968,Bridge St & York St,4853,40.70296934155272,-73.98469090461731,40.70133448066992,-73.98471236228943,member
779093,B095A8D13EE44854,classic_bike,2021-12-04 12:09:26,2021-12-04 12:10:15,Bridge St & Water St,4968,Bridge St & York St,4853,40.70296934155272,-73.98469090461731,40.70133448066992,-73.98471236228943,member
779149,B8F4F0E501ED82A9,classic_bike,2021-12-09 16:42:13,2021-12-09 16:56:02,Bridge St & Water St,4968,Bridge St & York St,4853,40.70296934155272,-73.98469090461731,40.70133448066992,-73.98471236228943,member
779154,143C9D5ECBD28D31,classic_bike,2021-12-16 14:14:52,2021-12-16 14:16:25,Bridge St & Water St,4968,Bridge St & York St,4853,40.70296934155272,-73.98469090461731,40.70133448066992,-73.98471236228943,member
779158,7FF2B1277ECC2E25,electric_bike,2021-12-11 16:24:11,2021-12-11 16:25:01,Bridge St & Water St,4968,Bridge St & York St,4853,40.70296934155272,-73.98469090461731,40.70133448066992,-73.98471236228943,member
779193,1D292DF331F016F1,classic_bike,2021-12-30 14:11:18,2021-12-30 14:12:27,Bridge St & Water St,4968,Bridge St & York St,4853,40.70296934155272,-73.98469090461731,40.70133448066992,-73.98471236228943,member
779216,AC06D724CAB01D63,classic_bike,2021-12-24 12:39:55,2021-12-24 12:40:59,Bridge St & Water St,4968,Bridge St & York St,4853,40.70296934155272,-73.98469090461731,40.70133448066992,-73.98471236228943,member
779227,BB89D76D893AC64D,electric_bike,2021-12-09 16:17:21,2021-12-09 16:25:26,Cadman Plaza E & Red Cross Pl,4821,Bridge St & York St,4853,40.69991755,-73.98971773,40.70133448066992,-73.98471236228943,member
779236,18C607F9A3E344EB,classic_bike,2021-12-02 17:25:25,2021-12-02 17:50:30,3 St & 3 Ave,4028,Bridge St & York St,4853,40.6750705,-73.98775226,40.70133448066992,-73.98471236228943,member
779376,E3A2FCB06496019C,classic_bike,2021-12-28 17:34:35,2021-12-28 17:40:24,Concord St & Bridge St,4781,Bridge St & York St,4853,40.69766564,-73.98476437,40.70133448066992,-73.98471236228943,member
779383,A656F3BF56CEF607,electric_bike,2021-12-14 17:43:06,2021-12-14 17:47:57,Concord St & Bridge St,4781,Bridge St & York St,4853,40.69766564,-73.98476437,40.70133448066992,-73.98471236228943,casual
779419,06A59F58ABB4796B,electric_bike,2021-12-11 09:59:11,2021-12-11 10:14:44,Wythe Ave & Metropolitan Ave,5348,Bridge St & York St,4853,40.716887,-73.963198,40.70133448066992,-73.98471236228943,casual
779453,B629F2EF6645FA39,classic_bike,2021-12-16 11:40:58,2021-12-16 12:03:49,Wythe Ave & Metropolitan Ave,5348,Bridge St & York St,4853,40.716887,-73.963198,40.70133448066992,-73.98471236228943,member
779465,20E95BF87526E41C,classic_bike,2021-12-11 16:10:30,2021-12-11 16:30:10,Wythe Ave & Metropolitan Ave,5348,Bridge St & York St,4853,40.716887,-73.963198,40.70133448066992,-73.98471236228943,casual
779707,C44A4FFD73A5E82E,electric_bike,2021-12-16 17:35:34,2021-12-16 17:57:02,3 St & 3 Ave,4028,Bridge St & York St,4853,40.6750705,-73.98775226,40.70133448066992,-73.98471236228943,member
779880,C01CFA6D8C1A507B,classic_bike,2021-12-08 10:42:36,2021-12-08 10:51:34,Hanson Pl & Ashland Pl,4395,Bridge St & York St,4853,40.68506807308177,-73.97790759801863,40.70133448066992,-73.98471236228943,member
779895,CEF44FAFB4788B03,classic_bike,2021-12-05 13:26:55,2021-12-05 13:44:07,Douglass St & 3 Ave,4217,Bridge St & York St,4853,40.6802133,-73.98432695,40.70133448066992,-73.98471236228943,member
779962,C147BB2BB1743882,electric_bike,2021-12-11 13:23:59,2021-12-11 13:25:41,Bridge St & Water St,4968,Bridge St & York St,4853,40.70296934155272,-73.98469090461731,40.70133448066992,-73.98471236228943,member
780049,B0F8B9535639C0F0,classic_bike,2021-12-03 23:41:44,2021-12-03 23:46:20,Front St & Washington St,4936,Bridge St & York St,4853,40.70255088,-73.98940236,40.70133448066992,-73.98471236228943,member
780650,F52263578A63AD3D,electric_bike,2021-12-17 14:49:53,2021-12-17 15:16:18,Plaza St East & Flatbush Ave,4010,Bridge St & York St,4853,40.673134,-73.969106,40.70133448066992,-73.98471236228943,casual
780718,32CC6016272AFDA5,electric_bike,2021-12-03 14:50:50,2021-12-03 15:20:15,Stanhope St & Fairview Ave,5146,Bridge St & York St,4853,40.70998,-73.91116,40.70133448066992,-73.98471236228943,casual
780873,A10F9A456C4335B5,electric_bike,2021-12-10 09:42:38,2021-12-10 09:55:16,Lexington Ave & Classon Ave,4452,Bridge St & York St,4853,40.68676793,-73.95928168,40.70133448066992,-73.98471236228943,member
780974,51F9F81623F16205,classic_bike,2021-12-16 08:14:48,2021-12-16 08:41:49,Kent Ave & N 7 St,5489,Bridge St & York St,4853,40.72036775298455,-73.96165072917938,40.70133448066992,-73.98471236228943,member
780991,E2A913B3136E17E1,electric_bike,2021-12-31 12:01:12,2021-12-31 12:20:33,Greene Ave & Nostrand Ave,4519,Bridge St & York St,4853,40.6883337,-73.950916,40.70133448066992,-73.98471236228943,member
781023,8F96EE9F761B76F1,electric_bike,2021-12-02 09:11:10,2021-12-02 09:29:53,Banker St & Meserole Ave,5633,Bridge St & York St,4853,40.72606,-73.95621,40.70133448066992,-73.98471236228943,casual
781026,16E1CB65A8E36560,electric_bike,2021-12-13 14:13:46,2021-12-13 14:29:14,Lexington Ave & Classon Ave,4452,Bridge St & York St,4853,40.68676793,-73.95928168,40.70133448066992,-73.98471236228943,casual
781046,B6018B3FFA05ADB6,electric_bike,2021-12-10 15:52:14,2021-12-10 16:10:57,Kent Ave & N 7 St,5489,Bridge St & York St,4853,40.72036775298455,-73.96165072917938,40.70133448066992,-73.98471236228943,member
781230,3A38EBDF7341F373,classic_bike,2021-12-11 12:36:40,2021-12-11 12:48:24,Hanson Pl & Ashland Pl,4395,Bridge St & York St,4853,40.68506807308177,-73.97790759801863,40.70133448066992,-73.98471236228943,member
781300,74B0DB49A63F6576,classic_bike,2021-12-14 10:17:57,2021-12-14 10:35:34,Forsyth St & Canal St,5270,Bridge St & York St,4853,40.7158155,-73.99422366,40.70133448066992,-73.98471236228943,member
781329,1718B27BCB5514C4,electric_bike,2021-12-27 19:18:42,2021-12-27 19:29:03,Forsyth St & Canal St,5270,Bridge St & York St,4853,40.7158155,-73.99422366,40.70133448066992,-73.98471236228943,member
781423,5BEF651524D49EFC,classic_bike,2021-12-12 15:19:48,2021-12-12 15:48:46,Wythe Ave & Metropolitan Ave,5348,Bridge St & York St,4853,40.716887,-73.963198,40.70133448066992,-73.98471236228943,casual
781469,B9D98740B9938C68,classic_bike,2021-12-24 18:27:49,2021-12-24 18:30:34,Cadman Plaza E & Red Cross Pl,4821,Bridge St & York St,4853,40.69991755,-73.98971773,40.70133448066992,-73.98471236228943,member
781489,13256011A13D762D,electric_bike,2021-12-08 12:09:33,2021-12-08 12:25:02,Franklin Ave & St Marks Ave,4107,Bridge St & York St,4853,40.6758324,-73.9561677,40.70133448066992,-73.98471236228943,member
781732,C9377596FCD90DE7,classic_bike,2021-12-22 10:59:45,2021-12-22 11:13:02,Clermont Ave & Lafayette Ave,4461,Bridge St & York St,4853,40.68764484,-73.96968902,40.70133448066992,-73.98471236228943,member
781821,E483B3325EB84A77,electric_bike,2021-12-09 14:13:34,2021-12-09 14:16:01,Front St & Washington St,4936,Bridge St & York St,4853,40.70255088,-73.98940236,40.70133448066992,-73.98471236228943,member
782019,85A194D352FBE666,electric_bike,2021-12-22 02:27:47,2021-12-22 02:30:37,Water St & Main St,4936,Bridge St & York St,4853,40.703212,-73.990409,40.70133448066992,-73.98471236228943,member
782062,6FEE92ADDA4989A1,classic_bike,2021-12-12 15:59:59,2021-12-12 16:07:22,Schermerhorn St & Bond St,4479,Bridge St & York St,4853,40.688417427540834,-73.98451656103134,40.70133448066992,-73.98471236228943,member
782085,CAC68ADD65201104,electric_bike,2021-12-22 16:28:29,2021-12-22 17:13:26,Willoughby St & Ashland Pl,4587,Bridge St & York St,4853,40.69178,-73.97877,40.70133448066992,-73.98471236228943,member
782112,505BAAC6BF943984,electric_bike,2021-12-05 13:45:48,2021-12-05 13:52:28,Jay St & Tech Pl,4710,Bridge St & York St,4853,40.695065,-73.987167,40.70133448066992,-73.98471236228943,member
782203,1C578D621E4C7803,classic_bike,2021-12-14 20:06:49,2021-12-14 20:21:31,Douglass St & 3 Ave,4217,Bridge St & York St,4853,40.6802133,-73.98432695,40.70133448066992,-73.98471236228943,member
782521,F422508A04349503,electric_bike,2021-12-09 13:00:26,2021-12-09 13:13:17,Douglass St & 4 Ave,4175,Bridge St & York St,4853,40.6792788,-73.98154004,40.70133448066992,-73.98471236228943,member
782524,F7E2C0C2FEA1439E,classic_bike,2021-12-12 15:30:29,2021-12-12 15:58:25,Wyckoff Av & Stanhope St,4931,Bridge St & York St,4853,40.703545,-73.917775,40.70133448066992,-73.98471236228943,member
782626,B38AB7F1EAD298E6,electric_bike,2021-12-26 18:56:36,2021-12-26 19:08:01,Delancey St & Eldridge St,5414,Bridge St & York St,4853,40.719383,-73.991479,40.70133448066992,-73.98471236228943,member
782638,51C4217D8D92BC0A,electric_bike,2021-12-08 08:52:47,2021-12-08 09:12:11,Macon St & Nostrand Ave,4214,Bridge St & York St,4853,40.6809833854,-73.9500479759,40.70133448066992,-73.98471236228943,member
782639,2009576FD1865F97,electric_bike,2021-12-17 11:05:32,2021-12-17 11:25:01,Macon St & Nostrand Ave,4214,Bridge St & York St,4853,40.6809833854,-73.9500479759,40.70133448066992,-73.98471236228943,member
782655,5D793494E3B132EF,electric_bike,2021-12-24 12:21:18,2021-12-24 13:26:17,West St & Chambers St,5329,Bridge St & York St,4853,40.71754834,-74.01322069,40.70133448066992,-73.98471236228943,casual
782883,D6773881032AF0D0,classic_bike,2021-12-28 11:46:38,2021-12-28 12:05:24,Kosciuszko St & Nostrand Ave,4519,Bridge St & York St,4853,40.69072549,-73.95133465,40.70133448066992,-73.98471236228943,member
782950,C0B70C3F591B4FEF,classic_bike,2021-12-05 11:34:52,2021-12-05 11:45:49,Hicks St & Montague St,4645,Bridge St & York St,4853,40.69512845,-73.99595065,40.70133448066992,-73.98471236228943,member
783067,C11245DD5E6995FB,classic_bike,2021-12-17 18:18:43,2021-12-17 18:20:33,Jay St & York St,4895,Bridge St & York St,4853,40.70140317257725,-73.98672670125961,40.70133448066992,-73.98471236228943,member
783146,AA3CD1E3C4C79A43,electric_bike,2021-12-18 13:40:34,2021-12-18 13:42:11,Bridge St & York St,4853,Bridge St & York St,4853,40.70133448066992,-73.98471236228943,40.70133448066992,-73.98471236228943,casual
783167,63851A8656BCE680,electric_bike,2021-12-13 11:11:13,2021-12-13 11:26:54,Bridge St & York St,4853,Lafayette St & E 8 St,5788,40.70133448066992,-73.98471236228943,40.73020660529954,-73.99102628231049,member
783170,9D948FC8FEF95FDC,electric_bike,2021-12-10 17:52:42,2021-12-10 17:52:54,Bridge St & York St,4853,Bridge St & York St,4853,40.70133448066992,-73.98471236228943,40.70133448066992,-73.98471236228943,member
783182,0B759B33A915B6E0,electric_bike,2021-12-10 13:52:52,2021-12-10 13:55:05,Bridge St & York St,4853,Bridge St & York St,4853,40.70133448066992,-73.98471236228943,40.70133448066992,-73.98471236228943,member
783335,5DA293613A102083,classic_bike,2021-12-17 14:50:58,2021-12-17 15:16:16,Plaza St East & Flatbush Ave,4010,Bridge St & York St,4853,40.673134,-73.969106,40.70133448066992,-73.98471236228943,casual
783361,C29698182970A283,electric_bike,2021-12-08 09:30:24,2021-12-08 09:39:09,Hanson Pl & Ashland Pl,4395,Bridge St & York St,4853,40.68506807308177,-73.97790759801863,40.70133448066992,-73.98471236228943,member
783373,F98C867B29B629E5,classic_bike,2021-12-12 15:40:15,2021-12-12 15:55:42,Douglass St & 3 Ave,4217,Bridge St & York St,4853,40.6802133,-73.98432695,40.70133448066992,-73.98471236228943,member
783544,3098E43F4E21B600,electric_bike,2021-12-22 18:48:22,2021-12-22 18:48:57,Bridge St & York St,4853,Bridge St & York St,4853,40.70133448066992,-73.98471236228943,40.70133448066992,-73.98471236228943,member
783649,CE3484A51B497B7F,classic_bike,2021-12-02 10:01:35,2021-12-02 10:28:22,Bridge St & York St,4853,5 Ave & 3 St,3987,40.70133448066992,-73.98471236228943,40.6728155,-73.98352355,member
783796,1436A78A35092D78,classic_bike,2021-12-10 15:45:25,2021-12-10 16:00:07,1 Ave & E 6 St,5626,Bridge St & York St,4853,40.72633085971696,-73.98616880178452,40.70133448066992,-73.98471236228943,member
783855,20BE1B3C2EF19F5C,electric_bike,2021-12-09 18:16:30,2021-12-09 18:36:26,Devoe St & Lorimer St,5259,Bridge St & York St,4853,40.71335226222875,-73.9491033554077,40.70133448066992,-73.98471236228943,member
783972,38315BFEE5A5732B,classic_bike,2021-12-11 17:42:14,2021-12-11 17:49:12,Court St & State St,4488,Bridge St & York St,4853,40.6902375,-73.99203074,40.70133448066992,-73.98471236228943,member
783992,A4297910EC0B3C72,classic_bike,2021-12-25 14:43:35,2021-12-25 14:54:19,Hicks St & Montague St,4645,Bridge St & York St,4853,40.69512845,-73.99595065,40.70133448066992,-73.98471236228943,member
784085,B3E43951BBEA875C,classic_bike,2021-12-15 12:14:14,2021-12-15 12:15:07,Bridge St & Water St,4968,Bridge St & York St,4853,40.70296934155272,-73.98469090461731,40.70133448066992,-73.98471236228943,member
784097,AB60BA36ACA2627E,electric_bike,2021-12-13 09:35:40,2021-12-13 09:37:42,Cadman Plaza E & Red Cross Pl,4821,Bridge St & York St,4853,40.69991755,-73.98971773,40.70133448066992,-73.98471236228943,member
784102,97E4B7A7A2507113,electric_bike,2021-12-08 14:07:59,2021-12-08 14:10:32,Cadman Plaza E & Red Cross Pl,4821,Bridge St & York St,4853,40.69991755,-73.98971773,40.70133448066992,-73.98471236228943,casual
784143,1A486E9EF5A729DA,classic_bike,2021-12-12 20:07:22,2021-12-12 20:23:27,Washington Ave & Greene Ave,4419,Bridge St & York St,4853,40.68650065,-73.96563307,40.70133448066992,-73.98471236228943,member
784161,A35E1D19BE2B844D,classic_bike,2021-12-22 18:52:04,2021-12-22 19:03:13,5 St & Market St,4843,Bridge St & York St,4853,40.6999974843885,-73.97440128028393,40.70133448066992,-73.98471236228943,member
784180,81302387252B5B74,electric_bike,2021-12-14 11:36:23,2021-12-14 11:48:58,Hicks St & Montague St,4645,Bridge St & York St,4853,40.69512845,-73.99595065,40.70133448066992,-73.98471236228943,member
784292,A0E284AFEE9B5D18,classic_bike,2021-12-26 15:32:51,2021-12-26 15:48:23,Douglass St & 3 Ave,4217,Bridge St & York St,4853,40.6802133,-73.98432695,40.70133448066992,-73.98471236228943,member
784312,542884E69A00D7DB,electric_bike,2021-12-03 10:06:39,2021-12-03 10:16:25,Hanson Pl & Ashland Pl,4395,Bridge St & York St,4853,40.68506807308177,-73.97790759801863,40.70133448066992,-73.98471236228943,member
784343,E06D548212E408FA,classic_bike,2021-12-04 10:54:35,2021-12-04 11:16:20,Leonard St & Boerum St,5036,Bridge St & York St,4853,40.70583339,-73.94644578,40.70133448066992,-73.98471236228943,member
784388,D6E8456D505F8AAA,docked_bike,2021-12-28 13:18:48,2021-12-28 13:36:10,Prospect Pl & Vanderbilt Ave,4157,Bridge St & York St,4853,40.677675,-73.969021,40.701334,-73.984712,casual
784438,9B7520DF1368FB2B,electric_bike,2021-12-03 14:16:34,2021-12-03 14:32:51,Centre St & Chambers St,5207,Bridge St & York St,4853,40.71273266,-74.0046073,40.70133448066992,-73.98471236228943,casual
784480,A9137B1C7EA4EE42,docked_bike,2021-12-28 13:18:57,2021-12-28 13:36:12,Prospect Pl & Vanderbilt Ave,4157,Bridge St & York St,4853,40.677675,-73.969021,40.701334,-73.984712,casual
784573,87CBBF5C4ECD028A,classic_bike,2021-12-10 14:58:47,2021-12-10 15:09:59,Hanson Pl & Ashland Pl,4395,Bridge St & York St,4853,40.68506807308177,-73.97790759801863,40.70133448066992,-73.98471236228943,member
784578,04D030B12B1E6576,electric_bike,2021-12-18 14:06:49,2021-12-18 14:19:05,Bergen St & Vanderbilt Ave,4157,Bridge St & York St,4853,40.6794388,-73.9680438,40.70133448066992,-73.98471236228943,member
784664,80617843156DA64D,classic_bike,2021-12-30 18:57:47,2021-12-30 19:06:35,Adelphi St & Myrtle Ave,4620,Bridge St & York St,4853,40.69308257,-73.97178913,40.70133448066992,-73.98471236228943,casual
785447,1AABEEA8D71FC741,classic_bike,2021-12-14 11:14:14,2021-12-14 11:32:00,Adams St & Prospect St,4821,Bridge St & York St,4853,40.70076308326151,-73.98869812488556,40.70133448066992,-73.98471236228943,casual
785610,4BCE800F93E683BD,electric_bike,2021-12-15 12:32:05,2021-12-15 12:33:54,Adams St & Prospect St,4821,Bridge St & York St,4853,40.70076308326151,-73.98869812488556,40.70133448066992,-73.98471236228943,member
785614,96B1DFBC20F66C05,classic_bike,2021-12-05 13:01:04,2021-12-05 13:21:30,Norfolk St & Broome St,5374,Bridge St & York St,4853,40.7172274,-73.98802084,40.70133448066992,-73.98471236228943,member
785657,885FA18B4F592F1F,classic_bike,2021-12-14 11:10:48,2021-12-14 11:32:03,Adams St & Prospect St,4821,Bridge St & York St,4853,40.70076308326151,-73.98869812488556,40.70133448066992,-73.98471236228943,casual
785699,0BE7F76C1A367EE8,electric_bike,2021-12-05 13:07:24,2021-12-05 13:20:33,Plaza St East & Flatbush Ave,4010,Bridge St & York St,4853,40.673134,-73.969106,40.70133448066992,-73.98471236228943,member
785903,356DEB92B3DDFAAA,classic_bike,2021-12-22 15:13:51,2021-12-22 15:17:25,Bridge St & York St,4853,Bridge St & York St,4853,40.70133448066992,-73.98471236228943,40.70133448066992,-73.98471236228943,casual
785928,FA051BE4AD48BA93,classic_bike,2021-12-12 23:10:43,2021-12-12 23:54:38,Bridge St & York St,4853,Bridge St & York St,4853,40.70133448066992,-73.98471236228943,40.70133448066992,-73.98471236228943,member
785985,AE2CE152EE910CC7,electric_bike,2021-12-10 17:53:11,2021-12-10 17:53:30,Bridge St & York St,4853,Bridge St & York St,4853,40.70133448066992,-73.98471236228943,40.70133448066992,-73.98471236228943,member
786009,C77ED931C20D0DBF,electric_bike,2021-12-10 18:07:36,2021-12-10 18:08:11,Bridge St & York St,4853,Bridge St & York St,4853,40.70133448066992,-73.98471236228943,40.70133448066992,-73.98471236228943,member
786023,BCD2D70C33A92678,electric_bike,2021-12-10 17:39:33,2021-12-10 17:40:09,Bridge St & York St,4853,Bridge St & York St,4853,40.70133448066992,-73.98471236228943,40.70133448066992,-73.98471236228943,member
786265,EEC39B9B0547F58F,electric_bike,2021-12-13 23:59:23,2021-12-14 00:07:46,Pike St & Monroe St,5159,Bridge St & York St,4853,40.71173107,-73.99193043,40.70133448066992,-73.98471236228943,casual
786304,BE7DAA50B970EFDD,electric_bike,2021-12-28 03:08:22,2021-12-28 03:17:25,Pike St & Monroe St,5159,Bridge St & York St,4853,40.71173107,-73.99193043,40.70133448066992,-73.98471236228943,casual
786429,843291FA0E2FDEFF,classic_bike,2021-12-09 19:17:21,2021-12-09 19:35:48,Norfolk St & Broome St,5374,Bridge St & York St,4853,40.7172274,-73.98802084,40.70133448066992,-73.98471236228943,member
786480,046405A6B22C0647,docked_bike,2021-12-28 13:18:53,2021-12-28 13:36:13,Prospect Pl & Vanderbilt Ave,4157,Bridge St & York St,4853,40.677675,-73.969021,40.701334,-73.984712,casual
786503,AE470CD527AA0925,classic_bike,2021-12-14 11:30:38,2021-12-14 11:50:27,Myrtle Ave & Marcy Ave,4707,Bridge St & York St,4853,40.69539817,-73.94954908,40.70133448066992,-73.98471236228943,member
786556,FDFEE027F1349F1C,classic_bike,2021-12-04 15:33:16,2021-12-04 15:39:47,Cadman Plaza E & Tillary St,4677,Bridge St & York St,4853,40.69597683,-73.99014892,40.70133448066992,-73.98471236228943,member
786562,11884F07583AB892,classic_bike,2021-12-11 11:22:05,2021-12-11 11:28:22,Cadman Plaza E & Tillary St,4677,Bridge St & York St,4853,40.69597683,-73.99014892,40.70133448066992,-73.98471236228943,member
786574,E82F2DAB30131A2C,electric_bike,2021-12-04 15:33:06,2021-12-04 15:39:50,Cadman Plaza E & Tillary St,4677,Bridge St & York St,4853,40.69597683,-73.99014892,40.70133448066992,-73.98471236228943,casual
786718,B4A6526B3AC93AB0,classic_bike,2021-12-13 09:12:41,2021-12-13 09:17:02,Jay St & Tech Pl,4710,Bridge St & York St,4853,40.695065,-73.987167,40.70133448066992,-73.98471236228943,member
786763,A1345A3C7DD494A3,classic_bike,2021-12-08 08:33:10,2021-12-08 09:13:38,Jay St & Tech Pl,4710,Bridge St & York St,4853,40.695065,-73.987167,40.70133448066992,-73.98471236228943,member
786771,097B144748705B92,electric_bike,2021-12-06 21:38:32,2021-12-06 21:48:03,Boerum Pl\t& Pacific St,4488,Bridge St & York St,4853,40.68848905639242,-73.99116039276123,40.70133448066992,-73.98471236228943,member
786773,EA4E195101F7110B,classic_bike,2021-12-10 14:09:22,2021-12-10 14:14:05,5 St & Market St,4843,Bridge St & York St,4853,40.6999974843885,-73.97440128028393,40.70133448066992,-73.98471236228943,member
786775,3FF5EDD9FDECCBE4,classic_bike,2021-12-12 20:06:47,2021-12-12 20:23:14,Washington Ave & Greene Ave,4419,Bridge St & York St,4853,40.68650065,-73.96563307,40.70133448066992,-73.98471236228943,member
786847,FA94759B23FC66DF,classic_bike,2021-12-03 19:46:17,2021-12-03 19:48:20,Adams St & Prospect St,4821,Bridge St & York St,4853,40.70076308326151,-73.98869812488556,40.70133448066992,-73.98471236228943,member
786852,7ACF5C72F4350D87,electric_bike,2021-12-14 09:14:44,2021-12-14 09:20:26,5 St & Market St,4843,Bridge St & York St,4853,40.6999974843885,-73.97440128028393,40.70133448066992,-73.98471236228943,member
786897,DEADBE90F51BDF55,electric_bike,2021-12-16 11:57:40,2021-12-16 12:02:32,5 St & Market St,4843,Bridge St & York St,4853,40.6999974843885,-73.97440128028393,40.70133448066992,-73.98471236228943,member
786977,42DCF713303EB52B,electric_bike,2021-12-02 16:25:06,2021-12-02 16:29:56,5 St & Market St,4843,Bridge St & York St,4853,40.6999974843885,-73.97440128028393,40.70133448066992,-73.98471236228943,member
787096,38F2F56288D83B1C,classic_bike,2021-12-24 10:36:32,2021-12-24 10:36:49,Bridge St & York St,4853,Bridge St & York St,4853,40.70133448066992,-73.98471236228943,40.70133448066992,-73.98471236228943,member
787164,BC85E1F9B29870AB,electric_bike,2021-12-13 09:19:07,2021-12-13 09:25:05,5 St & Market St,4843,Bridge St & York St,4853,40.6999974843885,-73.97440128028393,40.70133448066992,-73.98471236228943,member
787176,BB7C820938FFB439,electric_bike,2021-12-08 19:59:19,2021-12-08 20:05:39,Pierrepont St & Monroe Pl,4718,Bridge St & York St,4853,40.69535693320225,-73.99344027042389,40.70133448066992,-73.98471236228943,member
787298,9BA0575F206E6BA5,classic_bike,2021-12-06 14:46:03,2021-12-06 14:47:06,Bridge St & York St,4853,Bridge St & York St,4853,40.70133448066992,-73.98471236228943,40.70133448066992,-73.98471236228943,casual
787333,5281D62D21197F83,electric_bike,2021-12-09 20:09:40,2021-12-09 20:12:21,Bridge St & York St,4853,Bridge St & York St,4853,40.70133448066992,-73.98471236228943,40.70133448066992,-73.98471236228943,member
787342,D81E0F503825D6E4,electric_bike,2021-12-30 13:48:11,2021-12-30 13:48:56,Bridge St & York St,4853,Bridge St & York St,4853,40.70133448066992,-73.98471236228943,40.70133448066992,-73.98471236228943,member
787427,9D0305F0EFD375E9,electric_bike,2021-12-16 14:23:05,2021-12-16 14:34:31,Bridge St & York St,4853,1 Ave & E 6 St,5626,40.70133448066992,-73.98471236228943,40.72633085971696,-73.98616880178452,member
787534,B1A1AF63D27E0AC9,classic_bike,2021-12-13 10:20:34,2021-12-13 10:21:27,Bridge St & York St,4853,Bridge St & York St,4853,40.70133448066992,-73.98471236228943,40.70133448066992,-73.98471236228943,casual
787945,4DC89A8B6D081CA4,electric_bike,2021-12-10 11:51:18,2021-12-10 11:52:50,Bridge St & York St,4853,Bridge St & York St,4853,40.70133448066992,-73.98471236228943,40.70133448066992,-73.98471236228943,casual
788087,BB6E3B1E6C6FE986,classic_bike,2021-12-10 11:07:03,2021-12-10 11:15:31,Boerum Pl\t& Pacific St,4488,Bridge St & York St,4853,40.68848905639242,-73.99116039276123,40.70133448066992,-73.98471236228943,casual
788177,41968A3C255F3478,electric_bike,2021-12-25 19:04:11,2021-12-25 19:14:27,Front St & Washington St,4936,Bridge St & York St,4853,40.70255088,-73.98940236,40.70133448066992,-73.98471236228943,member
788244,EC407804D5B37DC1,electric_bike,2021-12-13 08:55:25,2021-12-13 09:33:52,Front St & Gold St,4927,Bridge St & York St,4853,40.70224,-73.982578,40.70133448066992,-73.98471236228943,casual
788248,CF9970C022CF00CD,classic_bike,2021-12-17 19:22:44,2021-12-17 19:24:03,Front St & Gold St,4927,Bridge St & York St,4853,40.70224,-73.982578,40.70133448066992,-73.98471236228943,member
788330,74D7A05528111333,classic_bike,2021-12-14 11:53:46,2021-12-14 12:31:04,Centre St & Chambers St,5207,Bridge St & York St,4853,40.71273266,-74.0046073,40.70133448066992,-73.98471236228943,casual
788357,7C86FBD23747BE2D,electric_bike,2021-12-23 17:19:17,2021-12-23 17:24:14,Park Ave & St Edwards St,4700,Bridge St & York St,4853,40.69608941,-73.97803415,40.70133448066992,-73.98471236228943,member
788358,568546195DF31612,classic_bike,2021-12-28 13:18:18,2021-12-28 13:36:02,Prospect Pl & Vanderbilt Ave,4157,Bridge St & York St,4853,40.67767534269111,-73.96902143955231,40.70133448066992,-73.98471236228943,member
788379,7BCD89158CE3A370,classic_bike,2021-12-18 13:57:52,2021-12-18 14:12:37,Douglass St & 3 Ave,4217,Bridge St & York St,4853,40.6802133,-73.98432695,40.70133448066992,-73.98471236228943,member
788446,049A9DA2C48A8503,classic_bike,2021-12-21 18:44:17,2021-12-21 18:51:15,Bridge St & York St,4853,Bridge St & York St,4853,40.70133448066992,-73.98471236228943,40.70133448066992,-73.98471236228943,casual
788448,95B7D8B2EC717D35,classic_bike,2021-12-06 15:00:02,2021-12-06 15:07:57,Bridge St & York St,4853,Bridge St & York St,4853,40.70133448066992,-73.98471236228943,40.70133448066992,-73.98471236228943,casual
788459,EE44EB9115D919B2,classic_bike,2021-12-25 22:42:31,2021-12-25 22:48:33,Bridge St & York St,4853,Bridge St & York St,4853,40.70133448066992,-73.98471236228943,40.70133448066992,-73.98471236228943,member
788498,3283225E309E443E,electric_bike,2021-12-12 15:10:20,2021-12-12 15:25:06,Prospect Pl & Vanderbilt Ave,4157,Bridge St & York St,4853,40.67767534269111,-73.96902143955231,40.70133448066992,-73.98471236228943,member
788519,B8A94833B315DE45,classic_bike,2021-12-14 11:53:06,2021-12-14 12:31:00,Centre St & Chambers St,5207,Bridge St & York St,4853,40.71273266,-74.0046073,40.70133448066992,-73.98471236228943,casual
788521,E68192061521DFA6,docked_bike,2021-12-28 13:18:49,2021-12-28 13:36:19,Prospect Pl & Vanderbilt Ave,4157,Bridge St & York St,4853,40.677675,-73.969021,40.701334,-73.984712,casual
788579,48696898941A07D4,classic_bike,2021-12-08 19:59:23,2021-12-08 20:00:16,Bridge St & York St,4853,Bridge St & York St,4853,40.70133448066992,-73.98471236228943,40.70133448066992,-73.98471236228943,member
788798,E57ADF52605D24E7,electric_bike,2021-12-08 09:43:09,2021-12-08 09:55:59,Lafayette Ave & Classon Ave,4452,Bridge St & York St,4853,40.68900443,-73.96023854,40.70133448066992,-73.98471236228943,member
789040,85A1FD11B2E81514,classic_bike,2021-12-01 17:23:23,2021-12-01 17:46:26,3 St & 3 Ave,4028,Bridge St & York St,4853,40.6750705,-73.98775226,40.70133448066992,-73.98471236228943,member
789212,2782C92E1B92345A,classic_bike,2021-12-09 10:20:49,2021-12-09 10:31:45,Court St & State St,4488,Bridge St & York St,4853,40.6902375,-73.99203074,40.70133448066992,-73.98471236228943,casual
789269,DE592763F1F82676,classic_bike,2021-12-01 18:09:13,2021-12-01 18:45:08,W 24 St & 7 Ave,6257,Bridge St & York St,4853,40.74487634,-73.99529885,40.70133448066992,-73.98471236228943,member
789436,D5478C24B290B1FC,electric_bike,2021-12-16 10:12:34,2021-12-16 10:21:46,Fulton St & Clermont Ave,4386,Bridge St & York St,4853,40.68415748,-73.96922273,40.70133448066992,-73.98471236228943,member
789757,A675222C87746115,electric_bike,2021-12-17 10:56:37,2021-12-17 11:01:05,Montague St & Clinton St,4677,Bridge St & York St,4853,40.6942715,-73.9923272,40.70133448066992,-73.98471236228943,casual
789809,37B44D26C28B15D1,electric_bike,2021-12-01 12:12:15,2021-12-01 12:44:00,Washington Ave & Greene Ave,4419,Bridge St & York St,4853,40.68650065,-73.96563307,40.70133448066992,-73.98471236228943,casual
789876,75755D178CFF8CE9,classic_bike,2021-12-10 09:09:29,2021-12-10 09:19:26,Willoughby Ave & Hall St,4611,Bridge St & York St,4853,40.69196035,-73.96536851,40.70133448066992,-73.98471236228943,member
789934,9AEA6C631425C543,classic_bike,2021-12-13 00:06:57,2021-12-13 00:18:23,Henry St & Atlantic Ave,4531,Bridge St & York St,4853,40.69089272,-73.99612349,40.70133448066992,-73.98471236228943,member
790037,11B0D5AF010D46D4,classic_bike,2021-12-14 07:24:26,2021-12-14 07:26:34,Front St & Gold St,4927,Bridge St & York St,4853,40.70224,-73.982578,40.70133448066992,-73.98471236228943,casual
790368,ED1F933ACF2002E9,electric_bike,2021-12-15 10:38:10,2021-12-15 10:49:55,Henry St & Atlantic Ave,4531,Bridge St & York St,4853,40.69089272,-73.99612349,40.70133448066992,-73.98471236228943,casual
790440,B82A7A264A53BCFA,electric_bike,2021-12-08 09:38:48,2021-12-08 09:58:57,Scholes St & Manhattan Ave,5108,Bridge St & York St,4853,40.70870368,-73.9448625,40.70133448066992,-73.98471236228943,member
790784,D426480CB2008DD7,classic_bike,2021-12-12 11:52:59,2021-12-12 12:14:28,Marcy Ave & Lafayette Ave,4476,Bridge St & York St,4853,40.6900815,-73.947915,40.70133448066992,-73.98471236228943,member
790786,8916AB088E88DDE9,classic_bike,2021-12-16 08:33:29,2021-12-16 09:00:04,Jackson St & Leonard St,5332,Bridge St & York St,4853,40.71638031973561,-73.94821286201477,40.70133448066992,-73.98471236228943,member
790787,53073946FA52C420,classic_bike,2021-12-07 10:00:32,2021-12-07 10:46:44,24 St & 41 Ave,6505,Bridge St & York St,4853,40.752474,-73.939991,40.70133448066992,-73.98471236228943,member
790818,342CAB7587788793,classic_bike,2021-12-15 06:38:49,2021-12-15 07:07:05,N 11 St & Kent Ave,5489,Bridge St & York St,4853,40.72248188638219,-73.95921930670738,40.70133448066992,-73.98471236228943,casual
790819,A979AA6D88333E3C,classic_bike,2021-12-15 06:42:01,2021-12-15 07:07:18,N 11 St & Kent Ave,5489,Bridge St & York St,4853,40.72248188638219,-73.95921930670738,40.70133448066992,-73.98471236228943,casual
791285,9383A8CB83E11E35,classic_bike,2021-12-20 21:32:00,2021-12-20 21:37:21,Sands St Gate,4812,Bridge St & York St,4853,40.699569,-73.979827,40.70133448066992,-73.98471236228943,member
791291,6CD315CD273523F4,classic_bike,2021-12-13 10:42:11,2021-12-13 11:14:49,Carmine St & 6 Ave,5763,Bridge St & York St,4853,40.73038599,-74.00214988,40.70133448066992,-73.98471236228943,casual
791348,26D2FA35F18DA664,electric_bike,2021-12-16 20:00:34,2021-12-16 20:03:27,Sands St Gate,4812,Bridge St & York St,4853,40.699569,-73.979827,40.70133448066992,-73.98471236228943,member
791359,9D230455246EE9F3,electric_bike,2021-12-26 09:44:16,2021-12-26 10:02:28,Montague St & Clinton St,4677,Bridge St & York St,4853,40.6942715,-73.9923272,40.70133448066992,-73.98471236228943,member
791372,03B8E6D1B3581E65,electric_bike,2021-12-17 13:14:00,2021-12-17 13:35:09,Montague St & Clinton St,4677,Bridge St & York St,4853,40.6942715,-73.9923272,40.70133448066992,-73.98471236228943,casual
791418,047FFF84FE4636C0,classic_bike,2021-12-09 12:42:14,2021-12-09 13:12:53,E 9 St & Avenue C,5616,Bridge St & York St,4853,40.72521311,-73.97768752,40.70133448066992,-73.98471236228943,member
791438,CBB262F280572A81,electric_bike,2021-12-02 10:34:40,2021-12-02 10:48:37,6 Ave & Canal St,5500,Bridge St & York St,4853,40.72243797,-74.00566443,40.70133448066992,-73.98471236228943,member
791662,2ECF6EA59AD31A2F,classic_bike,2021-12-10 12:18:32,2021-12-10 12:39:22,E 9 St & Avenue C,5616,Bridge St & York St,4853,40.72521311,-73.97768752,40.70133448066992,-73.98471236228943,member
792136,AD37F643E30CE3C1,electric_bike,2021-12-26 17:48:41,2021-12-26 17:54:09,Montague St & Clinton St,4677,Bridge St & York St,4853,40.6942715,-73.9923272,40.70133448066992,-73.98471236228943,member
792196,C6A09C631CEDE1E5,electric_bike,2021-12-15 12:58:06,2021-12-15 13:05:08,Montague St & Clinton St,4677,Bridge St & York St,4853,40.6942715,-73.9923272,40.70133448066992,-73.98471236228943,casual
792487,8BFCBAA93D6843FA,classic_bike,2021-12-10 09:17:43,2021-12-10 09:22:47,Jay St & Tech Pl,4710,Bridge St & York St,4853,40.695065,-73.987167,40.70133448066992,-73.98471236228943,member
792780,32B042BEA623EA8E,classic_bike,2021-12-13 16:00:53,2021-12-13 16:06:48,Sands St Gate,4812,Bridge St & York St,4853,40.699569,-73.979827,40.70133448066992,-73.98471236228943,member
792969,ABF17AFB4FB2412D,classic_bike,2021-12-13 10:42:41,2021-12-13 11:15:07,Carmine St & 6 Ave,5763,Bridge St & York St,4853,40.73038599,-74.00214988,40.70133448066992,-73.98471236228943,casual
792992,7B8F2F71FECA4FFB,classic_bike,2021-12-02 12:16:17,2021-12-02 12:22:07,Montague St & Clinton St,4677,Bridge St & York St,4853,40.6942715,-73.9923272,40.70133448066992,-73.98471236228943,member
819358,3433829508490E65,electric_bike,2021-12-12 14:53:40,2021-12-12 15:12:16,Bridge St & York St,4853,S 4 St & Wythe Ave,5204,40.70133448066992,-73.98471236228943,40.71285887,-73.96590294,casual
834458,B71CE00805B127EE,electric_bike,2021-12-11 16:25:15,2021-12-11 16:41:01,Bridge St & York St,4853,Allen St & Rivington St,5414,40.70133448066992,-73.98471236228943,40.72019576,-73.98997825,member
835468,3A0F8A928996F714,electric_bike,2021-12-16 13:41:25,2021-12-16 13:59:17,Bridge St & York St,4853,Broadway & Berry St,5164,40.70133448066992,-73.98471236228943,40.71044554,-73.96525063,casual
849498,1E46A00F85EB4F23,electric_bike,2021-12-03 17:30:49,2021-12-03 17:52:19,Bridge St & York St,4853,Hart St & Wyckoff Ave,4971,40.70133448066992,-73.98471236228943,40.704876,-73.919911,member
849500,24ADDB8377D7E2E7,classic_bike,2021-12-13 08:25:01,2021-12-13 08:26:38,Bridge St & York St,4853,Front St & Jay St,4895,40.70133448066992,-73.98471236228943,40.702461,-73.986842,member
849712,D0AB1EB8AB7AFC7C,classic_bike,2021-12-25 18:48:44,2021-12-26 19:48:38,Bridge St & York St,4853,,nan,40.70133448066992,-73.98471236228943,,,member
850762,B25BF93654978501,classic_bike,2021-12-21 11:37:32,2021-12-21 15:01:37,Bridge St & York St,4853,,nan,40.70133448066992,-73.98471236228943,40.69,-73.99,casual
858923,8AA7CB36AEAB3373,electric_bike,2021-12-01 13:28:34,2021-12-01 13:48:10,Bridge St & York St,4853,St Marks Pl & 1 Ave,5626,40.70133448066992,-73.98471236228943,40.72779126,-73.98564945,casual
859423,A56639B762F2ADFE,electric_bike,2021-12-22 13:36:29,2021-12-22 13:53:50,Bridge St & York St,4853,St Marks Pl & 1 Ave,5626,40.70133448066992,-73.98471236228943,40.72779126,-73.98564945,member
871269,74BD413570EF8700,classic_bike,2021-12-09 12:13:33,2021-12-09 12:25:41,Bridge St & York St,4853,Canal St & Rutgers St,5303,40.70133448066992,-73.98471236228943,40.71427487,-73.98990025,casual
898106,461C406E6E8D0E7B,electric_bike,2021-12-11 15:24:43,2021-12-11 15:58:57,Bridge St & York St,4853,Lafayette Ave & St James Pl,4494,40.70133448066992,-73.98471236228943,40.68851534,-73.9647628,casual
899505,3B6A5F141C8D545E,classic_bike,2021-12-28 12:43:11,2021-12-28 12:58:25,Bridge St & York St,4853,Lafayette Ave & St James Pl,4494,40.70133448066992,-73.98471236228943,40.68851534,-73.9647628,member
902159,D28988AC098CDABC,electric_bike,2021-12-10 17:41:42,2021-12-10 17:54:36,Bridge St & York St,4853,President St & Henry St,4307,40.70133448066992,-73.98471236228943,40.6828003,-73.99990419,member
904530,A399BD63DE2BCA1A,electric_bike,2021-12-08 16:19:42,2021-12-08 16:31:59,Bridge St & York St,4853,Lafayette Ave & St James Pl,4494,40.70133448066992,-73.98471236228943,40.68851534,-73.9647628,casual
904553,EE0371C719DC5A67,electric_bike,2021-12-26 14:15:33,2021-12-26 14:28:08,Bridge St & York St,4853,President St & Henry St,4307,40.70133448066992,-73.98471236228943,40.6828003,-73.99990419,member
906148,DDB441A813DB41C0,electric_bike,2021-12-14 18:22:49,2021-12-14 18:38:04,Bridge St & York St,4853,Boerum St & Broadway,5004,40.70133448066992,-73.98471236228943,40.70538077,-73.94976519,casual
941213,4ED89C3E0A75AA8F,electric_bike,2021-12-13 16:06:36,2021-12-13 16:36:25,Bridge St & York St,4853,E 27 St & 1 Ave,6004,40.70133448066992,-73.98471236228943,40.739445,-73.976806,member
968729,47C12B9C1435E920,classic_bike,2021-12-02 16:06:45,2021-12-02 16:27:47,Bridge St & York St,4853,Lexington Ave & Classon Ave,4452,40.70133448066992,-73.98471236228943,40.68676793,-73.95928168,casual
983702,FC34D405AD5BF663,electric_bike,2021-12-13 11:18:50,2021-12-13 11:25:37,Bridge St & York St,4853,Hicks St & Montague St,4645,40.70133448066992,-73.98471236228943,40.69512845,-73.99595065,member
994502,F219A6F04B24211E,electric_bike,2021-12-07 14:09:58,2021-12-07 14:15:52,Bridge St & York St,4853,Court St & State St,4488,40.70133448066992,-73.98471236228943,40.6902375,-73.99203074,member
1010765,F56F5B6E14C6D0C6,electric_bike,2021-12-23 10:11:09,2021-12-23 11:00:10,Bridge St & York St,4853,Jay St & Tech Pl,4710,40.70133448066992,-73.98471236228943,40.695065,-73.987167,member
1030840,C08AC3B1290E38C6,electric_bike,2021-12-03 17:26:32,2021-12-03 17:44:45,Bridge St & York St,4853,Wythe Ave & Metropolitan Ave,5348,40.70133448066992,-73.98471236228943,40.716887,-73.963198,casual
1031329,4D5D96A142D0B0D7,electric_bike,2021-12-18 15:49:01,2021-12-18 16:00:40,Bridge St & York St,4853,Willoughby Ave & Walworth St,4634,40.70133448066992,-73.98471236228943,40.69331716,-73.95381995,casual
1036750,D8B56FC62DCB5E72,classic_bike,2021-12-28 15:29:16,2021-12-28 15:31:45,Bridge St & York St,4853,Front St & Gold St,4927,40.70133448066992,-73.98471236228943,40.70224,-73.982578,member
1037032,90C724FF90F67BED,classic_bike,2021-12-17 18:20:53,2021-12-17 18:25:23,Bridge St & York St,4853,Front St & Gold St,4927,40.70133448066992,-73.98471236228943,40.70224,-73.982578,member
1037054,6D9910891E4FFA0B,classic_bike,2021-12-23 18:52:24,2021-12-23 19:00:36,Bridge St & York St,4853,Park Ave & St Edwards St,4700,40.70133448066992,-73.98471236228943,40.69608941,-73.97803415,member
1037071,3B7E150521B8B5FE,classic_bike,2021-12-22 18:50:17,2021-12-22 18:51:35,Bridge St & York St,4853,Front St & Gold St,4927,40.70133448066992,-73.98471236228943,40.70224,-73.982578,member
1038277,A4C630E47B6A78AD,classic_bike,2021-12-17 18:20:54,2021-12-17 18:25:50,Bridge St & York St,4853,Front St & Gold St,4927,40.70133448066992,-73.98471236228943,40.70224,-73.982578,member
1038384,5A5302205B621AB6,electric_bike,2021-12-08 13:53:55,2021-12-08 14:07:06,Bridge St & York St,4853,Front St & Gold St,4927,40.70133448066992,-73.98471236228943,40.70224,-73.982578,member
1039096,D40AA61607BCD83E,electric_bike,2021-12-15 13:29:25,2021-12-15 13:38:05,Bridge St & York St,4853,Park Ave & St Edwards St,4700,40.70133448066992,-73.98471236228943,40.69608941,-73.97803415,casual
1042874,526976774A48F6ED,classic_bike,2021-12-26 08:44:33,2021-12-26 08:52:15,Bridge St & York St,4853,Front St & Washington St,4936,40.70133448066992,-73.98471236228943,40.70255088,-73.98940236,member
1044302,DC462E0D21C1C522,electric_bike,2021-12-18 13:45:36,2021-12-18 13:50:17,Bridge St & York St,4853,Front St & Washington St,4936,40.70133448066992,-73.98471236228943,40.70255088,-73.98940236,casual
1055056,2DB8CC2B218F49BD,classic_bike,2021-12-05 10:04:16,2021-12-05 10:24:37,Bridge St & York St,4853,Carroll St & Smith St,4225,40.70133448066992,-73.98471236228943,40.680611,-73.99475825,member
1057288,EDBEA452DBC1308B,classic_bike,2021-12-21 08:13:50,2021-12-21 08:24:48,Bridge St & York St,4853,Lafayette Ave & Ft Greene Pl,4470,40.70133448066992,-73.98471236228943,40.68700231292619,-73.97664964199066,casual
1057354,C4332EEE9342A1A6,classic_bike,2021-12-16 19:17:20,2021-12-16 19:34:27,Bridge St & York St,4853,Lafayette Ave & Ft Greene Pl,4470,40.70133448066992,-73.98471236228943,40.68700231292619,-73.97664964199066,member
1057371,29004CB690F25D52,classic_bike,2021-12-03 13:27:25,2021-12-03 13:47:55,Bridge St & York St,4853,Lafayette St & Jersey St,5561,40.70133448066992,-73.98471236228943,40.72456089,-73.99565293,member
